{
  "131001": [
    {
      "Name": "Mehlana BO",
      "District": "SONIPAT",
      "State": "HARYANA",
      "Pincode": "131001",
      "Lat": 29.01,
      "Lng": 76.96
    },
    {
      "Name": "Rathdhana BO",
      "District": "SONIPAT",
      "State": "HARYANA",
      "Pincode": "131001",
      "Lat": 29.01,
      "Lng": 76.96
    },
    {
      "Name": "Ram BazarSonipat SO",
      "District": "SONIPAT",
      "State": "HARYANA",
      "Pincode": "131001",
      "Lat": 28.99675,
      "Lng": 77.0203333
    },
    {
      "Name": "Barwasni BO",
      "District": "SONIPAT",
      "State": "HARYANA",
      "Pincode": "131001",
      "Lat": 29.01,
      "Lng": 76.96
    },
    {
      "Name": "Shapur Turk BO",
      "District": "SONIPAT",
      "State": "HARYANA",
      "Pincode": "131001",
      "Lat": 29.01,
      "Lng": 76.96
    },
    {
      "Name": "FAZILPUR",
      "District": "SONIPAT",
      "State": "HARYANA",
      "Pincode": "131001",
      "Lat": 28.99,
      "Lng": 77.01
    },
    {
      "Name": "Gohana Road SO Sonipat",
      "District": "SONIPAT",
      "State": "HARYANA",
      "Pincode": "131001",
      "Lat": 28.98,
      "Lng": 77.02
    },
    {
      "Name": "Sonipat Kty SO",
      "District": "SONIPAT",
      "State": "HARYANA",
      "Pincode": "131001",
      "Lat": 29.0001389,
      "Lng": 77.0001389
    },
    {
      "Name": "Sandal Kalan BO",
      "District": "SONIPAT",
      "State": "HARYANA",
      "Pincode": "131001",
      "Lat": 29.01,
      "Lng": 76.96
    },
    {
      "Name": "Harsana Kalan BO",
      "District": "SONIPAT",
      "State": "HARYANA",
      "Pincode": "131001",
      "Lat": 29.01,
      "Lng": 76.96
    },
    {
      "Name": "Lehrara BO",
      "District": "SONIPAT",
      "State": "HARYANA",
      "Pincode": "131001",
      "Lat": 29.01,
      "Lng": 76.96
    },
    {
      "Name": "Rishikul Vidyapeeth BO",
      "District": "SONIPAT",
      "State": "HARYANA",
      "Pincode": "131001",
      "Lat": 29.01,
      "Lng": 76.96
    },
    {
      "Name": "Ganzbazar SO",
      "District": "SONIPAT",
      "State": "HARYANA",
      "Pincode": "131001",
      "Lat": 29.0018889,
      "Lng": 77.0186111
    },
    {
      "Name": "Model Town Sonipat SO",
      "District": "SONIPAT",
      "State": "HARYANA",
      "Pincode": "131001",
      "Lat": 28.9865556,
      "Lng": 77.0255
    },
    {
      "Name": "HOUSING BOARD COLONY SONIPAT",
      "District": "SONIPAT",
      "State": "HARYANA",
      "Pincode": "131001",
      "Lat": 28.99,
      "Lng": 77.01
    },
    {
      "Name": "Bayanpur BO",
      "District": "SONIPAT",
      "State": "HARYANA",
      "Pincode": "131001",
      "Lat": 29.01,
      "Lng": 76.96
    },
    {
      "Name": "Tharuoldepur BO",
      "District": "SONIPAT",
      "State": "HARYANA",
      "Pincode": "131001",
      "Lat": 29.01,
      "Lng": 76.96
    },
    {
      "Name": "Mohana BO",
      "District": "SONIPAT",
      "State": "HARYANA",
      "Pincode": "131001",
      "Lat": 29.01,
      "Lng": 76.96
    },
    {
      "Name": "Atlas Cycle SO",
      "District": "SONIPAT",
      "State": "HARYANA",
      "Pincode": "131001",
      "Lat": 28.9801111,
      "Lng": 77.0221111
    },
    {
      "Name": "Rathdhana Road Sonipat SO",
      "District": "SONIPAT",
      "State": "HARYANA",
      "Pincode": "131001",
      "Lat": 28.96,
      "Lng": 77.02
    },
    {
      "Name": "Sonipat Mandi SO",
      "District": "SONIPAT",
      "State": "HARYANA",
      "Pincode": "131001",
      "Lat": 28.9559167,
      "Lng": 7.0249167
    },
    {
      "Name": "Kakroi BO",
      "District": "SONIPAT",
      "State": "HARYANA",
      "Pincode": "131001",
      "Lat": 29.01,
      "Lng": 76.96
    },
    {
      "Name": "Delhi Road BO",
      "District": "SONIPAT",
      "State": "HARYANA",
      "Pincode": "131001",
      "Lat": 29.01,
      "Lng": 76.96
    },
    {
      "Name": "RATTANGARH",
      "District": "SONIPAT",
      "State": "HARYANA",
      "Pincode": "131001",
      "Lat": 28.99,
      "Lng": 77.01
    },
    {
      "Name": "Sonipat HO",
      "District": "SONIPAT",
      "State": "HARYANA",
      "Pincode": "131001",
      "Lat": 28.9926944,
      "Lng": 77.0179722
    },
    {
      "Name": "Sonipat Sector 14 SO",
      "District": "SONIPAT",
      "State": "HARYANA",
      "Pincode": "131001",
      "Lat": 29.0054167,
      "Lng": 77.3504167
    }
  ],
  "131021": [
    {
      "Name": "Deepalpur BO",
      "District": "SONIPAT",
      "State": "HARYANA",
      "Pincode": "131021",
      "Lat": 28.96,
      "Lng": 77.08
    },
    {
      "Name": "Bahalgarh SO",
      "District": "SONIPAT",
      "State": "HARYANA",
      "Pincode": "131021",
      "Lat": 28.958175,
      "Lng": 77.0929861
    },
    {
      "Name": "Khewra BO",
      "District": "SONIPAT",
      "State": "HARYANA",
      "Pincode": "131021",
      "Lat": 28.96,
      "Lng": 77.08
    },
    {
      "Name": "Baroli BO",
      "District": "SONIPAT",
      "State": "HARYANA",
      "Pincode": "131021",
      "Lat": 28.96,
      "Lng": 77.08
    },
    {
      "Name": "Qumaspur BO",
      "District": "SONIPAT",
      "State": "HARYANA",
      "Pincode": "131021",
      "Lat": 28.96,
      "Lng": 77.08
    },
    {
      "Name": "Joshi Chauhan B.O.",
      "District": "SONIPAT",
      "State": "HARYANA",
      "Pincode": "131021",
      "Lat": 28.9761,
      "Lng": 77.1
    }
  ],
  "131022": [
    {
      "Name": "Tihar Bagru BO",
      "District": "SONIPAT",
      "State": "HARYANA",
      "Pincode": "131022",
      "Lat": 21.15,
      "Lng": 81.71
    },
    {
      "Name": "Salimsar Majra BO",
      "District": "SONIPAT",
      "State": "HARYANA",
      "Pincode": "131022",
      "Lat": 21.15,
      "Lng": 81.71
    },
    {
      "Name": "Bhatgaon SO Sonipat",
      "District": "SONIPAT",
      "State": "HARYANA",
      "Pincode": "131022",
      "Lat": 28.9926944,
      "Lng": 77.0179722
    }
  ],
  "131023": [
    {
      "Name": "Jakhauli SO",
      "District": "SONIPAT",
      "State": "HARYANA",
      "Pincode": "131023",
      "Lat": 28.93425,
      "Lng": 77.1521389
    },
    {
      "Name": "Aterna BO",
      "District": "SONIPAT",
      "State": "HARYANA",
      "Pincode": "131023",
      "Lat": 29.05,
      "Lng": 76.91
    },
    {
      "Name": "Jhundpur BO",
      "District": "SONIPAT",
      "State": "HARYANA",
      "Pincode": "131023",
      "Lat": 29.05,
      "Lng": 76.91
    },
    {
      "Name": "Manauli BO",
      "District": "SONIPAT",
      "State": "HARYANA",
      "Pincode": "131023",
      "Lat": 29.05,
      "Lng": 76.91
    },
    {
      "Name": "Nangal Kalan BO",
      "District": "SONIPAT",
      "State": "HARYANA",
      "Pincode": "131023",
      "Lat": 29.65,
      "Lng": 76.43
    }
  ],
  "131024": [
    {
      "Name": "Karewari BO",
      "District": "SONIPAT",
      "State": "HARYANA",
      "Pincode": "131024",
      "Lat": 29.06,
      "Lng": 76.9
    },
    {
      "Name": "Rolad Latifpur BO",
      "District": "SONIPAT",
      "State": "HARYANA",
      "Pincode": "131024",
      "Lat": 29.06,
      "Lng": 76.9
    },
    {
      "Name": "Bohla BO",
      "District": "SONIPAT",
      "State": "HARYANA",
      "Pincode": "131024",
      "Lat": 29.06,
      "Lng": 76.9
    },
    {
      "Name": "Mahra II BO",
      "District": "SONIPAT",
      "State": "HARYANA",
      "Pincode": "131024",
      "Lat": 29.65,
      "Lng": 76.43
    },
    {
      "Name": "Juan SO",
      "District": "SONIPAT",
      "State": "HARYANA",
      "Pincode": "131024",
      "Lat": 28.9330278,
      "Lng": 76.9749722
    },
    {
      "Name": "Sitawali BO",
      "District": "SONIPAT",
      "State": "HARYANA",
      "Pincode": "131024",
      "Lat": 29.06,
      "Lng": 76.9
    }
  ],
  "131027": [
    {
      "Name": "Jainpur BO",
      "District": "SONIPAT",
      "State": "HARYANA",
      "Pincode": "131027",
      "Lat": 29.03,
      "Lng": 77.07
    },
    {
      "Name": "Asadpur Nandnaur BO",
      "District": "SONIPAT",
      "State": "HARYANA",
      "Pincode": "131027",
      "Lat": 29.03,
      "Lng": 77.07
    },
    {
      "Name": "Malikpur BO",
      "District": "SONIPAT",
      "State": "HARYANA",
      "Pincode": "131027",
      "Lat": 29.03,
      "Lng": 77.07
    },
    {
      "Name": "Murthal SO",
      "District": "SONIPAT",
      "State": "HARYANA",
      "Pincode": "131027",
      "Lat": 29.0409444,
      "Lng": 77.0894167
    }
  ],
  "131028": [
    {
      "Name": "Janti Kalan BO",
      "District": "SONIPAT",
      "State": "HARYANA",
      "Pincode": "131028",
      "Lat": 29.05,
      "Lng": 76.91
    },
    {
      "Name": "Kundli BO",
      "District": "SONIPAT",
      "State": "HARYANA",
      "Pincode": "131028",
      "Lat": 29.05,
      "Lng": 76.91
    },
    {
      "Name": "Sersa BO",
      "District": "SONIPAT",
      "State": "HARYANA",
      "Pincode": "131028",
      "Lat": 29.05,
      "Lng": 76.91
    },
    {
      "Name": "Industrial Estate Kundli SO",
      "District": "SONIPAT",
      "State": "HARYANA",
      "Pincode": "131028",
      "Lat": 28.8653889,
      "Lng": 77.1265833
    }
  ],
  "131029": [
    {
      "Name": "PSRai SO",
      "District": "SONIPAT",
      "State": "HARYANA",
      "Pincode": "131029",
      "Lat": 28.9253611,
      "Lng": 77.1035833
    },
    {
      "Name": "Pritampura BO",
      "District": "SONIPAT",
      "State": "HARYANA",
      "Pincode": "131029",
      "Lat": 28.98,
      "Lng": 77.1
    },
    {
      "Name": "Jatheri BO",
      "District": "SONIPAT",
      "State": "HARYANA",
      "Pincode": "131029",
      "Lat": 28.98,
      "Lng": 77.1
    },
    {
      "Name": "Nathupur BO",
      "District": "SONIPAT",
      "State": "HARYANA",
      "Pincode": "131029",
      "Lat": 28.98,
      "Lng": 77.1
    },
    {
      "Name": "Rai BO",
      "District": "SONIPAT",
      "State": "HARYANA",
      "Pincode": "131029",
      "Lat": 28.98,
      "Lng": 77.1
    }
  ],
  "131030": [
    {
      "Name": "TDI City Kundli SO",
      "District": "SONIPAT",
      "State": "HARYANA",
      "Pincode": "131030",
      "Lat": 28.4391,
      "Lng": 77.3009
    }
  ],
  "131039": [
    {
      "Name": "Kurar Brahimpur BO",
      "District": "SONIPAT",
      "State": "HARYANA",
      "Pincode": "131039",
      "Lat": 29.02,
      "Lng": 77.06
    },
    {
      "Name": "Sanpera BO",
      "District": "SONIPAT",
      "State": "HARYANA",
      "Pincode": "131039",
      "Lat": 29.02,
      "Lng": 77.06
    },
    {
      "Name": "Larsauli BO",
      "District": "SONIPAT",
      "State": "HARYANA",
      "Pincode": "131039",
      "Lat": 29.02,
      "Lng": 77.06
    },
    {
      "Name": "Pipli Khera BO",
      "District": "SONIPAT",
      "State": "HARYANA",
      "Pincode": "131039",
      "Lat": 29.02,
      "Lng": 77.06
    },
    {
      "Name": "Engg College Muthal SO",
      "District": "SONIPAT",
      "State": "HARYANA",
      "Pincode": "131039",
      "Lat": 29.3774722,
      "Lng": 76.9675556
    },
    {
      "Name": "Bhagan BO",
      "District": "SONIPAT",
      "State": "HARYANA",
      "Pincode": "131039",
      "Lat": 29.02,
      "Lng": 77.06
    }
  ],
  "131101": [
    {
      "Name": "Bali Qutubpur BO",
      "District": "SONIPAT",
      "State": "HARYANA",
      "Pincode": "131101",
      "Lat": 29.13,
      "Lng": 77.01
    },
    {
      "Name": "Bari BO",
      "District": "SONIPAT",
      "State": "HARYANA",
      "Pincode": "131101",
      "Lat": 29.13,
      "Lng": 77.01
    },
    {
      "Name": "Bega BO",
      "District": "SONIPAT",
      "State": "HARYANA",
      "Pincode": "131101",
      "Lat": 29.13,
      "Lng": 77.01
    },
    {
      "Name": "Garhi Rajlu BO",
      "District": "SONIPAT",
      "State": "HARYANA",
      "Pincode": "131101",
      "Lat": 29.13,
      "Lng": 77.01
    },
    {
      "Name": "Gumar BO",
      "District": "SONIPAT",
      "State": "HARYANA",
      "Pincode": "131101",
      "Lat": 29.14,
      "Lng": 77.07
    },
    {
      "Name": "Khubru BO",
      "District": "SONIPAT",
      "State": "HARYANA",
      "Pincode": "131101",
      "Lat": 29.13,
      "Lng": 77.01
    },
    {
      "Name": "Datauli BO",
      "District": "SONIPAT",
      "State": "HARYANA",
      "Pincode": "131101",
      "Lat": 29.13,
      "Lng": 77.01
    },
    {
      "Name": "AhulanaGannur BO",
      "District": "SONIPAT",
      "State": "HARYANA",
      "Pincode": "131101",
      "Lat": 29.13,
      "Lng": 77.01
    },
    {
      "Name": "Khizarpur Ahir BO",
      "District": "SONIPAT",
      "State": "HARYANA",
      "Pincode": "131101",
      "Lat": 29.13,
      "Lng": 77.01
    },
    {
      "Name": "Rajpur BO",
      "District": "SONIPAT",
      "State": "HARYANA",
      "Pincode": "131101",
      "Lat": 29.13,
      "Lng": 77.01
    },
    {
      "Name": "Sheikhpura BO",
      "District": "SONIPAT",
      "State": "HARYANA",
      "Pincode": "131101",
      "Lat": 29.13,
      "Lng": 77.01
    },
    {
      "Name": "Ganaur SO",
      "District": "SONIPAT",
      "State": "HARYANA",
      "Pincode": "131101",
      "Lat": 29.1263611,
      "Lng": 77.0201389
    },
    {
      "Name": "Ganaur City SO",
      "District": "SONIPAT",
      "State": "HARYANA",
      "Pincode": "131101",
      "Lat": 29.2062222,
      "Lng": 77.234
    },
    {
      "Name": "Ghasauli BO",
      "District": "SONIPAT",
      "State": "HARYANA",
      "Pincode": "131101",
      "Lat": 29.13,
      "Lng": 77.01
    },
    {
      "Name": "Kheri Gujjar BO",
      "District": "SONIPAT",
      "State": "HARYANA",
      "Pincode": "131101",
      "Lat": 29.13,
      "Lng": 77.01
    },
    {
      "Name": "Panchi Gujjaran BO",
      "District": "SONIPAT",
      "State": "HARYANA",
      "Pincode": "131101",
      "Lat": 29.13,
      "Lng": 77.01
    }
  ],
  "131102": [
    {
      "Name": "Pugthala BO",
      "District": "SONIPAT",
      "State": "HARYANA",
      "Pincode": "131102",
      "Lat": 29.1,
      "Lng": 76.94
    },
    {
      "Name": "Bajanakhurd BO",
      "District": "SONIPAT",
      "State": "HARYANA",
      "Pincode": "131102",
      "Lat": 28.98,
      "Lng": 77.1
    },
    {
      "Name": "Kailana BO",
      "District": "SONIPAT",
      "State": "HARYANA",
      "Pincode": "131102",
      "Lat": 28.98,
      "Lng": 77.1
    },
    {
      "Name": "Moi Majri BO",
      "District": "SONIPAT",
      "State": "HARYANA",
      "Pincode": "131102",
      "Lat": 28.98,
      "Lng": 77.1
    },
    {
      "Name": "Panchijatan BO",
      "District": "SONIPAT",
      "State": "HARYANA",
      "Pincode": "131102",
      "Lat": 29.1,
      "Lng": 76.94
    },
    {
      "Name": "Purkhas SO",
      "District": "SONIPAT",
      "State": "HARYANA",
      "Pincode": "131102",
      "Lat": 29.1101389,
      "Lng": 76.9445278
    }
  ],
  "131103": [
    {
      "Name": "Chhetra Bhahadurpur BO",
      "District": "SONIPAT",
      "State": "HARYANA",
      "Pincode": "131103",
      "Lat": 28.88,
      "Lng": 77.1
    },
    {
      "Name": "Halalpur BO",
      "District": "SONIPAT",
      "State": "HARYANA",
      "Pincode": "131103",
      "Lat": 28.88,
      "Lng": 77.1
    },
    {
      "Name": "Kheri Manajat BO",
      "District": "SONIPAT",
      "State": "HARYANA",
      "Pincode": "131103",
      "Lat": 28.88,
      "Lng": 77.1
    },
    {
      "Name": "Nahra BO",
      "District": "SONIPAT",
      "State": "HARYANA",
      "Pincode": "131103",
      "Lat": 28.88,
      "Lng": 77.1
    },
    {
      "Name": "Nahri SO",
      "District": "SONIPAT",
      "State": "HARYANA",
      "Pincode": "131103",
      "Lat": 28.8556667,
      "Lng": 77.0456667
    },
    {
      "Name": "Akabarpur Barota BO",
      "District": "SONIPAT",
      "State": "HARYANA",
      "Pincode": "131103",
      "Lat": 29.12,
      "Lng": 77.01
    },
    {
      "Name": "Mandaura BO",
      "District": "SONIPAT",
      "State": "HARYANA",
      "Pincode": "131103",
      "Lat": 28.88,
      "Lng": 77.1
    }
  ],
  "131301": [
    {
      "Name": "Chhichrana BO",
      "District": "SONIPAT",
      "State": "HARYANA",
      "Pincode": "131301",
      "Lat": 29.13,
      "Lng": 76.69
    },
    {
      "Name": "Puthi BO",
      "District": "SONIPAT",
      "State": "HARYANA",
      "Pincode": "131301",
      "Lat": 29.13,
      "Lng": 76.69
    },
    {
      "Name": "Rukhi BO",
      "District": "SONIPAT",
      "State": "HARYANA",
      "Pincode": "131301",
      "Lat": 29.13,
      "Lng": 76.69
    },
    {
      "Name": "Gohana SO",
      "District": "SONIPAT",
      "State": "HARYANA",
      "Pincode": "131301",
      "Lat": 29.13125,
      "Lng": 76.7019722
    },
    {
      "Name": "AhulanaGohana BO",
      "District": "SONIPAT",
      "State": "HARYANA",
      "Pincode": "131301",
      "Lat": 29.13,
      "Lng": 76.69
    },
    {
      "Name": "Jauli BO",
      "District": "SONIPAT",
      "State": "HARYANA",
      "Pincode": "131301",
      "Lat": 29.13,
      "Lng": 76.69
    },
    {
      "Name": "Kheri Damkan BO",
      "District": "SONIPAT",
      "State": "HARYANA",
      "Pincode": "131301",
      "Lat": 29.13,
      "Lng": 76.69
    },
    {
      "Name": "Rabra BO",
      "District": "SONIPAT",
      "State": "HARYANA",
      "Pincode": "131301",
      "Lat": 29.13,
      "Lng": 76.69
    },
    {
      "Name": "Sikenderpur Majra BO",
      "District": "SONIPAT",
      "State": "HARYANA",
      "Pincode": "131301",
      "Lat": 29.13,
      "Lng": 76.69
    },
    {
      "Name": "Bali Brahman BO",
      "District": "SONIPAT",
      "State": "HARYANA",
      "Pincode": "131301",
      "Lat": 29.13,
      "Lng": 76.69
    },
    {
      "Name": "Bhainswan Khurd BO",
      "District": "SONIPAT",
      "State": "HARYANA",
      "Pincode": "131301",
      "Lat": 29.13,
      "Lng": 76.69
    },
    {
      "Name": "Jagsi BO",
      "District": "SONIPAT",
      "State": "HARYANA",
      "Pincode": "131301",
      "Lat": 29.13,
      "Lng": 76.69
    },
    {
      "Name": "Kathura BO",
      "District": "SONIPAT",
      "State": "HARYANA",
      "Pincode": "131301",
      "Lat": 29.13,
      "Lng": 76.69
    },
    {
      "Name": "Tihar BO",
      "District": "SONIPAT",
      "State": "HARYANA",
      "Pincode": "131301",
      "Lat": 29.13,
      "Lng": 76.69
    },
    {
      "Name": "Gohana Mandi SO",
      "District": "SONIPAT",
      "State": "HARYANA",
      "Pincode": "131301",
      "Lat": 29.1388056,
      "Lng": 76.6893333
    },
    {
      "Name": "Barota BO",
      "District": "SONIPAT",
      "State": "HARYANA",
      "Pincode": "131301",
      "Lat": 29.13,
      "Lng": 76.69
    },
    {
      "Name": "Bidhal Pinana BO",
      "District": "SONIPAT",
      "State": "HARYANA",
      "Pincode": "131301",
      "Lat": 29.13,
      "Lng": 76.69
    },
    {
      "Name": "Khandrai BO",
      "District": "SONIPAT",
      "State": "HARYANA",
      "Pincode": "131301",
      "Lat": 29.13,
      "Lng": 76.69
    },
    {
      "Name": "MahraI BO",
      "District": "SONIPAT",
      "State": "HARYANA",
      "Pincode": "131301",
      "Lat": 29.13,
      "Lng": 76.69
    },
    {
      "Name": "Mehmoodpur BO",
      "District": "SONIPAT",
      "State": "HARYANA",
      "Pincode": "131301",
      "Lat": 29.13,
      "Lng": 76.69
    },
    {
      "Name": "Nayat BO",
      "District": "SONIPAT",
      "State": "HARYANA",
      "Pincode": "131301",
      "Lat": 29.13,
      "Lng": 76.69
    },
    {
      "Name": "Mini Sectt Gohana",
      "District": "SONIPAT",
      "State": "HARYANA",
      "Pincode": "131301",
      "Lat": 28.9926944,
      "Lng": 77.0179722
    },
    {
      "Name": "Bidhal BO",
      "District": "SONIPAT",
      "State": "HARYANA",
      "Pincode": "131301",
      "Lat": 29.13,
      "Lng": 76.69
    },
    {
      "Name": "Kathura Block BO",
      "District": "SONIPAT",
      "State": "HARYANA",
      "Pincode": "131301",
      "Lat": 29.13,
      "Lng": 76.69
    },
    {
      "Name": "Lath BO",
      "District": "SONIPAT",
      "State": "HARYANA",
      "Pincode": "131301",
      "Lat": 29.13,
      "Lng": 76.69
    },
    {
      "Name": "Madina BO",
      "District": "SONIPAT",
      "State": "HARYANA",
      "Pincode": "131301",
      "Lat": 29.13,
      "Lng": 76.69
    },
    {
      "Name": "Moi Hooda BO",
      "District": "SONIPAT",
      "State": "HARYANA",
      "Pincode": "131301",
      "Lat": 29.13,
      "Lng": 76.69
    },
    {
      "Name": "Bus Stand Gohana SO",
      "District": "SONIPAT",
      "State": "HARYANA",
      "Pincode": "131301",
      "Lat": 29.13125,
      "Lng": 76.7019722
    }
  ],
  "131302": [
    {
      "Name": "Gangana BO",
      "District": "SONIPAT",
      "State": "HARYANA",
      "Pincode": "131302",
      "Lat": 29.18,
      "Lng": 76.62
    },
    {
      "Name": "Nizampur BO",
      "District": "SONIPAT",
      "State": "HARYANA",
      "Pincode": "131302",
      "Lat": 29.18,
      "Lng": 76.62
    },
    {
      "Name": "Butana SO",
      "District": "SONIPAT",
      "State": "HARYANA",
      "Pincode": "131302",
      "Lat": 29.1870556,
      "Lng": 76.6254722
    },
    {
      "Name": "Bhawar BO",
      "District": "SONIPAT",
      "State": "HARYANA",
      "Pincode": "131302",
      "Lat": 29.18,
      "Lng": 76.62
    },
    {
      "Name": "Garhwal BO",
      "District": "SONIPAT",
      "State": "HARYANA",
      "Pincode": "131302",
      "Lat": 29.18,
      "Lng": 76.62
    },
    {
      "Name": "Jhs Butana BO",
      "District": "SONIPAT",
      "State": "HARYANA",
      "Pincode": "131302",
      "Lat": 29.18,
      "Lng": 76.62
    },
    {
      "Name": "Kohla BO",
      "District": "SONIPAT",
      "State": "HARYANA",
      "Pincode": "131302",
      "Lat": 29.18,
      "Lng": 76.62
    },
    {
      "Name": "Bichpari BO",
      "District": "SONIPAT",
      "State": "HARYANA",
      "Pincode": "131302",
      "Lat": 26.88,
      "Lng": 75.62
    },
    {
      "Name": "Nuran Khera BO",
      "District": "SONIPAT",
      "State": "HARYANA",
      "Pincode": "131302",
      "Lat": 29.18,
      "Lng": 76.62
    }
  ],
  "131304": [
    {
      "Name": "Dhanana Ahladpur BO",
      "District": "SONIPAT",
      "State": "HARYANA",
      "Pincode": "131304",
      "Lat": 29.14,
      "Lng": 77.04
    },
    {
      "Name": "Banwasa BO",
      "District": "SONIPAT",
      "State": "HARYANA",
      "Pincode": "131304",
      "Lat": 29.14,
      "Lng": 77.04
    },
    {
      "Name": "Rindana BO",
      "District": "SONIPAT",
      "State": "HARYANA",
      "Pincode": "131304",
      "Lat": 29.14,
      "Lng": 77.08
    },
    {
      "Name": "Chhapra BO",
      "District": "SONIPAT",
      "State": "HARYANA",
      "Pincode": "131304",
      "Lat": 29.14,
      "Lng": 77.04
    },
    {
      "Name": "Baroda SO",
      "District": "SONIPAT",
      "State": "HARYANA",
      "Pincode": "131304",
      "Lat": 29.1411111,
      "Lng": 76.6120556
    }
  ],
  "131305": [
    {
      "Name": "Khanpur Kalan BO",
      "District": "SONIPAT",
      "State": "HARYANA",
      "Pincode": "131305",
      "Lat": 29.2,
      "Lng": 76.61
    },
    {
      "Name": "Ganewari BO",
      "District": "SONIPAT",
      "State": "HARYANA",
      "Pincode": "131305",
      "Lat": 29.2,
      "Lng": 76.61
    },
    {
      "Name": "Saragthal BO",
      "District": "SONIPAT",
      "State": "HARYANA",
      "Pincode": "131305",
      "Lat": 29.2,
      "Lng": 76.61
    },
    {
      "Name": "Kanyagurukul Khanpur SO",
      "District": "SONIPAT",
      "State": "HARYANA",
      "Pincode": "131305",
      "Lat": 29.156,
      "Lng": 76.8015556
    },
    {
      "Name": "Kasandi BO",
      "District": "SONIPAT",
      "State": "HARYANA",
      "Pincode": "131305",
      "Lat": 29.2,
      "Lng": 76.61
    }
  ],
  "131306": [
    {
      "Name": "Shamri BO",
      "District": "SONIPAT",
      "State": "HARYANA",
      "Pincode": "131306",
      "Lat": 29.2,
      "Lng": 76.77
    },
    {
      "Name": "Busana BO",
      "District": "SONIPAT",
      "State": "HARYANA",
      "Pincode": "131306",
      "Lat": 28.87,
      "Lng": 76.91
    },
    {
      "Name": "Chhetra BO",
      "District": "SONIPAT",
      "State": "HARYANA",
      "Pincode": "131306",
      "Lat": 29.2,
      "Lng": 76.77
    },
    {
      "Name": "Dhurana BO",
      "District": "SONIPAT",
      "State": "HARYANA",
      "Pincode": "131306",
      "Lat": 29.2,
      "Lng": 76.77
    },
    {
      "Name": "Jawahra BO",
      "District": "SONIPAT",
      "State": "HARYANA",
      "Pincode": "131306",
      "Lat": 29.2,
      "Lng": 76.77
    },
    {
      "Name": "Mundlana SO",
      "District": "SONIPAT",
      "State": "HARYANA",
      "Pincode": "131306",
      "Lat": 29.2035278,
      "Lng": 76.7541944
    },
    {
      "Name": "Chirana BO",
      "District": "SONIPAT",
      "State": "HARYANA",
      "Pincode": "131306",
      "Lat": 29.2,
      "Lng": 76.77
    }
  ],
  "131402": [
    {
      "Name": "Gopalpur BO",
      "District": "SONIPAT",
      "State": "HARYANA",
      "Pincode": "131402",
      "Lat": 28.87,
      "Lng": 76.91
    },
    {
      "Name": "Rohna BO",
      "District": "SONIPAT",
      "State": "HARYANA",
      "Pincode": "131402",
      "Lat": 28.87,
      "Lng": 76.91
    },
    {
      "Name": "Kharkhauda SO",
      "District": "SONIPAT",
      "State": "HARYANA",
      "Pincode": "131402",
      "Lat": 28.8798056,
      "Lng": 76.9114167
    },
    {
      "Name": "Kundal BO",
      "District": "SONIPAT",
      "State": "HARYANA",
      "Pincode": "131402",
      "Lat": 28.87,
      "Lng": 76.91
    },
    {
      "Name": "Pehladpur Kiroli BO",
      "District": "SONIPAT",
      "State": "HARYANA",
      "Pincode": "131402",
      "Lat": 28.87,
      "Lng": 76.91
    },
    {
      "Name": "Bidhlan BO",
      "District": "SONIPAT",
      "State": "HARYANA",
      "Pincode": "131402",
      "Lat": 28.87,
      "Lng": 76.91
    },
    {
      "Name": "Pipli BO",
      "District": "SONIPAT",
      "State": "HARYANA",
      "Pincode": "131402",
      "Lat": 28.87,
      "Lng": 76.91
    },
    {
      "Name": "Sohti BO",
      "District": "SONIPAT",
      "State": "HARYANA",
      "Pincode": "131402",
      "Lat": 28.87,
      "Lng": 76.91
    },
    {
      "Name": "Thanakalan BO",
      "District": "SONIPAT",
      "State": "HARYANA",
      "Pincode": "131402",
      "Lat": 28.87,
      "Lng": 76.91
    },
    {
      "Name": "Barona BO",
      "District": "SONIPAT",
      "State": "HARYANA",
      "Pincode": "131402",
      "Lat": 28.87,
      "Lng": 76.91
    },
    {
      "Name": "Khanda BO",
      "District": "SONIPAT",
      "State": "HARYANA",
      "Pincode": "131402",
      "Lat": 28.87,
      "Lng": 76.91
    },
    {
      "Name": "GKMatindu BO",
      "District": "SONIPAT",
      "State": "HARYANA",
      "Pincode": "131402",
      "Lat": 28.87,
      "Lng": 76.91
    },
    {
      "Name": "Saidpur BO",
      "District": "SONIPAT",
      "State": "HARYANA",
      "Pincode": "131402",
      "Lat": 28.87,
      "Lng": 76.91
    },
    {
      "Name": "Sehri BO",
      "District": "SONIPAT",
      "State": "HARYANA",
      "Pincode": "131402",
      "Lat": 28.87,
      "Lng": 76.91
    }
  ],
  "131403": [
    {
      "Name": "Rohat SO Sonipat",
      "District": "SONIPAT",
      "State": "HARYANA",
      "Pincode": "131403",
      "Lat": 28.9926944,
      "Lng": 77.0179722
    },
    {
      "Name": "Badhana BO",
      "District": "SONIPAT",
      "State": "HARYANA",
      "Pincode": "131403",
      "Lat": 28.95,
      "Lng": 76.93
    },
    {
      "Name": "Bindroli BO",
      "District": "SONIPAT",
      "State": "HARYANA",
      "Pincode": "131403",
      "Lat": 28.95,
      "Lng": 76.93
    },
    {
      "Name": "Jharot BO",
      "District": "SONIPAT",
      "State": "HARYANA",
      "Pincode": "131403",
      "Lat": 29.1,
      "Lng": 76.94
    },
    {
      "Name": "Kanwali BO",
      "District": "SONIPAT",
      "State": "HARYANA",
      "Pincode": "131403",
      "Lat": 29.1,
      "Lng": 76.94
    }
  ],
  "131408": [
    {
      "Name": "Guhna BO",
      "District": "SONIPAT",
      "State": "HARYANA",
      "Pincode": "131408",
      "Lat": 28.98,
      "Lng": 76.81
    },
    {
      "Name": "Jasrana BO",
      "District": "SONIPAT",
      "State": "HARYANA",
      "Pincode": "131408",
      "Lat": 28.98,
      "Lng": 76.81
    },
    {
      "Name": "Gorar BO",
      "District": "SONIPAT",
      "State": "HARYANA",
      "Pincode": "131408",
      "Lat": 28.98,
      "Lng": 76.81
    },
    {
      "Name": "Garhi Sisana ED BO",
      "District": "SONIPAT",
      "State": "HARYANA",
      "Pincode": "131408",
      "Lat": 28.9,
      "Lng": 76.84
    },
    {
      "Name": "Silana BO",
      "District": "SONIPAT",
      "State": "HARYANA",
      "Pincode": "131408",
      "Lat": 28.98,
      "Lng": 76.81
    },
    {
      "Name": "Farmana SO",
      "District": "SONIPAT",
      "State": "HARYANA",
      "Pincode": "131408",
      "Lat": 28.9831944,
      "Lng": 76.8135556
    }
  ],
  "131409": [
    {
      "Name": "Bhainswal Kalan SO",
      "District": "SONIPAT",
      "State": "HARYANA",
      "Pincode": "131409",
      "Lat": 28.9894444,
      "Lng": 77.0252777
    },
    {
      "Name": "Anwali BO",
      "District": "SONIPAT",
      "State": "HARYANA",
      "Pincode": "131409",
      "Lat": 29.44,
      "Lng": 77
    },
    {
      "Name": "Riwara BO",
      "District": "SONIPAT",
      "State": "HARYANA",
      "Pincode": "131409",
      "Lat": 29.44,
      "Lng": 77
    },
    {
      "Name": "Giwana BO",
      "District": "SONIPAT",
      "State": "HARYANA",
      "Pincode": "131409",
      "Lat": 29.44,
      "Lng": 77
    },
    {
      "Name": "Katwal BO",
      "District": "SONIPAT",
      "State": "HARYANA",
      "Pincode": "131409",
      "Lat": 29.44,
      "Lng": 77
    }
  ],
  "132001": [
    {
      "Name": "Canal Colony B.O",
      "District": "KARNAL",
      "State": "HARYANA",
      "Pincode": "132001",
      "Lat": 29.32,
      "Lng": 29.32
    },
    {
      "Name": "Karnal NDRI S.O",
      "District": "KARNAL",
      "State": "HARYANA",
      "Pincode": "132001",
      "Lat": 29.7007222,
      "Lng": 76.9839167
    },
    {
      "Name": "Karnal Ram Nagar S.O",
      "District": "KARNAL",
      "State": "HARYANA",
      "Pincode": "132001",
      "Lat": 29.6985556,
      "Lng": 76.9662778
    },
    {
      "Name": "Mini sectt  sector 12 Kanral S.O",
      "District": "KARNAL",
      "State": "HARYANA",
      "Pincode": "132001",
      "Lat": 29.5902777,
      "Lng": 76.1099166
    },
    {
      "Name": "Karnal H.O",
      "District": "KARNAL",
      "State": "HARYANA",
      "Pincode": "132001",
      "Lat": 29.6874444,
      "Lng": 76.9906667
    },
    {
      "Name": "Cssri B.O",
      "District": "KARNAL",
      "State": "HARYANA",
      "Pincode": "132001",
      "Lat": 29.5286111,
      "Lng": 75.9966111
    },
    {
      "Name": "Karnal HBC S.O",
      "District": "KARNAL",
      "State": "HARYANA",
      "Pincode": "132001",
      "Lat": 29.6923611,
      "Lng": 76.9995833
    },
    {
      "Name": "Karnal Partap Pura S.O",
      "District": "KARNAL",
      "State": "HARYANA",
      "Pincode": "132001",
      "Lat": 29.6825556,
      "Lng": 76.9908333
    },
    {
      "Name": "Karnal GBS S.O",
      "District": "KARNAL",
      "State": "HARYANA",
      "Pincode": "132001",
      "Lat": 29.6972778,
      "Lng": 76.9547222
    },
    {
      "Name": "Karnal Model Town S.O",
      "District": "KARNAL",
      "State": "HARYANA",
      "Pincode": "132001",
      "Lat": 29.6996111,
      "Lng": 76.9848889
    },
    {
      "Name": "Sector 4 Karnal S.O",
      "District": "KARNAL",
      "State": "HARYANA",
      "Pincode": "132001",
      "Lat": 29.5902777,
      "Lng": 76.1099166
    },
    {
      "Name": "KARNAL KUTCHERY SO",
      "District": "KARNAL",
      "State": "HARYANA",
      "Pincode": "132001",
      "Lat": 29.713894,
      "Lng": 76.990547
    },
    {
      "Name": "Jundla Gate B.O",
      "District": "KARNAL",
      "State": "HARYANA",
      "Pincode": "132001",
      "Lat": 28.32,
      "Lng": 28.32
    },
    {
      "Name": "Kanral Industrial Area S.O",
      "District": "KARNAL",
      "State": "HARYANA",
      "Pincode": "132001",
      "Lat": 29.7096667,
      "Lng": 77.0098611
    },
    {
      "Name": "Karnal New Prem Nagar S.O",
      "District": "KARNAL",
      "State": "HARYANA",
      "Pincode": "132001",
      "Lat": 29.6933056,
      "Lng": 76.9643889
    },
    {
      "Name": "Karnal Railway Road S.O",
      "District": "KARNAL",
      "State": "HARYANA",
      "Pincode": "132001",
      "Lat": 29.6931667,
      "Lng": 76.9714167
    },
    {
      "Name": "Karnal Sadar Bazar S.O",
      "District": "KARNAL",
      "State": "HARYANA",
      "Pincode": "132001",
      "Lat": 29.6878333,
      "Lng": 76.9817778
    },
    {
      "Name": "Karnal Sector 6 S.O",
      "District": "KARNAL",
      "State": "HARYANA",
      "Pincode": "132001",
      "Lat": 29.6797458,
      "Lng": 77.0120049
    },
    {
      "Name": "Sector 8 Karnal S.O",
      "District": "KARNAL",
      "State": "HARYANA",
      "Pincode": "132001",
      "Lat": 29.5902777,
      "Lng": 76.1099166
    }
  ],
  "132022": [
    {
      "Name": "Khirajpur B.O",
      "District": "KARNAL",
      "State": "HARYANA",
      "Pincode": "132022",
      "Lat": "NA",
      "Lng": "NA"
    },
    {
      "Name": "Kunjpura S.O",
      "District": "KARNAL",
      "State": "HARYANA",
      "Pincode": "132022",
      "Lat": 29.7176111,
      "Lng": 77.0783056
    },
    {
      "Name": "Nalipar B.O",
      "District": "KARNAL",
      "State": "HARYANA",
      "Pincode": "132022",
      "Lat": "NA",
      "Lng": "NA"
    }
  ],
  "132023": [
    {
      "Name": "Bara Gaon B.O",
      "District": "KARNAL",
      "State": "HARYANA",
      "Pincode": "132023",
      "Lat": 29.6874444,
      "Lng": 76.9906666
    },
    {
      "Name": "Gheer B.O",
      "District": "KARNAL",
      "State": "HARYANA",
      "Pincode": "132023",
      "Lat": 29.6874444,
      "Lng": 76.9906666
    },
    {
      "Name": "S.S. Kunjpura S.O",
      "District": "KARNAL",
      "State": "HARYANA",
      "Pincode": "132023",
      "Lat": 29.7265278,
      "Lng": 77.0590556
    },
    {
      "Name": "Subri B.O",
      "District": "KARNAL",
      "State": "HARYANA",
      "Pincode": "132023",
      "Lat": 29.6874444,
      "Lng": 76.9906666
    },
    {
      "Name": "Tikri B.O",
      "District": "KARNAL",
      "State": "HARYANA",
      "Pincode": "132023",
      "Lat": 29.6874444,
      "Lng": 76.9906666
    }
  ],
  "132024": [
    {
      "Name": "Amupur B.O",
      "District": "KARNAL",
      "State": "HARYANA",
      "Pincode": "132024",
      "Lat": 29.3959722,
      "Lng": 76.9606388
    },
    {
      "Name": "Brass B.O",
      "District": "KARNAL",
      "State": "HARYANA",
      "Pincode": "132024",
      "Lat": 29.3959722,
      "Lng": 76.9606388
    },
    {
      "Name": "Sirsi B.O",
      "District": "KARNAL",
      "State": "HARYANA",
      "Pincode": "132024",
      "Lat": 37,
      "Lng": 37
    },
    {
      "Name": "Nissing S.O",
      "District": "KARNAL",
      "State": "HARYANA",
      "Pincode": "132024",
      "Lat": 29.6937222,
      "Lng": 76.7545278
    },
    {
      "Name": "Singhra B.O",
      "District": "KARNAL",
      "State": "HARYANA",
      "Pincode": "132024",
      "Lat": 29.3959722,
      "Lng": 76.9606388
    },
    {
      "Name": "Manjura B.O",
      "District": "KARNAL",
      "State": "HARYANA",
      "Pincode": "132024",
      "Lat": "NA",
      "Lng": "NA"
    },
    {
      "Name": "Agongh B.O",
      "District": "KARNAL",
      "State": "HARYANA",
      "Pincode": "132024",
      "Lat": 29.3959722,
      "Lng": 76.9606388
    },
    {
      "Name": "Mehmal B.O",
      "District": "KARNAL",
      "State": "HARYANA",
      "Pincode": "132024",
      "Lat": 29.3959722,
      "Lng": 76.9606388
    },
    {
      "Name": "Dachar B.O",
      "District": "KARNAL",
      "State": "HARYANA",
      "Pincode": "132024",
      "Lat": 29.3959722,
      "Lng": 76.9606388
    },
    {
      "Name": "Gonder B.O",
      "District": "KARNAL",
      "State": "HARYANA",
      "Pincode": "132024",
      "Lat": 29.3959722,
      "Lng": 76.9606388
    },
    {
      "Name": "Achhanpur B.O",
      "District": "KARNAL",
      "State": "HARYANA",
      "Pincode": "132024",
      "Lat": 29.3959722,
      "Lng": 76.9606388
    },
    {
      "Name": "Bastali B.O",
      "District": "KARNAL",
      "State": "HARYANA",
      "Pincode": "132024",
      "Lat": 29.3959722,
      "Lng": 76.9606388
    },
    {
      "Name": "Balu B.O",
      "District": "KARNAL",
      "State": "HARYANA",
      "Pincode": "132024",
      "Lat": 37,
      "Lng": 37
    }
  ],
  "132035": [
    {
      "Name": "Padha SO",
      "District": "NA",
      "State": "NA",
      "Pincode": "132035",
      "Lat": 29.57512,
      "Lng": 76.77929
    }
  ],
  "132036": [
    {
      "Name": "Chirao B.O",
      "District": "KARNAL",
      "State": "HARYANA",
      "Pincode": "132036",
      "Lat": 32.5,
      "Lng": 35.2
    },
    {
      "Name": "Sheikhpura Manchuri B.O",
      "District": "KARNAL",
      "State": "HARYANA",
      "Pincode": "132036",
      "Lat": 28.111111,
      "Lng": 29.55555
    },
    {
      "Name": "Jani B.O",
      "District": "KARNAL",
      "State": "HARYANA",
      "Pincode": "132036",
      "Lat": 28.22222,
      "Lng": 29.4444
    },
    {
      "Name": "Katleri B.O",
      "District": "KARNAL",
      "State": "HARYANA",
      "Pincode": "132036",
      "Lat": 32.5,
      "Lng": 32.5
    },
    {
      "Name": "Peont B.O",
      "District": "KARNAL",
      "State": "HARYANA",
      "Pincode": "132036",
      "Lat": 28.11111,
      "Lng": 29.4444
    },
    {
      "Name": "Picholia B.O",
      "District": "KARNAL",
      "State": "HARYANA",
      "Pincode": "132036",
      "Lat": 32.5,
      "Lng": 32.5
    },
    {
      "Name": "Bansa B.O",
      "District": "KARNAL",
      "State": "HARYANA",
      "Pincode": "132036",
      "Lat": 32.5,
      "Lng": 32.5
    },
    {
      "Name": "Jundla S.O",
      "District": "KARNAL",
      "State": "HARYANA",
      "Pincode": "132036",
      "Lat": 29.5176389,
      "Lng": 76.8698611
    },
    {
      "Name": "Kheri Naroo B.O",
      "District": "KARNAL",
      "State": "HARYANA",
      "Pincode": "132036",
      "Lat": 28.33333,
      "Lng": 29.4444
    },
    {
      "Name": "Padha B.O",
      "District": "KARNAL",
      "State": "HARYANA",
      "Pincode": "132036",
      "Lat": 28.444444,
      "Lng": 29.99999
    }
  ],
  "132037": [
    {
      "Name": "Barauta B.O",
      "District": "KARNAL",
      "State": "HARYANA",
      "Pincode": "132037",
      "Lat": 29.6874444,
      "Lng": 76.9906666
    },
    {
      "Name": "Beejna B.O",
      "District": "KARNAL",
      "State": "HARYANA",
      "Pincode": "132037",
      "Lat": 29.6874444,
      "Lng": 76.9906666
    },
    {
      "Name": "Dhakwala Gujran B.O",
      "District": "KARNAL",
      "State": "HARYANA",
      "Pincode": "132037",
      "Lat": 29.3959722,
      "Lng": 76.9606388
    },
    {
      "Name": "S.P. Sohana B.O",
      "District": "KARNAL",
      "State": "HARYANA",
      "Pincode": "132037",
      "Lat": 29.3959722,
      "Lng": 76.9606388
    },
    {
      "Name": "Ranwar B.O",
      "District": "KARNAL",
      "State": "HARYANA",
      "Pincode": "132037",
      "Lat": 29.3959722,
      "Lng": 76.9606388
    },
    {
      "Name": "Ghogripur B.O",
      "District": "KARNAL",
      "State": "HARYANA",
      "Pincode": "132037",
      "Lat": 29.3959722,
      "Lng": 76.9606388
    },
    {
      "Name": "Uncha Samana B.O",
      "District": "KARNAL",
      "State": "HARYANA",
      "Pincode": "132037",
      "Lat": 29.3959722,
      "Lng": 76.9606388
    },
    {
      "Name": "Dilawara B.O",
      "District": "KARNAL",
      "State": "HARYANA",
      "Pincode": "132037",
      "Lat": 29.3959722,
      "Lng": 76.9606388
    },
    {
      "Name": "Mohidinpur B.O",
      "District": "KARNAL",
      "State": "HARYANA",
      "Pincode": "132037",
      "Lat": 29.6874444,
      "Lng": 76.9606388
    },
    {
      "Name": "Nagla Megha B.O",
      "District": "KARNAL",
      "State": "HARYANA",
      "Pincode": "132037",
      "Lat": 29.6874444,
      "Lng": 76.9906666
    },
    {
      "Name": "Madhuban PTC S.O",
      "District": "KARNAL",
      "State": "HARYANA",
      "Pincode": "132037",
      "Lat": 29.3959722,
      "Lng": 76.9606389
    },
    {
      "Name": "Bajida Jattan B.O",
      "District": "KARNAL",
      "State": "HARYANA",
      "Pincode": "132037",
      "Lat": 29.3959722,
      "Lng": 76.9606388
    },
    {
      "Name": "Kutail B.O",
      "District": "KARNAL",
      "State": "HARYANA",
      "Pincode": "132037",
      "Lat": 29.3959722,
      "Lng": 76.9606388
    },
    {
      "Name": "Ganjogarhi B.O",
      "District": "KARNAL",
      "State": "HARYANA",
      "Pincode": "132037",
      "Lat": 29.3959722,
      "Lng": 76.9606388
    },
    {
      "Name": "Phoosgarh B.O",
      "District": "KARNAL",
      "State": "HARYANA",
      "Pincode": "132037",
      "Lat": 29.3959722,
      "Lng": 76.9606388
    },
    {
      "Name": "RASULPUR KHURD B.O",
      "District": "KARNAL",
      "State": "HARYANA",
      "Pincode": "132037",
      "Lat": 29.86544,
      "Lng": 76.9787
    },
    {
      "Name": "Madhuban S.O (Karnal)",
      "District": "KARNAL",
      "State": "HARYANA",
      "Pincode": "132037",
      "Lat": 29.612,
      "Lng": 76.984
    }
  ],
  "132039": [
    {
      "Name": "Bandarala B.O",
      "District": "KARNAL",
      "State": "HARYANA",
      "Pincode": "132039",
      "Lat": 100,
      "Lng": 100
    },
    {
      "Name": "Jalmana B.O",
      "District": "KARNAL",
      "State": "HARYANA",
      "Pincode": "132039",
      "Lat": 100,
      "Lng": 100
    },
    {
      "Name": "Karsa Chor B.O",
      "District": "KARNAL",
      "State": "HARYANA",
      "Pincode": "132039",
      "Lat": 100,
      "Lng": 100
    },
    {
      "Name": "Rahra B.O",
      "District": "KARNAL",
      "State": "HARYANA",
      "Pincode": "132039",
      "Lat": 100,
      "Lng": 100
    },
    {
      "Name": "Assandh S.O",
      "District": "KARNAL",
      "State": "HARYANA",
      "Pincode": "132039",
      "Lat": 29.5212222,
      "Lng": 76.6070278
    },
    {
      "Name": "Ardhana B.O",
      "District": "KARNAL",
      "State": "HARYANA",
      "Pincode": "132039",
      "Lat": 100,
      "Lng": 100
    },
    {
      "Name": "Bilona B.O",
      "District": "KARNAL",
      "State": "HARYANA",
      "Pincode": "132039",
      "Lat": 100,
      "Lng": 100
    },
    {
      "Name": "Mardanheri B.O",
      "District": "KARNAL",
      "State": "HARYANA",
      "Pincode": "132039",
      "Lat": 100,
      "Lng": 100
    },
    {
      "Name": "Uplana B.O",
      "District": "KARNAL",
      "State": "HARYANA",
      "Pincode": "132039",
      "Lat": 100,
      "Lng": 100
    },
    {
      "Name": "Chochra B.O",
      "District": "KARNAL",
      "State": "HARYANA",
      "Pincode": "132039",
      "Lat": 100,
      "Lng": 100
    },
    {
      "Name": "Popran B.O",
      "District": "KARNAL",
      "State": "HARYANA",
      "Pincode": "132039",
      "Lat": 100,
      "Lng": 100
    },
    {
      "Name": "Thal B.O",
      "District": "KARNAL",
      "State": "HARYANA",
      "Pincode": "132039",
      "Lat": 100,
      "Lng": 100
    },
    {
      "Name": "Bahari B.O",
      "District": "KARNAL",
      "State": "HARYANA",
      "Pincode": "132039",
      "Lat": 100,
      "Lng": 100
    },
    {
      "Name": "Jai Singh Pura B.O",
      "District": "KARNAL",
      "State": "HARYANA",
      "Pincode": "132039",
      "Lat": 100,
      "Lng": 100
    },
    {
      "Name": "Kheri Sarf Ali B.O",
      "District": "KARNAL",
      "State": "HARYANA",
      "Pincode": "132039",
      "Lat": 100,
      "Lng": 100
    }
  ],
  "132040": [
    {
      "Name": "Munak B.O",
      "District": "KARNAL",
      "State": "HARYANA",
      "Pincode": "132040",
      "Lat": 100,
      "Lng": 100
    },
    {
      "Name": "Ballah S.O",
      "District": "KARNAL",
      "State": "HARYANA",
      "Pincode": "132040",
      "Lat": 29.5053611,
      "Lng": 76.7852222
    },
    {
      "Name": "MUNAK",
      "District": "KARNAL",
      "State": "HARYANA",
      "Pincode": "132040",
      "Lat": "NA",
      "Lng": "NA"
    },
    {
      "Name": "Bal Rangan B.O",
      "District": "KARNAL",
      "State": "HARYANA",
      "Pincode": "132040",
      "Lat": 100,
      "Lng": 100
    }
  ],
  "132041": [
    {
      "Name": "Hanori B.O",
      "District": "KARNAL",
      "State": "HARYANA",
      "Pincode": "132041",
      "Lat": 29.5902777,
      "Lng": 76.1099166
    },
    {
      "Name": "Sanghowa B.O",
      "District": "KARNAL",
      "State": "HARYANA",
      "Pincode": "132041",
      "Lat": 29.5902777,
      "Lng": 76.1099166
    },
    {
      "Name": "Kheri Man Singh B.O",
      "District": "KARNAL",
      "State": "HARYANA",
      "Pincode": "132041",
      "Lat": 29.5902777,
      "Lng": 76.1099166
    },
    {
      "Name": "Muradhgarh B.O",
      "District": "KARNAL",
      "State": "HARYANA",
      "Pincode": "132041",
      "Lat": 29.5902777,
      "Lng": 76.1099166
    },
    {
      "Name": "Khera B.O",
      "District": "KARNAL",
      "State": "HARYANA",
      "Pincode": "132041",
      "Lat": 29.5902777,
      "Lng": 76.1099166
    },
    {
      "Name": "Garhi Jattan B.O",
      "District": "KARNAL",
      "State": "HARYANA",
      "Pincode": "132041",
      "Lat": 29.5902777,
      "Lng": 76.1099166
    },
    {
      "Name": "Khanpur B.O",
      "District": "KARNAL",
      "State": "HARYANA",
      "Pincode": "132041",
      "Lat": 29.5902777,
      "Lng": 76.1099166
    },
    {
      "Name": "Kheri Bhutan B.O",
      "District": "KARNAL",
      "State": "HARYANA",
      "Pincode": "132041",
      "Lat": 29.5902777,
      "Lng": 76.1099166
    },
    {
      "Name": "Nagla Roran B.O",
      "District": "KARNAL",
      "State": "HARYANA",
      "Pincode": "132041",
      "Lat": 29.5902777,
      "Lng": 76.1099166
    },
    {
      "Name": "Pathera B.O",
      "District": "KARNAL",
      "State": "HARYANA",
      "Pincode": "132041",
      "Lat": 29.5902777,
      "Lng": 76.1099166
    },
    {
      "Name": "Darar B.O",
      "District": "KARNAL",
      "State": "HARYANA",
      "Pincode": "132041",
      "Lat": 29.89,
      "Lng": 29.99
    },
    {
      "Name": "Indri Town S.O",
      "District": "KARNAL",
      "State": "HARYANA",
      "Pincode": "132041",
      "Lat": 29.8799444,
      "Lng": 77.0571944
    },
    {
      "Name": "Bibi Pur Jattan B.O",
      "District": "KARNAL",
      "State": "HARYANA",
      "Pincode": "132041",
      "Lat": 29.5902777,
      "Lng": 76.1099166
    },
    {
      "Name": "Johar Majra B.O",
      "District": "KARNAL",
      "State": "HARYANA",
      "Pincode": "132041",
      "Lat": 29.5902777,
      "Lng": 76.1099166
    },
    {
      "Name": "Indri S.O",
      "District": "KARNAL",
      "State": "HARYANA",
      "Pincode": "132041",
      "Lat": 29.5494444,
      "Lng": 77.0507778
    }
  ],
  "132046": [
    {
      "Name": "Thari B.O",
      "District": "KARNAL",
      "State": "HARYANA",
      "Pincode": "132046",
      "Lat": 29.5286111,
      "Lng": 75.9966111
    },
    {
      "Name": "A.K.G.V.Mormajra B.O",
      "District": "KARNAL",
      "State": "HARYANA",
      "Pincode": "132046",
      "Lat": 29.5286111,
      "Lng": 75.9966111
    },
    {
      "Name": "Phaphrana B.O",
      "District": "KARNAL",
      "State": "HARYANA",
      "Pincode": "132046",
      "Lat": 29.5286111,
      "Lng": 75.9966111
    },
    {
      "Name": "Goli B.O",
      "District": "KARNAL",
      "State": "HARYANA",
      "Pincode": "132046",
      "Lat": 29.5286111,
      "Lng": 75.9966111
    },
    {
      "Name": "Kurlan B.O",
      "District": "KARNAL",
      "State": "HARYANA",
      "Pincode": "132046",
      "Lat": 29.5286111,
      "Lng": 75.9966111
    },
    {
      "Name": "Salwan S.O",
      "District": "KARNAL",
      "State": "HARYANA",
      "Pincode": "132046",
      "Lat": 29.5052778,
      "Lng": 76.7146111
    }
  ],
  "132054": [
    {
      "Name": "Kalri Jagir B.O",
      "District": "KARNAL",
      "State": "HARYANA",
      "Pincode": "132054",
      "Lat": 100,
      "Lng": 100
    },
    {
      "Name": "Biana B.O",
      "District": "KARNAL",
      "State": "HARYANA",
      "Pincode": "132054",
      "Lat": 100,
      "Lng": 100
    },
    {
      "Name": "Chogawan B.O",
      "District": "KARNAL",
      "State": "HARYANA",
      "Pincode": "132054",
      "Lat": 100,
      "Lng": 100
    },
    {
      "Name": "Dabkoli Kalan B.O",
      "District": "KARNAL",
      "State": "HARYANA",
      "Pincode": "132054",
      "Lat": 100,
      "Lng": 100
    },
    {
      "Name": "Kalsora B.O",
      "District": "KARNAL",
      "State": "HARYANA",
      "Pincode": "132054",
      "Lat": 100,
      "Lng": 100
    },
    {
      "Name": "Garhi Birbal S.O",
      "District": "KARNAL",
      "State": "HARYANA",
      "Pincode": "132054",
      "Lat": 29.9111944,
      "Lng": 77.1550278
    },
    {
      "Name": "Nangal B.O",
      "District": "KARNAL",
      "State": "HARYANA",
      "Pincode": "132054",
      "Lat": 100,
      "Lng": 100
    }
  ],
  "132101": [
    {
      "Name": "Karhans B.O",
      "District": "PANIPAT",
      "State": "HARYANA",
      "Pincode": "132101",
      "Lat": 35.36,
      "Lng": 26.36
    },
    {
      "Name": "Naraina B.O",
      "District": "PANIPAT",
      "State": "HARYANA",
      "Pincode": "132101",
      "Lat": 36.36,
      "Lng": 32.33
    },
    {
      "Name": "Kiwana B.O",
      "District": "PANIPAT",
      "State": "HARYANA",
      "Pincode": "132101",
      "Lat": 33.69,
      "Lng": 32.3
    },
    {
      "Name": "Beholi B.O",
      "District": "PANIPAT",
      "State": "HARYANA",
      "Pincode": "132101",
      "Lat": 33.66,
      "Lng": 33.6
    },
    {
      "Name": "Jaurasi B.O",
      "District": "PANIPAT",
      "State": "HARYANA",
      "Pincode": "132101",
      "Lat": 38.63,
      "Lng": 33.68
    },
    {
      "Name": "Machhrauli B.O",
      "District": "PANIPAT",
      "State": "HARYANA",
      "Pincode": "132101",
      "Lat": 28.66,
      "Lng": 32.33
    },
    {
      "Name": "Chulkana B.O",
      "District": "PANIPAT",
      "State": "HARYANA",
      "Pincode": "132101",
      "Lat": 33.3,
      "Lng": 22.2
    },
    {
      "Name": "Manana B.O",
      "District": "PANIPAT",
      "State": "HARYANA",
      "Pincode": "132101",
      "Lat": 33.69,
      "Lng": 32.32
    },
    {
      "Name": "Samalkha S.O",
      "District": "PANIPAT",
      "State": "HARYANA",
      "Pincode": "132101",
      "Lat": 29.2446944,
      "Lng": 77.0093333
    },
    {
      "Name": "Namunda B.O",
      "District": "PANIPAT",
      "State": "HARYANA",
      "Pincode": "132101",
      "Lat": 36.99,
      "Lng": 37.89
    }
  ],
  "132102": [
    {
      "Name": "Gandhi Samarak Nidhi B.O",
      "District": "PANIPAT",
      "State": "HARYANA",
      "Pincode": "132102",
      "Lat": 33.33,
      "Lng": 25.36
    },
    {
      "Name": "Patti Kalyana S.O",
      "District": "PANIPAT",
      "State": "HARYANA",
      "Pincode": "132102",
      "Lat": 29.2116944,
      "Lng": 77.2351667
    },
    {
      "Name": "Bhodwal Majri B.O",
      "District": "PANIPAT",
      "State": "HARYANA",
      "Pincode": "132102",
      "Lat": 33.36,
      "Lng": 29.88
    },
    {
      "Name": "Mahoti B.O",
      "District": "PANIPAT",
      "State": "HARYANA",
      "Pincode": "132102",
      "Lat": 33.66,
      "Lng": 33.99
    }
  ],
  "132103": [
    {
      "Name": "Panipat GT Road S.O",
      "District": "PANIPAT",
      "State": "HARYANA",
      "Pincode": "132103",
      "Lat": 29.5902777,
      "Lng": 76.1099166
    },
    {
      "Name": "Panipat Kishanpura S.O",
      "District": "PANIPAT",
      "State": "HARYANA",
      "Pincode": "132103",
      "Lat": 29.3774722,
      "Lng": 76.9675556
    },
    {
      "Name": "Panipat City S.O",
      "District": "PANIPAT",
      "State": "HARYANA",
      "Pincode": "132103",
      "Lat": 29.3919611,
      "Lng": 76.9767305
    },
    {
      "Name": "Panipat Kranti Nagar S.O",
      "District": "PANIPAT",
      "State": "HARYANA",
      "Pincode": "132103",
      "Lat": 29.3809167,
      "Lng": 76.8595833
    },
    {
      "Name": "Panipat H.O",
      "District": "PANIPAT",
      "State": "HARYANA",
      "Pincode": "132103",
      "Lat": 29.3961111,
      "Lng": 76.9603333
    },
    {
      "Name": "Panipat N.S.M. S.O",
      "District": "PANIPAT",
      "State": "HARYANA",
      "Pincode": "132103",
      "Lat": 29.3884167,
      "Lng": 76.98075
    },
    {
      "Name": "Panipat Model Town S.O",
      "District": "PANIPAT",
      "State": "HARYANA",
      "Pincode": "132103",
      "Lat": 29.3866944,
      "Lng": 76.9565556
    },
    {
      "Name": "Panipat Patel Nagar S.O",
      "District": "PANIPAT",
      "State": "HARYANA",
      "Pincode": "132103",
      "Lat": 29.4030278,
      "Lng": 76.9734444
    },
    {
      "Name": "Panipat Sugar Mills S.O",
      "District": "PANIPAT",
      "State": "HARYANA",
      "Pincode": "132103",
      "Lat": 29.3731944,
      "Lng": 76.9596944
    }
  ],
  "132104": [
    {
      "Name": "Ugra Kheri B.O",
      "District": "PANIPAT",
      "State": "HARYANA",
      "Pincode": "132104",
      "Lat": 32.6,
      "Lng": 32.6
    },
    {
      "Name": "Jalalpur B.O",
      "District": "PANIPAT",
      "State": "HARYANA",
      "Pincode": "132104",
      "Lat": 25.3,
      "Lng": 25.3
    },
    {
      "Name": "Barana B.O",
      "District": "PANIPAT",
      "State": "HARYANA",
      "Pincode": "132104",
      "Lat": 34.43,
      "Lng": 36.63
    },
    {
      "Name": "Bapoli B.O",
      "District": "PANIPAT",
      "State": "HARYANA",
      "Pincode": "132104",
      "Lat": 25.3,
      "Lng": 25.3
    },
    {
      "Name": "Panipat Kathery (U) B.O",
      "District": "PANIPAT",
      "State": "HARYANA",
      "Pincode": "132104",
      "Lat": 36.36,
      "Lng": 25.25
    },
    {
      "Name": "Rajkheri B.O",
      "District": "PANIPAT",
      "State": "HARYANA",
      "Pincode": "132104",
      "Lat": 29.21,
      "Lng": 25.69
    },
    {
      "Name": "Babail B.O",
      "District": "PANIPAT",
      "State": "HARYANA",
      "Pincode": "132104",
      "Lat": 25.3,
      "Lng": 25.3
    },
    {
      "Name": "Noorwala B.O",
      "District": "PANIPAT",
      "State": "HARYANA",
      "Pincode": "132104",
      "Lat": 25.3,
      "Lng": 25.3
    },
    {
      "Name": "Chhajpur Kalan B.O",
      "District": "PANIPAT",
      "State": "HARYANA",
      "Pincode": "132104",
      "Lat": 25.3,
      "Lng": 25.3
    },
    {
      "Name": "Risalu B.O",
      "District": "PANIPAT",
      "State": "HARYANA",
      "Pincode": "132104",
      "Lat": 32.6,
      "Lng": 32.6
    },
    {
      "Name": "Chandoli B.O",
      "District": "PANIPAT",
      "State": "HARYANA",
      "Pincode": "132104",
      "Lat": 25.3,
      "Lng": 25.3
    },
    {
      "Name": "Nanhera B.O",
      "District": "PANIPAT",
      "State": "HARYANA",
      "Pincode": "132104",
      "Lat": 23.36,
      "Lng": 36.35
    },
    {
      "Name": "PPT Camp No. 2 B.O",
      "District": "PANIPAT",
      "State": "HARYANA",
      "Pincode": "132104",
      "Lat": 36.34,
      "Lng": 36.35
    },
    {
      "Name": "Garhi Basic B.O",
      "District": "PANIPAT",
      "State": "HARYANA",
      "Pincode": "132104",
      "Lat": 25.3,
      "Lng": 25.3
    },
    {
      "Name": "Kurar B.O",
      "District": "PANIPAT",
      "State": "HARYANA",
      "Pincode": "132104",
      "Lat": 25.3,
      "Lng": 25.3
    },
    {
      "Name": "Panipat Khadi Ashram S.O",
      "District": "PANIPAT",
      "State": "HARYANA",
      "Pincode": "132104",
      "Lat": 29.3711667,
      "Lng": 76.975
    },
    {
      "Name": "Goela Kalan B.O",
      "District": "PANIPAT",
      "State": "HARYANA",
      "Pincode": "132104",
      "Lat": 29.5902777,
      "Lng": 76.1099166
    },
    {
      "Name": "Sanauli Khurd B.O",
      "District": "PANIPAT",
      "State": "HARYANA",
      "Pincode": "132104",
      "Lat": 34.25,
      "Lng": 36.78
    }
  ],
  "132105": [
    {
      "Name": "Panipat Thermal Project S.O",
      "District": "PANIPAT",
      "State": "HARYANA",
      "Pincode": "132105",
      "Lat": 29.392675,
      "Lng": 76.9650361
    },
    {
      "Name": "Assan Kalan B.O",
      "District": "PANIPAT",
      "State": "HARYANA",
      "Pincode": "132105",
      "Lat": 32.3,
      "Lng": 25.3
    },
    {
      "Name": "Sutana B.O",
      "District": "PANIPAT",
      "State": "HARYANA",
      "Pincode": "132105",
      "Lat": 33.3,
      "Lng": 39.5
    },
    {
      "Name": "Shodapur B.O",
      "District": "PANIPAT",
      "State": "HARYANA",
      "Pincode": "132105",
      "Lat": 29.66,
      "Lng": 33.33
    },
    {
      "Name": "Untla B.O",
      "District": "PANIPAT",
      "State": "HARYANA",
      "Pincode": "132105",
      "Lat": 29.3,
      "Lng": 33.6
    },
    {
      "Name": "Jattal B.O",
      "District": "PANIPAT",
      "State": "HARYANA",
      "Pincode": "132105",
      "Lat": 33.8,
      "Lng": 33.2
    },
    {
      "Name": "Bhadar B.O",
      "District": "PANIPAT",
      "State": "HARYANA",
      "Pincode": "132105",
      "Lat": 33.3,
      "Lng": 36.3
    },
    {
      "Name": "Kalkha B.O",
      "District": "PANIPAT",
      "State": "HARYANA",
      "Pincode": "132105",
      "Lat": 29.3,
      "Lng": 29.2
    },
    {
      "Name": "Lohari B.O",
      "District": "PANIPAT",
      "State": "HARYANA",
      "Pincode": "132105",
      "Lat": 33.3,
      "Lng": 25.3
    }
  ],
  "132106": [
    {
      "Name": "Binjhol B.O",
      "District": "PANIPAT",
      "State": "HARYANA",
      "Pincode": "132106",
      "Lat": 36.87,
      "Lng": 25.85
    },
    {
      "Name": "Bursham B.O",
      "District": "PANIPAT",
      "State": "HARYANA",
      "Pincode": "132106",
      "Lat": 36.39,
      "Lng": 32.36
    },
    {
      "Name": "Panipat NFL S.O",
      "District": "PANIPAT",
      "State": "HARYANA",
      "Pincode": "132106",
      "Lat": 29.36213889,
      "Lng": 76.97230556
    }
  ],
  "132107": [
    {
      "Name": "Pardhana B.O",
      "District": "PANIPAT",
      "State": "HARYANA",
      "Pincode": "132107",
      "Lat": 25.5,
      "Lng": 25.5
    },
    {
      "Name": "Karad B.O",
      "District": "PANIPAT",
      "State": "HARYANA",
      "Pincode": "132107",
      "Lat": 25.5,
      "Lng": 25.5
    },
    {
      "Name": "Kurana B.O",
      "District": "PANIPAT",
      "State": "HARYANA",
      "Pincode": "132107",
      "Lat": 23.6,
      "Lng": 23.6
    },
    {
      "Name": "Shahpur B.O",
      "District": "PANIPAT",
      "State": "HARYANA",
      "Pincode": "132107",
      "Lat": 29.5902777,
      "Lng": 76.1099166
    },
    {
      "Name": "Seenk B.O",
      "District": "PANIPAT",
      "State": "HARYANA",
      "Pincode": "132107",
      "Lat": 26.6,
      "Lng": 26.6
    },
    {
      "Name": "Mandi B.O",
      "District": "PANIPAT",
      "State": "HARYANA",
      "Pincode": "132107",
      "Lat": 25.6,
      "Lng": 25.6
    },
    {
      "Name": "Urlana Kalan B.O",
      "District": "PANIPAT",
      "State": "HARYANA",
      "Pincode": "132107",
      "Lat": 29.5902777,
      "Lng": 76.1099166
    },
    {
      "Name": "Ahar B.O",
      "District": "PANIPAT",
      "State": "HARYANA",
      "Pincode": "132107",
      "Lat": 23.5,
      "Lng": 23.5
    },
    {
      "Name": "Bandh B.O",
      "District": "PANIPAT",
      "State": "HARYANA",
      "Pincode": "132107",
      "Lat": 26.5,
      "Lng": 26.5
    },
    {
      "Name": "Puther B.O",
      "District": "PANIPAT",
      "State": "HARYANA",
      "Pincode": "132107",
      "Lat": 23.5,
      "Lng": 23.5
    },
    {
      "Name": "Buana Lakhu B.O",
      "District": "PANIPAT",
      "State": "HARYANA",
      "Pincode": "132107",
      "Lat": 26.4,
      "Lng": 26.4
    },
    {
      "Name": "Jondhan Kalan B.O",
      "District": "PANIPAT",
      "State": "HARYANA",
      "Pincode": "132107",
      "Lat": 29.5902777,
      "Lng": 76.1099166
    },
    {
      "Name": "Israna S.O",
      "District": "PANIPAT",
      "State": "HARYANA",
      "Pincode": "132107",
      "Lat": 29.2734444,
      "Lng": 76.8505278
    }
  ],
  "132108": [
    {
      "Name": "Dadola B.O",
      "District": "PANIPAT",
      "State": "HARYANA",
      "Pincode": "132108",
      "Lat": 25.3,
      "Lng": 25.3
    },
    {
      "Name": "Siwaha B.O",
      "District": "PANIPAT",
      "State": "HARYANA",
      "Pincode": "132108",
      "Lat": 25.3,
      "Lng": 25.3
    },
    {
      "Name": "Panipat Beas Project S.O",
      "District": "PANIPAT",
      "State": "HARYANA",
      "Pincode": "132108",
      "Lat": 29.3473056,
      "Lng": 76.9805
    },
    {
      "Name": "Diwana B.O",
      "District": "PANIPAT",
      "State": "HARYANA",
      "Pincode": "132108",
      "Lat": 25.3,
      "Lng": 25.3
    },
    {
      "Name": "Pasina Kalan BO B.O",
      "District": "PANIPAT",
      "State": "HARYANA",
      "Pincode": "132108",
      "Lat": 25.3,
      "Lng": 25.3
    }
  ],
  "132113": [
    {
      "Name": "Adyana B.O",
      "District": "PANIPAT",
      "State": "HARYANA",
      "Pincode": "132113",
      "Lat": 25.3,
      "Lng": 25.3
    },
    {
      "Name": "Nara B.O",
      "District": "PANIPAT",
      "State": "HARYANA",
      "Pincode": "132113",
      "Lat": 25.3,
      "Lng": 25.3
    },
    {
      "Name": "Joshi B.O",
      "District": "PANIPAT",
      "State": "HARYANA",
      "Pincode": "132113",
      "Lat": 23.5,
      "Lng": 23.5
    },
    {
      "Name": "Qawi B.O",
      "District": "PANIPAT",
      "State": "HARYANA",
      "Pincode": "132113",
      "Lat": 25.3,
      "Lng": 25.3
    },
    {
      "Name": "Allupur B.O",
      "District": "PANIPAT",
      "State": "HARYANA",
      "Pincode": "132113",
      "Lat": 29.5902777,
      "Lng": 76.1099166
    },
    {
      "Name": "Madlauda S.O",
      "District": "PANIPAT",
      "State": "HARYANA",
      "Pincode": "132113",
      "Lat": 29.3953611,
      "Lng": 76.8043889
    },
    {
      "Name": "Shera B.O",
      "District": "PANIPAT",
      "State": "HARYANA",
      "Pincode": "132113",
      "Lat": 25.3,
      "Lng": 25.3
    },
    {
      "Name": "Waisor B.O",
      "District": "PANIPAT",
      "State": "HARYANA",
      "Pincode": "132113",
      "Lat": 25.3,
      "Lng": 25.3
    },
    {
      "Name": "Ataula B.O",
      "District": "PANIPAT",
      "State": "HARYANA",
      "Pincode": "132113",
      "Lat": 25.3,
      "Lng": 25.3
    },
    {
      "Name": "Bhandari B.O",
      "District": "PANIPAT",
      "State": "HARYANA",
      "Pincode": "132113",
      "Lat": 25.3,
      "Lng": 25.3
    }
  ],
  "132114": [
    {
      "Name": "Bastara B.O",
      "District": "KARNAL",
      "State": "HARYANA",
      "Pincode": "132114",
      "Lat": 26.32,
      "Lng": 26.32
    },
    {
      "Name": "Staundi B.O",
      "District": "KARNAL",
      "State": "HARYANA",
      "Pincode": "132114",
      "Lat": 26.32,
      "Lng": 26.32
    },
    {
      "Name": "Arainpura B.O",
      "District": "KARNAL",
      "State": "HARYANA",
      "Pincode": "132114",
      "Lat": 25.12,
      "Lng": 25.12
    },
    {
      "Name": "Barsat B.O",
      "District": "KARNAL",
      "State": "HARYANA",
      "Pincode": "132114",
      "Lat": 36.36,
      "Lng": 32.35
    },
    {
      "Name": "Gagsina B.O",
      "District": "KARNAL",
      "State": "HARYANA",
      "Pincode": "132114",
      "Lat": 28.92,
      "Lng": 28.92
    },
    {
      "Name": "Gudha B.O",
      "District": "KARNAL",
      "State": "HARYANA",
      "Pincode": "132114",
      "Lat": 29.12,
      "Lng": 29.12
    },
    {
      "Name": "Lalupura B.O",
      "District": "KARNAL",
      "State": "HARYANA",
      "Pincode": "132114",
      "Lat": 28.12,
      "Lng": 28.12
    },
    {
      "Name": "Raipur Jattan B.O",
      "District": "KARNAL",
      "State": "HARYANA",
      "Pincode": "132114",
      "Lat": 26.35,
      "Lng": 26.35
    },
    {
      "Name": "HARI SINGH PUNDRI",
      "District": "KARNAL",
      "State": "HARYANA",
      "Pincode": "132114",
      "Lat": 29.5902777,
      "Lng": 76.1099166
    },
    {
      "Name": "Chaura B.O",
      "District": "KARNAL",
      "State": "HARYANA",
      "Pincode": "132114",
      "Lat": 28.02,
      "Lng": 28.02
    },
    {
      "Name": "Jamalpur B.O",
      "District": "KARNAL",
      "State": "HARYANA",
      "Pincode": "132114",
      "Lat": 23.12,
      "Lng": 23.12
    },
    {
      "Name": "Phurlak B.O",
      "District": "KARNAL",
      "State": "HARYANA",
      "Pincode": "132114",
      "Lat": 26.31,
      "Lng": 26.31
    },
    {
      "Name": "Gharunda S.O",
      "District": "KARNAL",
      "State": "HARYANA",
      "Pincode": "132114",
      "Lat": 28.5427222,
      "Lng": 76.9730556
    },
    {
      "Name": "Kalron B.O",
      "District": "KARNAL",
      "State": "HARYANA",
      "Pincode": "132114",
      "Lat": 26.32,
      "Lng": 26.32
    },
    {
      "Name": "S.P. Khalsa B.O",
      "District": "KARNAL",
      "State": "HARYANA",
      "Pincode": "132114",
      "Lat": 26.12,
      "Lng": 26.12
    },
    {
      "Name": "Faridpur B.O",
      "District": "KARNAL",
      "State": "HARYANA",
      "Pincode": "132114",
      "Lat": 29.5902777,
      "Lng": 76.1099166
    },
    {
      "Name": "Kaimla B.O",
      "District": "KARNAL",
      "State": "HARYANA",
      "Pincode": "132114",
      "Lat": 26.12,
      "Lng": 26.12
    },
    {
      "Name": "Kohand B.O",
      "District": "KARNAL",
      "State": "HARYANA",
      "Pincode": "132114",
      "Lat": 27.12,
      "Lng": 27.12
    },
    {
      "Name": "Khora Kheri B.O",
      "District": "KARNAL",
      "State": "HARYANA",
      "Pincode": "132114",
      "Lat": 29.5902777,
      "Lng": 76.1099166
    }
  ],
  "132115": [
    {
      "Name": "Hathwala S.O",
      "District": "PANIPAT",
      "State": "HARYANA",
      "Pincode": "132115",
      "Lat": 29.2262222,
      "Lng": 77.1155556
    },
    {
      "Name": "Raksera B.O",
      "District": "PANIPAT",
      "State": "HARYANA",
      "Pincode": "132115",
      "Lat": 29.5902777,
      "Lng": 76.1099166
    }
  ],
  "132116": [
    {
      "Name": "Ramana Ramani B.O",
      "District": "KARNAL",
      "State": "HARYANA",
      "Pincode": "132116",
      "Lat": 29.5286111,
      "Lng": 75.9966111
    },
    {
      "Name": "Saunkra B.O",
      "District": "KARNAL",
      "State": "HARYANA",
      "Pincode": "132116",
      "Lat": 29.5286111,
      "Lng": 75.9966111
    },
    {
      "Name": "Sagga B.O",
      "District": "KARNAL",
      "State": "HARYANA",
      "Pincode": "132116",
      "Lat": 29.5286111,
      "Lng": 75.9966111
    },
    {
      "Name": "Uchana B.O",
      "District": "KARNAL",
      "State": "HARYANA",
      "Pincode": "132116",
      "Lat": 29.5286111,
      "Lng": 75.9966111
    },
    {
      "Name": "Taroari Mandi S.O",
      "District": "KARNAL",
      "State": "HARYANA",
      "Pincode": "132116",
      "Lat": 29.8004444,
      "Lng": 76.9351944
    },
    {
      "Name": "Nariana B.O",
      "District": "KARNAL",
      "State": "HARYANA",
      "Pincode": "132116",
      "Lat": 29.5902777,
      "Lng": 76.1099166
    },
    {
      "Name": "Sultanpur B.O",
      "District": "KARNAL",
      "State": "HARYANA",
      "Pincode": "132116",
      "Lat": 29.5286111,
      "Lng": 75.9966111
    },
    {
      "Name": "Kachwa B.O",
      "District": "KARNAL",
      "State": "HARYANA",
      "Pincode": "132116",
      "Lat": 29.5286111,
      "Lng": 75.9966111
    },
    {
      "Name": "Shamgarh B.O",
      "District": "KARNAL",
      "State": "HARYANA",
      "Pincode": "132116",
      "Lat": 29.5286111,
      "Lng": 75.9966111
    },
    {
      "Name": "Taraori S.O",
      "District": "KARNAL",
      "State": "HARYANA",
      "Pincode": "132116",
      "Lat": 29.7988889,
      "Lng": 76.9283611
    },
    {
      "Name": "Kuruk Jagir B.O",
      "District": "KARNAL",
      "State": "HARYANA",
      "Pincode": "132116",
      "Lat": 29.5286111,
      "Lng": 75.9966111
    },
    {
      "Name": "Padhana B.O",
      "District": "KARNAL",
      "State": "HARYANA",
      "Pincode": "132116",
      "Lat": 29.5286111,
      "Lng": 75.9966111
    },
    {
      "Name": "Bhaini Khrud B.O",
      "District": "KARNAL",
      "State": "HARYANA",
      "Pincode": "132116",
      "Lat": 29.5286111,
      "Lng": 75.9966111
    },
    {
      "Name": "Ramba B.O",
      "District": "KARNAL",
      "State": "HARYANA",
      "Pincode": "132116",
      "Lat": 29.5286111,
      "Lng": 75.9966111
    },
    {
      "Name": "Sambhi B.O",
      "District": "KARNAL",
      "State": "HARYANA",
      "Pincode": "132116",
      "Lat": 29.5286111,
      "Lng": 75.9966111
    },
    {
      "Name": "Karna Lake B.O",
      "District": "KARNAL",
      "State": "HARYANA",
      "Pincode": "132116",
      "Lat": 29.5286111,
      "Lng": 75.9966111
    }
  ],
  "132117": [
    {
      "Name": "Nilokheri GIP S.O",
      "District": "KARNAL",
      "State": "HARYANA",
      "Pincode": "132117",
      "Lat": 29.8351111,
      "Lng": 76.9176389
    },
    {
      "Name": "Nilokheri S.O",
      "District": "KARNAL",
      "State": "HARYANA",
      "Pincode": "132117",
      "Lat": 29.8383333,
      "Lng": 76.9329722
    },
    {
      "Name": "Arjheri B.O",
      "District": "KARNAL",
      "State": "HARYANA",
      "Pincode": "132117",
      "Lat": 29.3959722,
      "Lng": 76.9606388
    },
    {
      "Name": "Bairsal B.O",
      "District": "KARNAL",
      "State": "HARYANA",
      "Pincode": "132117",
      "Lat": 29.3959722,
      "Lng": 76.9606388
    },
    {
      "Name": "Bhadson B.O",
      "District": "KARNAL",
      "State": "HARYANA",
      "Pincode": "132117",
      "Lat": 29.3959722,
      "Lng": 76.9606388
    },
    {
      "Name": "Sikri B.O",
      "District": "KARNAL",
      "State": "HARYANA",
      "Pincode": "132117",
      "Lat": 29.3959722,
      "Lng": 76.9606388
    },
    {
      "Name": "Samana Bahu B.O",
      "District": "KARNAL",
      "State": "HARYANA",
      "Pincode": "132117",
      "Lat": 29.3959722,
      "Lng": 76.9606388
    },
    {
      "Name": "Sidhpur B.O",
      "District": "KARNAL",
      "State": "HARYANA",
      "Pincode": "132117",
      "Lat": 29.3959722,
      "Lng": 76.9606388
    },
    {
      "Name": "Sandhir B.O",
      "District": "KARNAL",
      "State": "HARYANA",
      "Pincode": "132117",
      "Lat": 29.3959722,
      "Lng": 76.9606388
    },
    {
      "Name": "Udana B.O",
      "District": "KARNAL",
      "State": "HARYANA",
      "Pincode": "132117",
      "Lat": 29.3959722,
      "Lng": 76.9606388
    }
  ],
  "132122": [
    {
      "Name": "Khojkipur B.O",
      "District": "PANIPAT",
      "State": "HARYANA",
      "Pincode": "132122",
      "Lat": 29.5902777,
      "Lng": 76.1099166
    },
    {
      "Name": "Dikadla B.O",
      "District": "PANIPAT",
      "State": "HARYANA",
      "Pincode": "132122",
      "Lat": 29.5902777,
      "Lng": 76.1099166
    },
    {
      "Name": "Dehra B.O",
      "District": "PANIPAT",
      "State": "HARYANA",
      "Pincode": "132122",
      "Lat": 29.5902777,
      "Lng": 76.1099166
    },
    {
      "Name": "Atta S.O",
      "District": "PANIPAT",
      "State": "HARYANA",
      "Pincode": "132122",
      "Lat": 29.2515,
      "Lng": 77.0990833
    }
  ],
  "132140": [
    {
      "Name": "Dadlana B.O",
      "District": "PANIPAT",
      "State": "HARYANA",
      "Pincode": "132140",
      "Lat": 25.6,
      "Lng": 25.6
    },
    {
      "Name": "Panipat Refinary S.O",
      "District": "PANIPAT",
      "State": "HARYANA",
      "Pincode": "132140",
      "Lat": 29.4886111,
      "Lng": 76.8806667
    },
    {
      "Name": "Kabri B.O",
      "District": "PANIPAT",
      "State": "HARYANA",
      "Pincode": "132140",
      "Lat": 25.6,
      "Lng": 25.6
    },
    {
      "Name": "Babarpur B.O",
      "District": "PANIPAT",
      "State": "HARYANA",
      "Pincode": "132140",
      "Lat": 25.6,
      "Lng": 25.6
    },
    {
      "Name": "Ganjbarh B.O",
      "District": "PANIPAT",
      "State": "HARYANA",
      "Pincode": "132140",
      "Lat": 23.5,
      "Lng": 23.5
    },
    {
      "Name": "Refinery Township Panipat SO",
      "District": "PANIPAT",
      "State": "HARYANA",
      "Pincode": "132140",
      "Lat": 29.47308,
      "Lng": 76.87831
    },
    {
      "Name": "Rair Kalan B.O",
      "District": "PANIPAT",
      "State": "HARYANA",
      "Pincode": "132140",
      "Lat": "NA",
      "Lng": "NA"
    }
  ],
  "132145": [
    {
      "Name": "Dahar B.O",
      "District": "PANIPAT",
      "State": "HARYANA",
      "Pincode": "132145",
      "Lat": 32.5,
      "Lng": 32.5
    },
    {
      "Name": "Didwari B.O",
      "District": "PANIPAT",
      "State": "HARYANA",
      "Pincode": "132145",
      "Lat": 25.5,
      "Lng": 25.5
    },
    {
      "Name": "Palri B.O",
      "District": "PANIPAT",
      "State": "HARYANA",
      "Pincode": "132145",
      "Lat": 23.5,
      "Lng": 23.5
    },
    {
      "Name": "Neoltha S.O",
      "District": "PANIPAT",
      "State": "HARYANA",
      "Pincode": "132145",
      "Lat": 29.3102222,
      "Lng": 76.9002778
    }
  ],
  "132157": [
    {
      "Name": "Karsa Dod B.O",
      "District": "KARNAL",
      "State": "HARYANA",
      "Pincode": "132157",
      "Lat": 29.3959722,
      "Lng": 76.9606388
    },
    {
      "Name": "Majra Rodan B.O",
      "District": "KARNAL",
      "State": "HARYANA",
      "Pincode": "132157",
      "Lat": 29.3959722,
      "Lng": 76.9606388
    },
    {
      "Name": "Raison B.O",
      "District": "KARNAL",
      "State": "HARYANA",
      "Pincode": "132157",
      "Lat": 29.3959722,
      "Lng": 76.9606388
    },
    {
      "Name": "Sanwat B.O",
      "District": "KARNAL",
      "State": "HARYANA",
      "Pincode": "132157",
      "Lat": 29.3959722,
      "Lng": 76.9606388
    },
    {
      "Name": "Sitamai B.O",
      "District": "KARNAL",
      "State": "HARYANA",
      "Pincode": "132157",
      "Lat": 29.3959722,
      "Lng": 76.9606388
    },
    {
      "Name": "Nigdhu S.O",
      "District": "KARNAL",
      "State": "HARYANA",
      "Pincode": "132157",
      "Lat": 20.8370278,
      "Lng": 76.7370278
    },
    {
      "Name": "Aibla B.O",
      "District": "KARNAL",
      "State": "HARYANA",
      "Pincode": "132157",
      "Lat": 29.3959722,
      "Lng": 76.9606388
    },
    {
      "Name": "Jamba B.O",
      "District": "KARNAL",
      "State": "HARYANA",
      "Pincode": "132157",
      "Lat": 29.3959722,
      "Lng": 76.9606388
    },
    {
      "Name": "Samlbhi B.O",
      "District": "KARNAL",
      "State": "HARYANA",
      "Pincode": "132157",
      "Lat": 29.3959722,
      "Lng": 76.9606388
    }
  ],
  "133001": [
    {
      "Name": "Gobind Nagar S.O",
      "District": "AMBALA",
      "State": "HARYANA",
      "Pincode": "133001",
      "Lat": 30.3347222,
      "Lng": 76.8601389
    },
    {
      "Name": "Kacha Bazar S.O",
      "District": "AMBALA",
      "State": "HARYANA",
      "Pincode": "133001",
      "Lat": 30.3349167,
      "Lng": 76.8438889
    },
    {
      "Name": "Sadar Bazar S.O (Ambala)",
      "District": "AMBALA",
      "State": "HARYANA",
      "Pincode": "133001",
      "Lat": 30.3556547,
      "Lng": 76.7744736
    },
    {
      "Name": "Commissioner Court S.O",
      "District": "AMBALA",
      "State": "HARYANA",
      "Pincode": "133001",
      "Lat": 30.3525556,
      "Lng": 76.8473333
    },
    {
      "Name": "Hargolal S.O",
      "District": "AMBALA",
      "State": "HARYANA",
      "Pincode": "133001",
      "Lat": 30.3350833,
      "Lng": 76.8453056
    },
    {
      "Name": "Punjabi Mohalla S.O",
      "District": "AMBALA",
      "State": "HARYANA",
      "Pincode": "133001",
      "Lat": 30.3418611,
      "Lng": 76.842
    },
    {
      "Name": "Top Khana Bazar S.O",
      "District": "AMBALA",
      "State": "HARYANA",
      "Pincode": "133001",
      "Lat": 30.3403056,
      "Lng": 76.5921667
    },
    {
      "Name": "Mahesh Nagar S.O",
      "District": "AMBALA",
      "State": "HARYANA",
      "Pincode": "133001",
      "Lat": 30.3372222,
      "Lng": 76.8621667
    },
    {
      "Name": "Ambala G.P.O.",
      "District": "AMBALA",
      "State": "HARYANA",
      "Pincode": "133001",
      "Lat": 30.4943333,
      "Lng": 76.8345
    },
    {
      "Name": "Palam Vihar S.O (Ambala)",
      "District": "AMBALA",
      "State": "HARYANA",
      "Pincode": "133001",
      "Lat": 30.3556547,
      "Lng": 76.7744736
    }
  ],
  "133004": [
    {
      "Name": "Dukheri B.O",
      "District": "AMBALA",
      "State": "HARYANA",
      "Pincode": "133004",
      "Lat": 30.280537,
      "Lng": 76.880744
    },
    {
      "Name": "Shah Pur B.O",
      "District": "AMBALA",
      "State": "HARYANA",
      "Pincode": "133004",
      "Lat": 30.355654,
      "Lng": 76.774473
    },
    {
      "Name": "Kuldeep Nagar S.O",
      "District": "AMBALA",
      "State": "HARYANA",
      "Pincode": "133004",
      "Lat": 30.3139167,
      "Lng": 76.8392778
    },
    {
      "Name": "Bara B.O",
      "District": "AMBALA",
      "State": "HARYANA",
      "Pincode": "133004",
      "Lat": 30.296242,
      "Lng": 76.798567
    },
    {
      "Name": "Mohra B.O",
      "District": "AMBALA",
      "State": "HARYANA",
      "Pincode": "133004",
      "Lat": 30.271943,
      "Lng": 76.851916
    },
    {
      "Name": "P and T Colony B.O",
      "District": "AMBALA",
      "State": "HARYANA",
      "Pincode": "133004",
      "Lat": 30.33053,
      "Lng": 76.832814
    }
  ],
  "133005": [
    {
      "Name": "Sarsehri B.O",
      "District": "AMBALA",
      "State": "HARYANA",
      "Pincode": "133005",
      "Lat": 30.3781868,
      "Lng": 76.7766894
    },
    {
      "Name": "Babyal S.O",
      "District": "AMBALA",
      "State": "HARYANA",
      "Pincode": "133005",
      "Lat": 30.3569444,
      "Lng": 76.8783333
    }
  ],
  "133006": [
    {
      "Name": "Ind estate S.O",
      "District": "AMBALA",
      "State": "HARYANA",
      "Pincode": "133006",
      "Lat": 30.3325556,
      "Lng": 76.8798333
    },
    {
      "Name": "Brahman Majra B.O",
      "District": "NA",
      "State": "NA",
      "Pincode": "133006",
      "Lat": 30.310804,
      "Lng": 76.871856
    }
  ],
  "133008": [
    {
      "Name": "Durana B.O",
      "District": "AMBALA",
      "State": "HARYANA",
      "Pincode": "133008",
      "Lat": 30.230788,
      "Lng": 76.795873
    },
    {
      "Name": "Majri S.O",
      "District": "AMBALA",
      "State": "HARYANA",
      "Pincode": "133008",
      "Lat": 30.378179,
      "Lng": 76.776697
    },
    {
      "Name": "Mardon Sahib B.O",
      "District": "AMBALA",
      "State": "HARYANA",
      "Pincode": "133008",
      "Lat": 30.250459,
      "Lng": 76.776315
    },
    {
      "Name": "Baraula B.O",
      "District": "AMBALA",
      "State": "HARYANA",
      "Pincode": "133008",
      "Lat": 30.210836,
      "Lng": 76.758583
    },
    {
      "Name": "Tharwa B.O",
      "District": "AMBALA",
      "State": "HARYANA",
      "Pincode": "133008",
      "Lat": 30.279928,
      "Lng": 76.786277
    }
  ],
  "133010": [
    {
      "Name": "Kalarehri B.O",
      "District": "AMBALA",
      "State": "HARYANA",
      "Pincode": "133010",
      "Lat": 30.378184,
      "Lng": 76.776691
    },
    {
      "Name": "Defence Colony S.O",
      "District": "AMBALA",
      "State": "HARYANA",
      "Pincode": "133010",
      "Lat": 28.572633,
      "Lng": 77.23251
    },
    {
      "Name": "Boh B.O",
      "District": "AMBALA",
      "State": "HARYANA",
      "Pincode": "133010",
      "Lat": 30.242696,
      "Lng": 77.058567
    }
  ],
  "133101": [
    {
      "Name": "Bihta S.O (Ambala)",
      "District": "AMBALA",
      "State": "HARYANA",
      "Pincode": "133101",
      "Lat": 30.38425,
      "Lng": 76.7716667
    },
    {
      "Name": "Keshopur Samalkha B.O",
      "District": "AMBALA",
      "State": "HARYANA",
      "Pincode": "133101",
      "Lat": 30.2937,
      "Lng": 76.9207
    }
  ],
  "133102": [
    {
      "Name": "Chudiala B.O",
      "District": "AMBALA",
      "State": "HARYANA",
      "Pincode": "133102",
      "Lat": 30.251419,
      "Lng": 76.900919
    },
    {
      "Name": "Khanpur B.O",
      "District": "AMBALA",
      "State": "HARYANA",
      "Pincode": "133102",
      "Lat": 30.378179,
      "Lng": 76.776697
    },
    {
      "Name": "Dinarpur B.O",
      "District": "AMBALA",
      "State": "HARYANA",
      "Pincode": "133102",
      "Lat": 30.210964,
      "Lng": 76.900199
    },
    {
      "Name": "Nagla Jattan B.O",
      "District": "AMBALA",
      "State": "HARYANA",
      "Pincode": "133102",
      "Lat": 30.378745,
      "Lng": 76.955664
    },
    {
      "Name": "Landa B.O",
      "District": "AMBALA",
      "State": "HARYANA",
      "Pincode": "133102",
      "Lat": 30.223872,
      "Lng": 76.880744
    },
    {
      "Name": "Pasiala B.O",
      "District": "AMBALA",
      "State": "HARYANA",
      "Pincode": "133102",
      "Lat": 30.378179,
      "Lng": 76.776697
    },
    {
      "Name": "Kesri S.O",
      "District": "AMBALA",
      "State": "HARYANA",
      "Pincode": "133102",
      "Lat": 30.235,
      "Lng": 76.9072222
    }
  ],
  "133103": [
    {
      "Name": "Jagdholi B.O",
      "District": "YAMUNANAGAR",
      "State": "HARYANA",
      "Pincode": "133103",
      "Lat": 30.293627,
      "Lng": 77.184278
    },
    {
      "Name": "Kandhari Kalan B.O",
      "District": "YAMUNANAGAR",
      "State": "HARYANA",
      "Pincode": "133103",
      "Lat": 30.199406,
      "Lng": 77.14564
    },
    {
      "Name": "Talakaur B.O",
      "District": "YAMUNANAGAR",
      "State": "HARYANA",
      "Pincode": "133103",
      "Lat": 30.24498,
      "Lng": 77.200747
    },
    {
      "Name": "Uncha Chandna B.O",
      "District": "YAMUNANAGAR",
      "State": "HARYANA",
      "Pincode": "133103",
      "Lat": 30.199406,
      "Lng": 77.14564
    },
    {
      "Name": "Hangoli B.O",
      "District": "YAMUNANAGAR",
      "State": "HARYANA",
      "Pincode": "133103",
      "Lat": 30.530148,
      "Lng": 77.011825
    },
    {
      "Name": "Saraswati Nagar S.O",
      "District": "YAMUNANAGAR",
      "State": "HARYANA",
      "Pincode": "133103",
      "Lat": 30.198424,
      "Lng": 77.141002
    },
    {
      "Name": "Bhambol B.O",
      "District": "YAMUNANAGAR",
      "State": "HARYANA",
      "Pincode": "133103",
      "Lat": 30.3781858,
      "Lng": 76.7766904
    },
    {
      "Name": "Gudhiana B.O",
      "District": "YAMUNANAGAR",
      "State": "HARYANA",
      "Pincode": "133103",
      "Lat": 30.20622,
      "Lng": 77.14857
    },
    {
      "Name": "Kalawar B.O",
      "District": "YAMUNANAGAR",
      "State": "HARYANA",
      "Pincode": "133103",
      "Lat": 30.256425,
      "Lng": 77.177274
    },
    {
      "Name": "Chhappar B.O",
      "District": "YAMUNANAGAR",
      "State": "HARYANA",
      "Pincode": "133103",
      "Lat": 30.20001,
      "Lng": 77.14999
    },
    {
      "Name": "Gadhaula B.O",
      "District": "YAMUNANAGAR",
      "State": "HARYANA",
      "Pincode": "133103",
      "Lat": 30.199497,
      "Lng": 77.189916
    }
  ],
  "133104": [
    {
      "Name": "Mehmoodpur B.O",
      "District": "AMBALA",
      "State": "HARYANA",
      "Pincode": "133104",
      "Lat": 30.30052,
      "Lng": 76.96861
    },
    {
      "Name": "Khudda Kalan B.O",
      "District": "AMBALA",
      "State": "HARYANA",
      "Pincode": "133104",
      "Lat": 30.3283,
      "Lng": 76.9609
    },
    {
      "Name": "Tepla B.O",
      "District": "AMBALA",
      "State": "HARYANA",
      "Pincode": "133104",
      "Lat": 30.3781838,
      "Lng": 76.7766924
    },
    {
      "Name": "Saha S.O",
      "District": "AMBALA",
      "State": "HARYANA",
      "Pincode": "133104",
      "Lat": 30.3573889,
      "Lng": 76.99625
    },
    {
      "Name": "Kalpi B.O",
      "District": "AMBALA",
      "State": "HARYANA",
      "Pincode": "133104",
      "Lat": 26.121,
      "Lng": 79.7484
    },
    {
      "Name": "Nahoni B.O",
      "District": "AMBALA",
      "State": "HARYANA",
      "Pincode": "133104",
      "Lat": 30.2873799,
      "Lng": 76.9750563
    },
    {
      "Name": "Pilkhani B.O",
      "District": "AMBALA",
      "State": "HARYANA",
      "Pincode": "133104",
      "Lat": 30.3781868,
      "Lng": 76.7766894
    },
    {
      "Name": "Samlerhi B.O",
      "District": "AMBALA",
      "State": "HARYANA",
      "Pincode": "133104",
      "Lat": 30.3781868,
      "Lng": 76.7766894
    }
  ],
  "133201": [
    {
      "Name": "Barara S.O",
      "District": "AMBALA",
      "State": "HARYANA",
      "Pincode": "133201",
      "Lat": 30.2166667,
      "Lng": 77.042
    },
    {
      "Name": "Holi B.O",
      "District": "AMBALA",
      "State": "HARYANA",
      "Pincode": "133201",
      "Lat": 30.242696,
      "Lng": 77.058567
    },
    {
      "Name": "Tandwal B.O",
      "District": "AMBALA",
      "State": "HARYANA",
      "Pincode": "133201",
      "Lat": 30.221899,
      "Lng": 77.005022
    },
    {
      "Name": "Derasalimpur B.O",
      "District": "AMBALA",
      "State": "HARYANA",
      "Pincode": "133201",
      "Lat": 30.21888,
      "Lng": 77.048441
    },
    {
      "Name": "Rajo Kheri B.O",
      "District": "AMBALA",
      "State": "HARYANA",
      "Pincode": "133201",
      "Lat": 30.22445,
      "Lng": 77.034
    },
    {
      "Name": "Rajouli B.O",
      "District": "AMBALA",
      "State": "HARYANA",
      "Pincode": "133201",
      "Lat": 30.221662,
      "Lng": 77.026566
    },
    {
      "Name": "Sohata B.O",
      "District": "AMBALA",
      "State": "HARYANA",
      "Pincode": "133201",
      "Lat": 30.22069,
      "Lng": 77.044811
    }
  ],
  "133202": [
    {
      "Name": "Alipur Jahangir B.O",
      "District": "AMBALA",
      "State": "HARYANA",
      "Pincode": "133202",
      "Lat": 30.264186,
      "Lng": 77.126944
    },
    {
      "Name": "Duliani B.O",
      "District": "AMBALA",
      "State": "HARYANA",
      "Pincode": "133202",
      "Lat": 30.28859,
      "Lng": 77.12767
    },
    {
      "Name": "Manka Manki B.O",
      "District": "AMBALA",
      "State": "HARYANA",
      "Pincode": "133202",
      "Lat": 30.2113,
      "Lng": 77.1514
    },
    {
      "Name": "Dhin S.O",
      "District": "AMBALA",
      "State": "HARYANA",
      "Pincode": "133202",
      "Lat": 30.2455,
      "Lng": 77.1050278
    },
    {
      "Name": "Saran B.O",
      "District": "YAMUNANAGAR",
      "State": "HARYANA",
      "Pincode": "133202",
      "Lat": 30.210859,
      "Lng": 77.103929
    }
  ],
  "133203": [
    {
      "Name": "Sohana B.O",
      "District": "AMBALA",
      "State": "HARYANA",
      "Pincode": "133203",
      "Lat": 30.378184,
      "Lng": 76.7766914
    },
    {
      "Name": "Mullana S.O",
      "District": "AMBALA",
      "State": "HARYANA",
      "Pincode": "133203",
      "Lat": 30.275,
      "Lng": 77.0437778
    },
    {
      "Name": "Thakar Pura B.O",
      "District": "AMBALA",
      "State": "HARYANA",
      "Pincode": "133203",
      "Lat": 30.29995,
      "Lng": 77.04135
    },
    {
      "Name": "Dhanaura B.O",
      "District": "AMBALA",
      "State": "HARYANA",
      "Pincode": "133203",
      "Lat": 28.9546,
      "Lng": 78.2647
    },
    {
      "Name": "Gokal Garh B.O",
      "District": "AMBALA",
      "State": "HARYANA",
      "Pincode": "133203",
      "Lat": 30.29995,
      "Lng": 77.04135
    }
  ],
  "133204": [
    {
      "Name": "Mehmoodpur B.O",
      "District": "YAMUNANAGAR",
      "State": "HARYANA",
      "Pincode": "133204",
      "Lat": 30.378,
      "Lng": 76.776
    },
    {
      "Name": "Noshera B.O",
      "District": "YAMUNANAGAR",
      "State": "HARYANA",
      "Pincode": "133204",
      "Lat": 30.378,
      "Lng": 76.776
    },
    {
      "Name": "Sadiqpur B.O",
      "District": "YAMUNANAGAR",
      "State": "HARYANA",
      "Pincode": "133204",
      "Lat": 30.378,
      "Lng": 76.776
    },
    {
      "Name": "Laharpur B.O",
      "District": "YAMUNANAGAR",
      "State": "HARYANA",
      "Pincode": "133204",
      "Lat": 30.378,
      "Lng": 76.776
    },
    {
      "Name": "Safilpur B.O",
      "District": "YAMUNANAGAR",
      "State": "HARYANA",
      "Pincode": "133204",
      "Lat": 30.378,
      "Lng": 76.776
    },
    {
      "Name": "Salehpur B.O",
      "District": "YAMUNANAGAR",
      "State": "HARYANA",
      "Pincode": "133204",
      "Lat": 30.378,
      "Lng": 76.776
    },
    {
      "Name": "Sadhaura S.O",
      "District": "YAMUNANAGAR",
      "State": "HARYANA",
      "Pincode": "133204",
      "Lat": 30.3822222,
      "Lng": 77.2177778
    },
    {
      "Name": "Haveli B.O",
      "District": "YAMUNANAGAR",
      "State": "HARYANA",
      "Pincode": "133204",
      "Lat": 30.378,
      "Lng": 76.776
    },
    {
      "Name": "Rasulpur B.O",
      "District": "YAMUNANAGAR",
      "State": "HARYANA",
      "Pincode": "133204",
      "Lat": 30.378,
      "Lng": 76.776
    },
    {
      "Name": "Pipliwala B.O",
      "District": "YAMUNANAGAR",
      "State": "HARYANA",
      "Pincode": "133204",
      "Lat": 30.378,
      "Lng": 76.776
    }
  ],
  "133205": [
    {
      "Name": "Kaserla Kalan B.O",
      "District": "AMBALA",
      "State": "HARYANA",
      "Pincode": "133205",
      "Lat": 30.3781848,
      "Lng": 76.7766914
    },
    {
      "Name": "Manu Majra B.O",
      "District": "AMBALA",
      "State": "HARYANA",
      "Pincode": "133205",
      "Lat": 30.16976,
      "Lng": 77.0231
    },
    {
      "Name": "Adhoya S.O",
      "District": "AMBALA",
      "State": "HARYANA",
      "Pincode": "133205",
      "Lat": 30.186385,
      "Lng": 77.03745333
    },
    {
      "Name": "Adhoyi B.O",
      "District": "AMBALA",
      "State": "HARYANA",
      "Pincode": "133205",
      "Lat": 30.187238,
      "Lng": 77.037736
    },
    {
      "Name": "Sewan Majra B.O",
      "District": "AMBALA",
      "State": "HARYANA",
      "Pincode": "133205",
      "Lat": 30.16976,
      "Lng": 77.0231
    },
    {
      "Name": "Thumber B.O",
      "District": "AMBALA",
      "State": "HARYANA",
      "Pincode": "133205",
      "Lat": 30.16976,
      "Lng": 77.0231
    },
    {
      "Name": "Kambassi B.O",
      "District": "AMBALA",
      "State": "HARYANA",
      "Pincode": "133205",
      "Lat": 30.172519,
      "Lng": 77.011105
    },
    {
      "Name": "Ugala B.O",
      "District": "AMBALA",
      "State": "HARYANA",
      "Pincode": "133205",
      "Lat": 30.378183,
      "Lng": 76.7766924
    }
  ],
  "133206": [
    {
      "Name": "Sardaheri B.O",
      "District": "AMBALA",
      "State": "HARYANA",
      "Pincode": "133206",
      "Lat": 30.316,
      "Lng": 77.235
    },
    {
      "Name": "Sherpur Sulkhani B.O",
      "District": "AMBALA",
      "State": "HARYANA",
      "Pincode": "133206",
      "Lat": 30.316,
      "Lng": 77.235
    },
    {
      "Name": "Fatehgarh Tumbi B.O",
      "District": "YAMUNANAGAR",
      "State": "HARYANA",
      "Pincode": "133206",
      "Lat": 30.316,
      "Lng": 77.235
    },
    {
      "Name": "Haibatpur B.O",
      "District": "YAMUNANAGAR",
      "State": "HARYANA",
      "Pincode": "133206",
      "Lat": 30.316,
      "Lng": 77.235
    },
    {
      "Name": "Shahpur Nurd B.O",
      "District": "YAMUNANAGAR",
      "State": "HARYANA",
      "Pincode": "133206",
      "Lat": 30.316,
      "Lng": 77.235
    },
    {
      "Name": "Sahela B.O",
      "District": "AMBALA",
      "State": "HARYANA",
      "Pincode": "133206",
      "Lat": 30.316,
      "Lng": 77.235
    },
    {
      "Name": "Zaffarpur B.O",
      "District": "AMBALA",
      "State": "HARYANA",
      "Pincode": "133206",
      "Lat": 30.316,
      "Lng": 77.235
    },
    {
      "Name": "Sarawan S.O",
      "District": "YAMUNANAGAR",
      "State": "HARYANA",
      "Pincode": "133206",
      "Lat": 30.3486111,
      "Lng": 77.1918611
    },
    {
      "Name": "Azizpur B.O",
      "District": "YAMUNANAGAR",
      "State": "HARYANA",
      "Pincode": "133206",
      "Lat": 30.316,
      "Lng": 77.235
    },
    {
      "Name": "Binjalpur B.O",
      "District": "AMBALA",
      "State": "HARYANA",
      "Pincode": "133206",
      "Lat": 30.316,
      "Lng": 77.235
    }
  ],
  "133207": [
    {
      "Name": "M.M.E.Complex Mulana S.O",
      "District": "AMBALA",
      "State": "HARYANA",
      "Pincode": "133207",
      "Lat": 30.2674976,
      "Lng": 77.0222963
    }
  ],
  "133301": [
    {
      "Name": "B.C.W. Suraj Pur S.O",
      "District": "PANCHKULA",
      "State": "HARYANA",
      "Pincode": "133301",
      "Lat": 30.7742777,
      "Lng": 76.8948333
    }
  ],
  "133302": [
    {
      "Name": "Kharanwali B.O",
      "District": "PANCHKULA",
      "State": "HARYANA",
      "Pincode": "133302",
      "Lat": 30.378188,
      "Lng": 76.776687
    },
    {
      "Name": "Kalka R.S. S.O",
      "District": "PANCHKULA",
      "State": "HARYANA",
      "Pincode": "133302",
      "Lat": 30.0587757,
      "Lng": 76.085601
    },
    {
      "Name": "Kalka S.O",
      "District": "PANCHKULA",
      "State": "HARYANA",
      "Pincode": "133302",
      "Lat": 30.8344444,
      "Lng": 76.9382222
    }
  ],
  "134003": [
    {
      "Name": "Ambala City H.O",
      "District": "AMBALA",
      "State": "HARYANA",
      "Pincode": "134003",
      "Lat": 30.38425,
      "Lng": 76.7716667
    },
    {
      "Name": "Anaj Mandi S.O (Ambala)",
      "District": "AMBALA",
      "State": "HARYANA",
      "Pincode": "134003",
      "Lat": 30.38753,
      "Lng": 76.81105
    },
    {
      "Name": "D.A.V.College S.O",
      "District": "AMBALA",
      "State": "HARYANA",
      "Pincode": "134003",
      "Lat": 30.3835,
      "Lng": 76.7773611
    },
    {
      "Name": "Model Town Ambala City S.O",
      "District": "AMBALA",
      "State": "HARYANA",
      "Pincode": "134003",
      "Lat": 30.3625278,
      "Lng": 76.7954722
    },
    {
      "Name": "Railway Road Ambala City S.O",
      "District": "AMBALA",
      "State": "HARYANA",
      "Pincode": "134003",
      "Lat": 30.3800278,
      "Lng": 76.7515278
    },
    {
      "Name": "Ambala  City Kucthery S.O",
      "District": "AMBALA",
      "State": "HARYANA",
      "Pincode": "134003",
      "Lat": 30.3775,
      "Lng": 76.7654722
    },
    {
      "Name": "Bazar Basti Ram S.O",
      "District": "AMBALA",
      "State": "HARYANA",
      "Pincode": "134003",
      "Lat": 30.3816667,
      "Lng": 76.7715
    },
    {
      "Name": "Prem Nagar S.O (Ambala)",
      "District": "AMBALA",
      "State": "HARYANA",
      "Pincode": "134003",
      "Lat": 30.38753,
      "Lng": 76.81105
    },
    {
      "Name": "Subzi  Mandi S.O",
      "District": "AMBALA",
      "State": "HARYANA",
      "Pincode": "134003",
      "Lat": 30.42225,
      "Lng": 76.7698889
    },
    {
      "Name": "Preet Nagar S.O (Ambala)",
      "District": "AMBALA",
      "State": "HARYANA",
      "Pincode": "134003",
      "Lat": 30.2645243,
      "Lng": 76.0385927
    }
  ],
  "134005": [
    {
      "Name": "Jandli S.O",
      "District": "AMBALA",
      "State": "HARYANA",
      "Pincode": "134005",
      "Lat": 30.38425,
      "Lng": 76.7716667
    }
  ],
  "134007": [
    {
      "Name": "Dhankaur B.O",
      "District": "AMBALA",
      "State": "HARYANA",
      "Pincode": "134007",
      "Lat": 30.3682963,
      "Lng": 76.805097
    },
    {
      "Name": "Dhulkot B.O",
      "District": "AMBALA",
      "State": "HARYANA",
      "Pincode": "134007",
      "Lat": "NA",
      "Lng": "NA"
    },
    {
      "Name": "Mandhaur B.O",
      "District": "AMBALA",
      "State": "HARYANA",
      "Pincode": "134007",
      "Lat": 30.38753,
      "Lng": 76.81105
    },
    {
      "Name": "Panjokhara Sahib B.O",
      "District": "AMBALA",
      "State": "HARYANA",
      "Pincode": "134007",
      "Lat": 30.41012,
      "Lng": 76.8408
    },
    {
      "Name": "Ghail B.O",
      "District": "AMBALA",
      "State": "HARYANA",
      "Pincode": "134007",
      "Lat": 30.3781838,
      "Lng": 76.7766924
    },
    {
      "Name": "Lohgarh B.O",
      "District": "AMBALA",
      "State": "HARYANA",
      "Pincode": "134007",
      "Lat": 30.943859,
      "Lng": 75.872551
    },
    {
      "Name": "Baknaur B.O",
      "District": "AMBALA",
      "State": "HARYANA",
      "Pincode": "134007",
      "Lat": 30.358442,
      "Lng": 76.763229
    },
    {
      "Name": "Baldev Nagar S.O",
      "District": "AMBALA",
      "State": "HARYANA",
      "Pincode": "134007",
      "Lat": 30.3873889,
      "Lng": 76.7931667
    },
    {
      "Name": "Geeta Nagri S.O",
      "District": "AMBALA",
      "State": "HARYANA",
      "Pincode": "134007",
      "Lat": 30.4365833,
      "Lng": 76.6860556
    }
  ],
  "134008": [
    {
      "Name": "Ballana B.O",
      "District": "AMBALA",
      "State": "HARYANA",
      "Pincode": "134008",
      "Lat": 30.378185,
      "Lng": 76.77669
    },
    {
      "Name": "Chaurmastpur B.O",
      "District": "AMBALA",
      "State": "HARYANA",
      "Pincode": "134008",
      "Lat": 30.37819,
      "Lng": 76.776685
    },
    {
      "Name": "Jalbera B.O",
      "District": "AMBALA",
      "State": "HARYANA",
      "Pincode": "134008",
      "Lat": 30.335454,
      "Lng": 76.771211
    },
    {
      "Name": "Kakroo B.O",
      "District": "AMBALA",
      "State": "HARYANA",
      "Pincode": "134008",
      "Lat": 30.3781848,
      "Lng": 76.7766914
    },
    {
      "Name": "SAUNTA",
      "District": "AMBALA",
      "State": "HARYANA",
      "Pincode": "134008",
      "Lat": 30.378184,
      "Lng": 76.776691
    },
    {
      "Name": "NAGGAL",
      "District": "AMBALA",
      "State": "HARYANA",
      "Pincode": "134008",
      "Lat": 30.378184,
      "Lng": 76.776691
    },
    {
      "Name": "NANEOLA",
      "District": "AMBALA",
      "State": "HARYANA",
      "Pincode": "134008",
      "Lat": 30.2804368,
      "Lng": 76.708867
    },
    {
      "Name": "Bhanokheri B.O",
      "District": "AMBALA",
      "State": "HARYANA",
      "Pincode": "134008",
      "Lat": 30.280497,
      "Lng": 76.743201
    },
    {
      "Name": "Dhurkara B.O",
      "District": "AMBALA",
      "State": "HARYANA",
      "Pincode": "134008",
      "Lat": 30.378186,
      "Lng": 76.776689
    },
    {
      "Name": "Kathgarh Chhappar B.O",
      "District": "AMBALA",
      "State": "HARYANA",
      "Pincode": "134008",
      "Lat": 32.134639,
      "Lng": 75.689161
    },
    {
      "Name": "MATHERI SEIKHAN",
      "District": "AMBALA",
      "State": "HARYANA",
      "Pincode": "134008",
      "Lat": 30.2791718,
      "Lng": 76.7148927
    },
    {
      "Name": "Danipur B.O",
      "District": "AMBALA",
      "State": "HARYANA",
      "Pincode": "134008",
      "Lat": 30.378185,
      "Lng": 76.77669
    },
    {
      "Name": "UDAIPUR",
      "District": "AMBALA",
      "State": "HARYANA",
      "Pincode": "134008",
      "Lat": 30.38753,
      "Lng": 76.81105
    },
    {
      "Name": "Durga Nagar S.O",
      "District": "AMBALA",
      "State": "HARYANA",
      "Pincode": "134008",
      "Lat": 17.426888,
      "Lng": 78.454591
    },
    {
      "Name": "Jansui B.O",
      "District": "AMBALA",
      "State": "HARYANA",
      "Pincode": "134008",
      "Lat": 30.378184,
      "Lng": 76.776691
    },
    {
      "Name": "SEGTI",
      "District": "AMBALA",
      "State": "HARYANA",
      "Pincode": "134008",
      "Lat": 30.045916,
      "Lng": 76.6328509
    },
    {
      "Name": "Budhangpur B.O",
      "District": "AMBALA",
      "State": "HARYANA",
      "Pincode": "134008",
      "Lat": 32.134639,
      "Lng": 75.689161
    }
  ],
  "134101": [
    {
      "Name": "H.M.T.Pinjore S.O",
      "District": "PANCHKULA",
      "State": "HARYANA",
      "Pincode": "134101",
      "Lat": 30.7827222,
      "Lng": 76.9102778
    }
  ],
  "134102": [
    {
      "Name": "Damaloan B.O",
      "District": "PANCHKULA",
      "State": "HARYANA",
      "Pincode": "134102",
      "Lat": 30.81235,
      "Lng": 77.00608
    },
    {
      "Name": "Mallah B.O",
      "District": "PANCHKULA",
      "State": "HARYANA",
      "Pincode": "134102",
      "Lat": 30.694215,
      "Lng": 76.860559
    },
    {
      "Name": "Basolan B.O",
      "District": "PANCHKULA",
      "State": "HARYANA",
      "Pincode": "134102",
      "Lat": 30.694216,
      "Lng": 76.860558
    },
    {
      "Name": "Chiken B.O",
      "District": "PANCHKULA",
      "State": "HARYANA",
      "Pincode": "134102",
      "Lat": 30.694216,
      "Lng": 76.860558
    },
    {
      "Name": "Nanakpur B.O",
      "District": "PANCHKULA",
      "State": "HARYANA",
      "Pincode": "134102",
      "Lat": 30.81235,
      "Lng": 77.00608
    },
    {
      "Name": "Pinjore S.O",
      "District": "PANCHKULA",
      "State": "HARYANA",
      "Pincode": "134102",
      "Lat": 30.7976667,
      "Lng": 76.9143611
    }
  ],
  "134103": [
    {
      "Name": "I.T.B.P.  Bhanu S.O",
      "District": "PANCHKULA",
      "State": "HARYANA",
      "Pincode": "134103",
      "Lat": 30.6343333,
      "Lng": 76.91525
    }
  ],
  "134104": [
    {
      "Name": "C.R.P.F. Pinjore S.O",
      "District": "PANCHKULA",
      "State": "HARYANA",
      "Pincode": "134104",
      "Lat": 30.7826389,
      "Lng": 76.9247222
    }
  ],
  "134105": [
    {
      "Name": "Amravati  Enclave SO",
      "District": "PANCHKULA",
      "State": "HARYANA",
      "Pincode": "134105",
      "Lat": 30.38425,
      "Lng": 76.7716667
    }
  ],
  "134107": [
    {
      "Name": "Chandi Mandir Cantt S.O",
      "District": "PANCHKULA",
      "State": "HARYANA",
      "Pincode": "134107",
      "Lat": 30.7238333,
      "Lng": 76.8759167
    },
    {
      "Name": "Chandi Mandir S.O",
      "District": "PANCHKULA",
      "State": "HARYANA",
      "Pincode": "134107",
      "Lat": 30.7238333,
      "Lng": 76.8759167
    }
  ],
  "134108": [
    {
      "Name": "G.K. Panchkula S.O",
      "District": "PANCHKULA",
      "State": "HARYANA",
      "Pincode": "134108",
      "Lat": 30.7064167,
      "Lng": 76.8727778
    }
  ],
  "134109": [
    {
      "Name": "Devi Nagar B.O",
      "District": "PANCHKULA",
      "State": "HARYANA",
      "Pincode": "134109",
      "Lat": 30.692,
      "Lng": 76.8696
    },
    {
      "Name": "Railly B.O",
      "District": "PANCHKULA",
      "State": "HARYANA",
      "Pincode": "134109",
      "Lat": 30.686194,
      "Lng": 76.839263
    },
    {
      "Name": "Suketri B.O",
      "District": "PANCHKULA",
      "State": "HARYANA",
      "Pincode": "134109",
      "Lat": 30.7457402,
      "Lng": 76.8468634
    },
    {
      "Name": "Panchkula Sector 8 S.O",
      "District": "PANCHKULA",
      "State": "HARYANA",
      "Pincode": "134109",
      "Lat": 30.565659,
      "Lng": 76.937756
    }
  ],
  "134112": [
    {
      "Name": "Panchkula Sector 12 S.O",
      "District": "PANCHKULA",
      "State": "HARYANA",
      "Pincode": "134112",
      "Lat": 30.7486944,
      "Lng": 76.85475
    },
    {
      "Name": "Panchkula Sector 4 S.O",
      "District": "PANCHKULA",
      "State": "HARYANA",
      "Pincode": "134112",
      "Lat": 30.565659,
      "Lng": 76.937756
    }
  ],
  "134113": [
    {
      "Name": "Industrial Estate  Panchkula S.O",
      "District": "PANCHKULA",
      "State": "HARYANA",
      "Pincode": "134113",
      "Lat": 30.6765722,
      "Lng": 76.8369361
    },
    {
      "Name": "Sector 15 Panchkula S.O",
      "District": "PANCHKULA",
      "State": "HARYANA",
      "Pincode": "134113",
      "Lat": 30.6852778,
      "Lng": 76.8392222
    }
  ],
  "134114": [
    {
      "Name": "Mansa  Devi Sec 5 S.O",
      "District": "PANCHKULA",
      "State": "HARYANA",
      "Pincode": "134114",
      "Lat": 30.7212222,
      "Lng": 76.8525833
    }
  ],
  "134116": [
    {
      "Name": "Sector 26 Panchkula S.O",
      "District": "PANCHKULA",
      "State": "HARYANA",
      "Pincode": "134116",
      "Lat": 30.565659,
      "Lng": 76.937756
    }
  ],
  "134117": [
    {
      "Name": "Sector 20 Panchkula S.O",
      "District": "PANCHKULA",
      "State": "HARYANA",
      "Pincode": "134117",
      "Lat": 30.6691944,
      "Lng": 76.8578611
    }
  ],
  "134118": [
    {
      "Name": "Kot B.O",
      "District": "PANCHKULA",
      "State": "HARYANA",
      "Pincode": "134118",
      "Lat": 31.31155,
      "Lng": 74.84805
    },
    {
      "Name": "Raiwali B.O",
      "District": "AMBALA",
      "State": "HARYANA",
      "Pincode": "134118",
      "Lat": 29.36695,
      "Lng": 75.9458
    },
    {
      "Name": "Rattewali B.O",
      "District": "PANCHKULA",
      "State": "HARYANA",
      "Pincode": "134118",
      "Lat": 29.36695,
      "Lng": 75.9458
    },
    {
      "Name": "Jaloli B.O",
      "District": "PANCHKULA",
      "State": "HARYANA",
      "Pincode": "134118",
      "Lat": 29.36695,
      "Lng": 75.9458
    },
    {
      "Name": "Mauli B.O",
      "District": "PANCHKULA",
      "State": "HARYANA",
      "Pincode": "134118",
      "Lat": 30.5568,
      "Lng": 76.9398
    },
    {
      "Name": "Bhareli B.O",
      "District": "PANCHKULA",
      "State": "HARYANA",
      "Pincode": "134118",
      "Lat": 29.36695,
      "Lng": 75.9458
    },
    {
      "Name": "Khatauli B.O",
      "District": "PANCHKULA",
      "State": "HARYANA",
      "Pincode": "134118",
      "Lat": 29.36695,
      "Lng": 75.9458
    },
    {
      "Name": "Ramgarh B.O",
      "District": "PANCHKULA",
      "State": "HARYANA",
      "Pincode": "134118",
      "Lat": 30.6251196,
      "Lng": 76.8240461
    },
    {
      "Name": "Billa B.O",
      "District": "PANCHKULA",
      "State": "HARYANA",
      "Pincode": "134118",
      "Lat": 29.36695,
      "Lng": 75.9458
    },
    {
      "Name": "Barwala S.O (Panchkula)",
      "District": "PANCHKULA",
      "State": "HARYANA",
      "Pincode": "134118",
      "Lat": 30.565659,
      "Lng": 76.937756
    }
  ],
  "134201": [
    {
      "Name": "Patwi B.O",
      "District": "AMBALA",
      "State": "HARYANA",
      "Pincode": "134201",
      "Lat": 30.378183,
      "Lng": 76.776692
    },
    {
      "Name": "Fatehgarh B.O",
      "District": "AMBALA",
      "State": "HARYANA",
      "Pincode": "134201",
      "Lat": 30.3781788,
      "Lng": 76.7766974
    },
    {
      "Name": "Toda B.O",
      "District": "PANCHKULA",
      "State": "HARYANA",
      "Pincode": "134201",
      "Lat": 30.497121,
      "Lng": 76.927756
    },
    {
      "Name": "Khanpur Brahmana B.O",
      "District": "AMBALA",
      "State": "HARYANA",
      "Pincode": "134201",
      "Lat": 30.44391,
      "Lng": 76.93318
    },
    {
      "Name": "Nasrauli B.O",
      "District": "AMBALA",
      "State": "HARYANA",
      "Pincode": "134201",
      "Lat": 30.44391,
      "Lng": 76.93318
    },
    {
      "Name": "Bharog B.O",
      "District": "AMBALA",
      "State": "HARYANA",
      "Pincode": "134201",
      "Lat": 30.378184,
      "Lng": 76.776691
    },
    {
      "Name": "Dhanana B.O",
      "District": "AMBALA",
      "State": "HARYANA",
      "Pincode": "134201",
      "Lat": 30.443209,
      "Lng": 76.942522
    },
    {
      "Name": "Jatwar S.O",
      "District": "AMBALA",
      "State": "HARYANA",
      "Pincode": "134201",
      "Lat": 30.4459444,
      "Lng": 76.9307778
    }
  ],
  "134202": [
    {
      "Name": "Korwakhurd B.O",
      "District": "AMBALA",
      "State": "HARYANA",
      "Pincode": "134202",
      "Lat": 30.4234973,
      "Lng": 76.9621951
    },
    {
      "Name": "Ganeshpur B.O",
      "District": "AMBALA",
      "State": "HARYANA",
      "Pincode": "134202",
      "Lat": 30.4234973,
      "Lng": 76.9621951
    },
    {
      "Name": "Karasan B.O",
      "District": "AMBALA",
      "State": "HARYANA",
      "Pincode": "134202",
      "Lat": 30.4234973,
      "Lng": 76.9621951
    },
    {
      "Name": "Kakarmajra B.O",
      "District": "AMBALA",
      "State": "HARYANA",
      "Pincode": "134202",
      "Lat": 30.4234973,
      "Lng": 76.9621951
    },
    {
      "Name": "Shahzadpur S.O.",
      "District": "AMBALA",
      "State": "HARYANA",
      "Pincode": "134202",
      "Lat": 30.451691,
      "Lng": 77.033418
    },
    {
      "Name": "Benaundi B.O",
      "District": "AMBALA",
      "State": "HARYANA",
      "Pincode": "134202",
      "Lat": 30.451691,
      "Lng": 77.033418
    },
    {
      "Name": "Pathreri B.O",
      "District": "AMBALA",
      "State": "HARYANA",
      "Pincode": "134202",
      "Lat": 30.4234973,
      "Lng": 76.9621951
    }
  ],
  "134203": [
    {
      "Name": "Ambli B.O",
      "District": "AMBALA",
      "State": "HARYANA",
      "Pincode": "134203",
      "Lat": 30.519862,
      "Lng": 76.809743
    },
    {
      "Name": "Gadhauli B.O",
      "District": "AMBALA",
      "State": "HARYANA",
      "Pincode": "134203",
      "Lat": 30.45733,
      "Lng": 77.13466
    },
    {
      "Name": "Lalpur B.O",
      "District": "AMBALA",
      "State": "HARYANA",
      "Pincode": "134203",
      "Lat": 30.45733,
      "Lng": 77.13466
    },
    {
      "Name": "Panjlasa B.O",
      "District": "AMBALA",
      "State": "HARYANA",
      "Pincode": "134203",
      "Lat": 30.3824743,
      "Lng": 77.0617433
    },
    {
      "Name": "Laha B.O",
      "District": "AMBALA",
      "State": "HARYANA",
      "Pincode": "134203",
      "Lat": 30.6942131,
      "Lng": 76.860561
    },
    {
      "Name": "Bhadauli B.O",
      "District": "AMBALA",
      "State": "HARYANA",
      "Pincode": "134203",
      "Lat": 30.3824743,
      "Lng": 77.0617433
    },
    {
      "Name": "Bhurewala B.O",
      "District": "AMBALA",
      "State": "HARYANA",
      "Pincode": "134203",
      "Lat": 30.382474,
      "Lng": 77.0617433
    },
    {
      "Name": "Hamidpur B.O",
      "District": "AMBALA",
      "State": "HARYANA",
      "Pincode": "134203",
      "Lat": 30.6942171,
      "Lng": 76.860557
    },
    {
      "Name": "Kurali B.O",
      "District": "AMBALA",
      "State": "HARYANA",
      "Pincode": "134203",
      "Lat": 30.6942151,
      "Lng": 76.860559
    },
    {
      "Name": "Naraingarh S.O",
      "District": "AMBALA",
      "State": "HARYANA",
      "Pincode": "134203",
      "Lat": 30.38425,
      "Lng": 76.7716667
    },
    {
      "Name": "Akbarpur B.O",
      "District": "AMBALA",
      "State": "HARYANA",
      "Pincode": "134203",
      "Lat": 30.694217,
      "Lng": 76.860557
    },
    {
      "Name": "Baragaon B.O",
      "District": "AMBALA",
      "State": "HARYANA",
      "Pincode": "134203",
      "Lat": 30.694217,
      "Lng": 76.860557
    },
    {
      "Name": "Bhareri Kalan B.O",
      "District": "AMBALA",
      "State": "HARYANA",
      "Pincode": "134203",
      "Lat": 30.45733,
      "Lng": 77.13466
    },
    {
      "Name": "Jeoli B.O",
      "District": "AMBALA",
      "State": "HARYANA",
      "Pincode": "134203",
      "Lat": 30.694214,
      "Lng": 76.86056
    },
    {
      "Name": "Lakhnaura B.O",
      "District": "AMBALA",
      "State": "HARYANA",
      "Pincode": "134203",
      "Lat": 30.6942131,
      "Lng": 76.860561
    },
    {
      "Name": "Kathe Majra B.O",
      "District": "AMBALA",
      "State": "HARYANA",
      "Pincode": "134203",
      "Lat": 30.45733,
      "Lng": 77.13466
    }
  ],
  "134204": [
    {
      "Name": "Baladwala BO",
      "District": "YAMUNANAGAR",
      "State": "HARYANA",
      "Pincode": "134204",
      "Lat": 30.596815,
      "Lng": 77.131475
    },
    {
      "Name": "Raipur Rani S.O",
      "District": "PANCHKULA",
      "State": "HARYANA",
      "Pincode": "134204",
      "Lat": 30.5866666,
      "Lng": 77.0191666
    },
    {
      "Name": "Khetpurali B.O",
      "District": "PANCHKULA",
      "State": "HARYANA",
      "Pincode": "134204",
      "Lat": 30.694219,
      "Lng": 76.860555
    },
    {
      "Name": "Kandiwala B.O",
      "District": "PANCHKULA",
      "State": "HARYANA",
      "Pincode": "134204",
      "Lat": 30.694218,
      "Lng": 76.860556
    },
    {
      "Name": "Garhi Kotaha B.O",
      "District": "PANCHKULA",
      "State": "HARYANA",
      "Pincode": "134204",
      "Lat": 30.56949,
      "Lng": 76.97274
    },
    {
      "Name": "Hangola B.O",
      "District": "PANCHKULA",
      "State": "HARYANA",
      "Pincode": "134204",
      "Lat": 30.531262,
      "Lng": 77.029812
    },
    {
      "Name": "Haripur B.O",
      "District": "PANCHKULA",
      "State": "HARYANA",
      "Pincode": "134204",
      "Lat": 30.5697,
      "Lng": 76.834507
    },
    {
      "Name": "Manak  Tabra B.O",
      "District": "PANCHKULA",
      "State": "HARYANA",
      "Pincode": "134204",
      "Lat": 30.56949,
      "Lng": 76.97274
    }
  ],
  "134205": [
    {
      "Name": "Mandhana B.O",
      "District": "PANCHKULA",
      "State": "HARYANA",
      "Pincode": "134205",
      "Lat": 30.378186,
      "Lng": 76.776689
    },
    {
      "Name": "Thendog B.O",
      "District": "PANCHKULA",
      "State": "HARYANA",
      "Pincode": "134205",
      "Lat": 30.378183,
      "Lng": 76.776692
    },
    {
      "Name": "Tikkar B.O",
      "District": "PANCHKULA",
      "State": "HARYANA",
      "Pincode": "134205",
      "Lat": 30.378183,
      "Lng": 76.776692
    },
    {
      "Name": "Bhojkoti B.O",
      "District": "PANCHKULA",
      "State": "HARYANA",
      "Pincode": "134205",
      "Lat": 30.378186,
      "Lng": 76.7766894
    },
    {
      "Name": "Morni S.O",
      "District": "PANCHKULA",
      "State": "HARYANA",
      "Pincode": "134205",
      "Lat": 30.7,
      "Lng": 77.0833333
    }
  ],
  "134999": [
    {
      "Name": "NDC Sector 15 Panchkula",
      "District": "NA",
      "State": "NA",
      "Pincode": "134999",
      "Lat": 30.685191,
      "Lng": 76.8402533
    }
  ],
  "135001": [
    {
      "Name": "Bhatia Nagar S.O",
      "District": "YAMUNANAGAR",
      "State": "HARYANA",
      "Pincode": "135001",
      "Lat": 30.1339444,
      "Lng": 77.29075
    },
    {
      "Name": "Model Town S.O (Yamuna Nagar)",
      "District": "YAMUNANAGAR",
      "State": "HARYANA",
      "Pincode": "135001",
      "Lat": 18.6636256,
      "Lng": 73.780869
    },
    {
      "Name": "Mud Hut Colony S.O",
      "District": "YAMUNANAGAR",
      "State": "HARYANA",
      "Pincode": "135001",
      "Lat": 77.26175,
      "Lng": 30.1213889
    },
    {
      "Name": "Yamunanagar H.O",
      "District": "YAMUNANAGAR",
      "State": "HARYANA",
      "Pincode": "135001",
      "Lat": 30.136043,
      "Lng": 77.276951
    },
    {
      "Name": "Yamuna Nagar Railway Station S.O",
      "District": "YAMUNANAGAR",
      "State": "HARYANA",
      "Pincode": "135001",
      "Lat": 18.6636256,
      "Lng": 73.780869
    },
    {
      "Name": "Sugar Mill S.O",
      "District": "YAMUNANAGAR",
      "State": "HARYANA",
      "Pincode": "135001",
      "Lat": 30.1288889,
      "Lng": 77.28975
    },
    {
      "Name": "Ram Pura Olony S.O",
      "District": "YAMUNANAGAR",
      "State": "HARYANA",
      "Pincode": "135001",
      "Lat": 30.1383333,
      "Lng": 77.29875
    }
  ],
  "135002": [
    {
      "Name": "Damla B.O",
      "District": "YAMUNANAGAR",
      "State": "HARYANA",
      "Pincode": "135002",
      "Lat": 30.3781838,
      "Lng": 76.7766924
    },
    {
      "Name": "Harnaul B.O",
      "District": "YAMUNANAGAR",
      "State": "HARYANA",
      "Pincode": "135002",
      "Lat": 27.703,
      "Lng": 77.7497
    },
    {
      "Name": "Jagdhari Work Shop S.O",
      "District": "YAMUNANAGAR",
      "State": "HARYANA",
      "Pincode": "135002",
      "Lat": 30.16175,
      "Lng": 77.3019722
    },
    {
      "Name": "Aurangabad B.O",
      "District": "YAMUNANAGAR",
      "State": "HARYANA",
      "Pincode": "135002",
      "Lat": 30.3781888,
      "Lng": 76.7766874
    },
    {
      "Name": "Hafizpur B.O",
      "District": "YAMUNANAGAR",
      "State": "HARYANA",
      "Pincode": "135002",
      "Lat": 30.3781868,
      "Lng": 76.7766894
    }
  ],
  "135003": [
    {
      "Name": "Bherthal B.O",
      "District": "YAMUNANAGAR",
      "State": "HARYANA",
      "Pincode": "135003",
      "Lat": 30.238759,
      "Lng": 77.292951
    },
    {
      "Name": "Kharwan B.O",
      "District": "YAMUNANAGAR",
      "State": "HARYANA",
      "Pincode": "135003",
      "Lat": 30.2226366,
      "Lng": 77.3577227
    },
    {
      "Name": "Mehlanwali B.O",
      "District": "YAMUNANAGAR",
      "State": "HARYANA",
      "Pincode": "135003",
      "Lat": 30.205886,
      "Lng": 77.275327
    },
    {
      "Name": "Pabni Kalan B.O",
      "District": "YAMUNANAGAR",
      "State": "HARYANA",
      "Pincode": "135003",
      "Lat": 30.271607,
      "Lng": 77.230456
    },
    {
      "Name": "Udhamgarh B.O",
      "District": "YAMUNANAGAR",
      "State": "HARYANA",
      "Pincode": "135003",
      "Lat": 30.4794355,
      "Lng": 77.2261362
    },
    {
      "Name": "Jagadhri Court S.O",
      "District": "YAMUNANAGAR",
      "State": "HARYANA",
      "Pincode": "135003",
      "Lat": 30.1661944,
      "Lng": 77.3048611
    },
    {
      "Name": "Jagadhri Town S.O",
      "District": "YAMUNANAGAR",
      "State": "HARYANA",
      "Pincode": "135003",
      "Lat": 30.163889,
      "Lng": 77.296944
    },
    {
      "Name": "Balchhapar B.O",
      "District": "YAMUNANAGAR",
      "State": "HARYANA",
      "Pincode": "135003",
      "Lat": 30.244312,
      "Lng": 77.234049
    },
    {
      "Name": "Dadupur B.O",
      "District": "YAMUNANAGAR",
      "State": "HARYANA",
      "Pincode": "135003",
      "Lat": 29.767558,
      "Lng": 76.972947
    },
    {
      "Name": "Mandhar B.O",
      "District": "YAMUNANAGAR",
      "State": "HARYANA",
      "Pincode": "135003",
      "Lat": 30.245932,
      "Lng": 77.272123
    },
    {
      "Name": "Jagadhri S.O",
      "District": "YAMUNANAGAR",
      "State": "HARYANA",
      "Pincode": "135003",
      "Lat": 30.164,
      "Lng": 77.3016389
    },
    {
      "Name": "Jroda B.O",
      "District": "YAMUNANAGAR",
      "State": "HARYANA",
      "Pincode": "135003",
      "Lat": 30.16969,
      "Lng": 77.30567
    },
    {
      "Name": "Khera B.O",
      "District": "YAMUNANAGAR",
      "State": "HARYANA",
      "Pincode": "135003",
      "Lat": 30.180482,
      "Lng": 77.264779
    },
    {
      "Name": "Mussimbal B.O",
      "District": "YAMUNANAGAR",
      "State": "HARYANA",
      "Pincode": "135003",
      "Lat": 30.22708,
      "Lng": 77.239078
    },
    {
      "Name": "Parkash Chowk S.O",
      "District": "YAMUNANAGAR",
      "State": "HARYANA",
      "Pincode": "135003",
      "Lat": 18.6636256,
      "Lng": 73.780869
    }
  ],
  "135004": [
    {
      "Name": "Khera Khurd B.O",
      "District": "YAMUNANAGAR",
      "State": "HARYANA",
      "Pincode": "135004",
      "Lat": 30.0835,
      "Lng": 77.2654
    },
    {
      "Name": "Kalanaur B.O",
      "District": "YAMUNANAGAR",
      "State": "HARYANA",
      "Pincode": "135004",
      "Lat": 30.3781868,
      "Lng": 76.7766894
    },
    {
      "Name": "Nahar Pur B.O",
      "District": "YAMUNANAGAR",
      "State": "HARYANA",
      "Pincode": "135004",
      "Lat": 30.0835,
      "Lng": 77.2654
    },
    {
      "Name": "Pansra B.O",
      "District": "YAMUNANAGAR",
      "State": "HARYANA",
      "Pincode": "135004",
      "Lat": 30.3781848,
      "Lng": 76.7766914
    },
    {
      "Name": "Thermal Colony Yamuna Nagar S.O",
      "District": "YAMUNANAGAR",
      "State": "HARYANA",
      "Pincode": "135004",
      "Lat": 30.115213,
      "Lng": 77.338224
    },
    {
      "Name": "Nagal Khajuri B.O",
      "District": "YAMUNANAGAR",
      "State": "HARYANA",
      "Pincode": "135004",
      "Lat": 30.0835,
      "Lng": 77.2654
    },
    {
      "Name": "Shadi Pur B.O",
      "District": "YAMUNANAGAR",
      "State": "HARYANA",
      "Pincode": "135004",
      "Lat": 30.0835,
      "Lng": 77.2654
    }
  ],
  "135021": [
    {
      "Name": "Bakarwala B.O",
      "District": "YAMUNANAGAR",
      "State": "HARYANA",
      "Pincode": "135021",
      "Lat": 30.31587,
      "Lng": 77.52009
    },
    {
      "Name": "Partap Nagar S.O",
      "District": "YAMUNANAGAR",
      "State": "HARYANA",
      "Pincode": "135021",
      "Lat": 77.4979167,
      "Lng": 30.2894444
    },
    {
      "Name": "Deodhar B.O",
      "District": "YAMUNANAGAR",
      "State": "HARYANA",
      "Pincode": "135021",
      "Lat": 30.3781858,
      "Lng": 76.77669
    },
    {
      "Name": "Muzafatkalan B.O",
      "District": "YAMUNANAGAR",
      "State": "HARYANA",
      "Pincode": "135021",
      "Lat": 30.37819,
      "Lng": 76.776685
    }
  ],
  "135101": [
    {
      "Name": "Fatehpur B.O",
      "District": "YAMUNANAGAR",
      "State": "HARYANA",
      "Pincode": "135101",
      "Lat": 30.208768,
      "Lng": 77.131752
    },
    {
      "Name": "Buriya S.O",
      "District": "YAMUNANAGAR",
      "State": "HARYANA",
      "Pincode": "135101",
      "Lat": 30.1594444,
      "Lng": 77.3558333
    },
    {
      "Name": "Amadalpur B.O",
      "District": "YAMUNANAGAR",
      "State": "HARYANA",
      "Pincode": "135101",
      "Lat": 30.378187,
      "Lng": 76.7766884
    },
    {
      "Name": "Sabapur B.O",
      "District": "YAMUNANAGAR",
      "State": "HARYANA",
      "Pincode": "135101",
      "Lat": 30.3571504,
      "Lng": 77.2426637
    },
    {
      "Name": "Jaidhari B.O",
      "District": "YAMUNANAGAR",
      "State": "HARYANA",
      "Pincode": "135101",
      "Lat": 30.3781868,
      "Lng": 76.7766894
    },
    {
      "Name": "Rampur Khadar B.O",
      "District": "YAMUNANAGAR",
      "State": "HARYANA",
      "Pincode": "135101",
      "Lat": 30.12878,
      "Lng": 77.39937
    },
    {
      "Name": "Khadri B.O",
      "District": "YAMUNANAGAR",
      "State": "HARYANA",
      "Pincode": "135101",
      "Lat": 30.3781848,
      "Lng": 76.7766914
    },
    {
      "Name": "Mehar Majra B.O",
      "District": "YAMUNANAGAR",
      "State": "HARYANA",
      "Pincode": "135101",
      "Lat": 30.12878,
      "Lng": 77.39937
    }
  ],
  "135102": [
    {
      "Name": "Basatianwala B.O",
      "District": "YAMUNANAGAR",
      "State": "HARYANA",
      "Pincode": "135102",
      "Lat": 30.378,
      "Lng": 76.776
    },
    {
      "Name": "Kopal Mochan B.O",
      "District": "YAMUNANAGAR",
      "State": "HARYANA",
      "Pincode": "135102",
      "Lat": 30.378,
      "Lng": 76.776
    },
    {
      "Name": "Machrauli B.O",
      "District": "YAMUNANAGAR",
      "State": "HARYANA",
      "Pincode": "135102",
      "Lat": 30.378,
      "Lng": 76.776
    },
    {
      "Name": "Cagnoli B.O",
      "District": "YAMUNANAGAR",
      "State": "HARYANA",
      "Pincode": "135102",
      "Lat": 30.304,
      "Lng": 77.302
    },
    {
      "Name": "Chauli B.O",
      "District": "YAMUNANAGAR",
      "State": "HARYANA",
      "Pincode": "135102",
      "Lat": 30.378,
      "Lng": 76.776
    },
    {
      "Name": "Manglore B.O",
      "District": "YAMUNANAGAR",
      "State": "HARYANA",
      "Pincode": "135102",
      "Lat": 30.378,
      "Lng": 76.776
    },
    {
      "Name": "Marwa Khurd B.O",
      "District": "YAMUNANAGAR",
      "State": "HARYANA",
      "Pincode": "135102",
      "Lat": 30.378,
      "Lng": 76.776
    },
    {
      "Name": "Milakpur Banger B.O",
      "District": "YAMUNANAGAR",
      "State": "HARYANA",
      "Pincode": "135102",
      "Lat": 30.378,
      "Lng": 76.776
    },
    {
      "Name": "Dayalgarh B.O",
      "District": "YAMUNANAGAR",
      "State": "HARYANA",
      "Pincode": "135102",
      "Lat": 30.378,
      "Lng": 76.776
    },
    {
      "Name": "Marwa Kalan B.O",
      "District": "YAMUNANAGAR",
      "State": "HARYANA",
      "Pincode": "135102",
      "Lat": 30.378,
      "Lng": 76.776
    },
    {
      "Name": "Mughalwali B.O",
      "District": "YAMUNANAGAR",
      "State": "HARYANA",
      "Pincode": "135102",
      "Lat": 30.378,
      "Lng": 76.776
    },
    {
      "Name": "Bilaspur (Yamunanagar) S.O",
      "District": "YAMUNANAGAR",
      "State": "HARYANA",
      "Pincode": "135102",
      "Lat": 30.300488,
      "Lng": 77.302988
    }
  ],
  "135103": [
    {
      "Name": "Kot Kalsia B.O",
      "District": "YAMUNANAGAR",
      "State": "HARYANA",
      "Pincode": "135103",
      "Lat": 30.323284,
      "Lng": 77.417841
    },
    {
      "Name": "Lalheri Kalan B.O",
      "District": "YAMUNANAGAR",
      "State": "HARYANA",
      "Pincode": "135103",
      "Lat": 30.325679,
      "Lng": 77.376944
    },
    {
      "Name": "Ledi B.O",
      "District": "YAMUNANAGAR",
      "State": "HARYANA",
      "Pincode": "135103",
      "Lat": 30.3009,
      "Lng": 77.392
    },
    {
      "Name": "Chhachrauli S.O",
      "District": "YAMUNANAGAR",
      "State": "HARYANA",
      "Pincode": "135103",
      "Lat": 30.2441667,
      "Lng": 77.3601389
    },
    {
      "Name": "Darpur B.O",
      "District": "YAMUNANAGAR",
      "State": "HARYANA",
      "Pincode": "135103",
      "Lat": 30.371636,
      "Lng": 77.455855
    },
    {
      "Name": "Taharpurkalan B.O",
      "District": "YAMUNANAGAR",
      "State": "HARYANA",
      "Pincode": "135103",
      "Lat": 30.3683,
      "Lng": 77.4214
    },
    {
      "Name": "Balachaur B.O",
      "District": "YAMUNANAGAR",
      "State": "HARYANA",
      "Pincode": "135103",
      "Lat": 30.226,
      "Lng": 77.358284
    },
    {
      "Name": "Bilauli B.O",
      "District": "YAMUNANAGAR",
      "State": "HARYANA",
      "Pincode": "135103",
      "Lat": 30.226,
      "Lng": 77.358284
    },
    {
      "Name": "Salimpur Banger B.O",
      "District": "YAMUNANAGAR",
      "State": "HARYANA",
      "Pincode": "135103",
      "Lat": 30.25655,
      "Lng": 77.3677
    }
  ],
  "135106": [
    {
      "Name": "Kalesar B.O",
      "District": "YAMUNANAGAR",
      "State": "HARYANA",
      "Pincode": "135106",
      "Lat": 30.4473315,
      "Lng": 77.4472425
    },
    {
      "Name": "Pipli Majra B.O",
      "District": "YAMUNANAGAR",
      "State": "HARYANA",
      "Pincode": "135106",
      "Lat": 30.2413796,
      "Lng": 77.4873959
    },
    {
      "Name": "Bhudkalan S.O",
      "District": "YAMUNANAGAR",
      "State": "HARYANA",
      "Pincode": "135106",
      "Lat": 30.2794444,
      "Lng": 77.4955278
    },
    {
      "Name": "Malikpur Khadar B.O",
      "District": "YAMUNANAGAR",
      "State": "HARYANA",
      "Pincode": "135106",
      "Lat": 30.58179,
      "Lng": 77.11375
    },
    {
      "Name": "Tajewala B.O",
      "District": "YAMUNANAGAR",
      "State": "HARYANA",
      "Pincode": "135106",
      "Lat": 30.3781868,
      "Lng": 76.7766894
    }
  ],
  "135133": [
    {
      "Name": "Bapa B.O",
      "District": "YAMUNANAGAR",
      "State": "HARYANA",
      "Pincode": "135133",
      "Lat": 30.045213,
      "Lng": 77.100332
    },
    {
      "Name": "Bhagu Majra B.O",
      "District": "YAMUNANAGAR",
      "State": "HARYANA",
      "Pincode": "135133",
      "Lat": 30.118851,
      "Lng": 77.1287
    },
    {
      "Name": "Bubka B.O",
      "District": "YAMUNANAGAR",
      "State": "HARYANA",
      "Pincode": "135133",
      "Lat": 30.043627,
      "Lng": 77.123708
    },
    {
      "Name": "Jathlana B.O",
      "District": "YAMUNANAGAR",
      "State": "HARYANA",
      "Pincode": "135133",
      "Lat": 30.0207,
      "Lng": 77.2477
    },
    {
      "Name": "Nachron B.O",
      "District": "YAMUNANAGAR",
      "State": "HARYANA",
      "Pincode": "135133",
      "Lat": 30.014982,
      "Lng": 77.182305
    },
    {
      "Name": "Topra Kalan B.O",
      "District": "YAMUNANAGAR",
      "State": "HARYANA",
      "Pincode": "135133",
      "Lat": 27.94896,
      "Lng": 78.8761
    },
    {
      "Name": "Radaur S.O",
      "District": "YAMUNANAGAR",
      "State": "HARYANA",
      "Pincode": "135133",
      "Lat": 30.0411111,
      "Lng": 77.1923056
    },
    {
      "Name": "Bakana B.O",
      "District": "YAMUNANAGAR",
      "State": "HARYANA",
      "Pincode": "135133",
      "Lat": 30.059926,
      "Lng": 77.155706
    },
    {
      "Name": "Ghillaur B.O",
      "District": "YAMUNANAGAR",
      "State": "HARYANA",
      "Pincode": "135133",
      "Lat": 27.94896,
      "Lng": 78.8761
    },
    {
      "Name": "Gumthala Rao B.O",
      "District": "YAMUNANAGAR",
      "State": "HARYANA",
      "Pincode": "135133",
      "Lat": 29.959641,
      "Lng": 77.204587
    },
    {
      "Name": "Mandhar B.O",
      "District": "YAMUNANAGAR",
      "State": "HARYANA",
      "Pincode": "135133",
      "Lat": 30.118596,
      "Lng": 77.257408
    },
    {
      "Name": "Alhar B.O",
      "District": "YAMUNANAGAR",
      "State": "HARYANA",
      "Pincode": "135133",
      "Lat": 30.031234,
      "Lng": 77.210336
    },
    {
      "Name": "Silikalan B.O",
      "District": "YAMUNANAGAR",
      "State": "HARYANA",
      "Pincode": "135133",
      "Lat": 30.125284,
      "Lng": 77.162385
    },
    {
      "Name": "Banidi B.O",
      "District": "YAMUNANAGAR",
      "State": "HARYANA",
      "Pincode": "135133",
      "Lat": 30.089455,
      "Lng": 77.167209
    },
    {
      "Name": "Barsan B.O",
      "District": "YAMUNANAGAR",
      "State": "HARYANA",
      "Pincode": "135133",
      "Lat": 30.038566,
      "Lng": 77.225774
    },
    {
      "Name": "Chamrori B.O",
      "District": "YAMUNANAGAR",
      "State": "HARYANA",
      "Pincode": "135133",
      "Lat": 30.061577,
      "Lng": 77.132615
    },
    {
      "Name": "Hartan B.O",
      "District": "YAMUNANAGAR",
      "State": "HARYANA",
      "Pincode": "135133",
      "Lat": 30.11146,
      "Lng": 77.105134
    },
    {
      "Name": "Jubbal B.O",
      "District": "YAMUNANAGAR",
      "State": "HARYANA",
      "Pincode": "135133",
      "Lat": 30.056022,
      "Lng": 77.180868
    },
    {
      "Name": "Khurdban B.O",
      "District": "YAMUNANAGAR",
      "State": "HARYANA",
      "Pincode": "135133",
      "Lat": 29.977843,
      "Lng": 77.12982
    }
  ],
  "136020": [
    {
      "Name": "Dhand S.O",
      "District": "KAITHAL",
      "State": "HARYANA",
      "Pincode": "136020",
      "Lat": 29.875369,
      "Lng": 76.606611
    },
    {
      "Name": "Pabnawa B.O",
      "District": "KAITHAL",
      "State": "HARYANA",
      "Pincode": "136020",
      "Lat": 29.875369,
      "Lng": 76.606611
    },
    {
      "Name": "Chandlana B.O",
      "District": "KAITHAL",
      "State": "HARYANA",
      "Pincode": "136020",
      "Lat": 29.875369,
      "Lng": 76.606611
    },
    {
      "Name": "Jadola B.O",
      "District": "KAITHAL",
      "State": "HARYANA",
      "Pincode": "136020",
      "Lat": 29.875369,
      "Lng": 76.606611
    },
    {
      "Name": "Jajjanpur B.O",
      "District": "KAITHAL",
      "State": "HARYANA",
      "Pincode": "136020",
      "Lat": 29.875369,
      "Lng": 76.606611
    }
  ],
  "136021": [
    {
      "Name": "Ahun B.O",
      "District": "KAITHAL",
      "State": "HARYANA",
      "Pincode": "136021",
      "Lat": 29.846383,
      "Lng": 76.663193
    },
    {
      "Name": "Sakra B.O",
      "District": "KAITHAL",
      "State": "HARYANA",
      "Pincode": "136021",
      "Lat": 29.846383,
      "Lng": 76.663193
    },
    {
      "Name": "Sanghrouli B.O",
      "District": "KAITHAL",
      "State": "HARYANA",
      "Pincode": "136021",
      "Lat": 29.846383,
      "Lng": 76.663193
    },
    {
      "Name": "Kaul S.O",
      "District": "KAITHAL",
      "State": "HARYANA",
      "Pincode": "136021",
      "Lat": 29.8463889,
      "Lng": 76.6630278
    },
    {
      "Name": "Chuhar Majra B.O",
      "District": "KAITHAL",
      "State": "HARYANA",
      "Pincode": "136021",
      "Lat": 29.846383,
      "Lng": 76.663193
    },
    {
      "Name": "Pharal B.O",
      "District": "KAITHAL",
      "State": "HARYANA",
      "Pincode": "136021",
      "Lat": 29.846383,
      "Lng": 76.663193
    }
  ],
  "136026": [
    {
      "Name": "Deeg B.O",
      "District": "KAITHAL",
      "State": "HARYANA",
      "Pincode": "136026",
      "Lat": 29.762047,
      "Lng": 76.559555
    },
    {
      "Name": "Habri B.O",
      "District": "KAITHAL",
      "State": "HARYANA",
      "Pincode": "136026",
      "Lat": 29.762047,
      "Lng": 76.559555
    },
    {
      "Name": "Barsana B.O",
      "District": "KAITHAL",
      "State": "HARYANA",
      "Pincode": "136026",
      "Lat": 29.762047,
      "Lng": 76.559555
    },
    {
      "Name": "Sirsal B.O",
      "District": "KAITHAL",
      "State": "HARYANA",
      "Pincode": "136026",
      "Lat": 29.762047,
      "Lng": 76.559555
    },
    {
      "Name": "Hajwana B.O",
      "District": "KAITHAL",
      "State": "HARYANA",
      "Pincode": "136026",
      "Lat": 29.762047,
      "Lng": 76.559555
    },
    {
      "Name": "Pundri S.O",
      "District": "KAITHAL",
      "State": "HARYANA",
      "Pincode": "136026",
      "Lat": 29.762047,
      "Lng": 76.559555
    }
  ],
  "136027": [
    {
      "Name": "Budha Khera B.O",
      "District": "KAITHAL",
      "State": "HARYANA",
      "Pincode": "136027",
      "Lat": 29.799859,
      "Lng": 76.4173
    },
    {
      "Name": "Geong B.O",
      "District": "KAITHAL",
      "State": "HARYANA",
      "Pincode": "136027",
      "Lat": 29.799859,
      "Lng": 76.4173
    },
    {
      "Name": "Guhna B.O",
      "District": "KAITHAL",
      "State": "HARYANA",
      "Pincode": "136027",
      "Lat": 29.799859,
      "Lng": 76.4173
    },
    {
      "Name": "Gulyana Songri B.O",
      "District": "KAITHAL",
      "State": "HARYANA",
      "Pincode": "136027",
      "Lat": 29.799859,
      "Lng": 76.4173
    },
    {
      "Name": "Keorak B.O",
      "District": "KAITHAL",
      "State": "HARYANA",
      "Pincode": "136027",
      "Lat": 29.799859,
      "Lng": 76.4173
    },
    {
      "Name": "Nauch B.O",
      "District": "KAITHAL",
      "State": "HARYANA",
      "Pincode": "136027",
      "Lat": 29.799859,
      "Lng": 76.4173
    },
    {
      "Name": "Harsola B.O",
      "District": "KAITHAL",
      "State": "HARYANA",
      "Pincode": "136027",
      "Lat": 29.799859,
      "Lng": 76.4173
    },
    {
      "Name": "Kichhana B.O",
      "District": "KAITHAL",
      "State": "HARYANA",
      "Pincode": "136027",
      "Lat": 29.799859,
      "Lng": 76.4173
    },
    {
      "Name": "Ladana Baba B.O",
      "District": "KAITHAL",
      "State": "HARYANA",
      "Pincode": "136027",
      "Lat": 29.799859,
      "Lng": 76.4173
    },
    {
      "Name": "Majra Nand Karan B.O",
      "District": "KAITHAL",
      "State": "HARYANA",
      "Pincode": "136027",
      "Lat": 29.799859,
      "Lng": 76.4173
    },
    {
      "Name": "Patti Afgan B.O",
      "District": "KAITHAL",
      "State": "HARYANA",
      "Pincode": "136027",
      "Lat": 29.799859,
      "Lng": 76.4173
    },
    {
      "Name": "Deohera B.O",
      "District": "KAITHAL",
      "State": "HARYANA",
      "Pincode": "136027",
      "Lat": 29.799859,
      "Lng": 76.4173
    },
    {
      "Name": "Barta BO",
      "District": "KAITHAL",
      "State": "HARYANA",
      "Pincode": "136027",
      "Lat": 29.8154042,
      "Lng": 76.2088
    },
    {
      "Name": "Kaithal S.O",
      "District": "KAITHAL",
      "State": "HARYANA",
      "Pincode": "136027",
      "Lat": 29.799859,
      "Lng": 76.4173
    },
    {
      "Name": "Model Town Kaithal S.O",
      "District": "KAITHAL",
      "State": "HARYANA",
      "Pincode": "136027",
      "Lat": 29.785673,
      "Lng": 76.398454
    },
    {
      "Name": "Baraut B.O",
      "District": "KAITHAL",
      "State": "HARYANA",
      "Pincode": "136027",
      "Lat": 29.799859,
      "Lng": 76.4173
    },
    {
      "Name": "Dewal B.O",
      "District": "KAITHAL",
      "State": "HARYANA",
      "Pincode": "136027",
      "Lat": 29.799859,
      "Lng": 76.4173
    },
    {
      "Name": "Kassan B.O",
      "District": "KAITHAL",
      "State": "HARYANA",
      "Pincode": "136027",
      "Lat": 29.799859,
      "Lng": 76.4173
    },
    {
      "Name": "Kultaran B.O",
      "District": "KAITHAL",
      "State": "HARYANA",
      "Pincode": "136027",
      "Lat": 29.799859,
      "Lng": 76.4173
    },
    {
      "Name": "Lander Keema B.O",
      "District": "KAITHAL",
      "State": "HARYANA",
      "Pincode": "136027",
      "Lat": 29.799859,
      "Lng": 76.4173
    },
    {
      "Name": "Narar B.O",
      "District": "KAITHAL",
      "State": "HARYANA",
      "Pincode": "136027",
      "Lat": 29.799859,
      "Lng": 76.4173
    },
    {
      "Name": "Sirta B.O",
      "District": "KAITHAL",
      "State": "HARYANA",
      "Pincode": "136027",
      "Lat": 29.799859,
      "Lng": 76.4173
    },
    {
      "Name": "Titram B.O",
      "District": "KAITHAL",
      "State": "HARYANA",
      "Pincode": "136027",
      "Lat": 29.799859,
      "Lng": 76.4173
    },
    {
      "Name": "Chandana B.O",
      "District": "KAITHAL",
      "State": "HARYANA",
      "Pincode": "136027",
      "Lat": 29.799859,
      "Lng": 76.4173
    },
    {
      "Name": "Kheri Simbal Wali B.O",
      "District": "KAITHAL",
      "State": "HARYANA",
      "Pincode": "136027",
      "Lat": 29.799859,
      "Lng": 76.4173
    },
    {
      "Name": "Khurana B.O",
      "District": "KAITHAL",
      "State": "HARYANA",
      "Pincode": "136027",
      "Lat": 29.799859,
      "Lng": 76.4173
    },
    {
      "Name": "Songal B.O",
      "District": "KAITHAL",
      "State": "HARYANA",
      "Pincode": "136027",
      "Lat": 29.799859,
      "Lng": 76.4173
    },
    {
      "Name": "Teek B.O",
      "District": "KAITHAL",
      "State": "HARYANA",
      "Pincode": "136027",
      "Lat": 29.799859,
      "Lng": 76.4173
    },
    {
      "Name": "Kaithal City S.O",
      "District": "KAITHAL",
      "State": "HARYANA",
      "Pincode": "136027",
      "Lat": 29.799859,
      "Lng": 76.4173
    },
    {
      "Name": "Karnal Road Kaithal S.O",
      "District": "KAITHAL",
      "State": "HARYANA",
      "Pincode": "136027",
      "Lat": 29.7997222,
      "Lng": 76.4186667
    },
    {
      "Name": "Siwan Gate Kaithal S.O",
      "District": "KAITHAL",
      "State": "HARYANA",
      "Pincode": "136027",
      "Lat": 29.8025,
      "Lng": 76.391386
    },
    {
      "Name": "Deoban B.O",
      "District": "KAITHAL",
      "State": "HARYANA",
      "Pincode": "136027",
      "Lat": 29.799859,
      "Lng": 76.4173
    },
    {
      "Name": "Jakholi B.O",
      "District": "KAITHAL",
      "State": "HARYANA",
      "Pincode": "136027",
      "Lat": 29.799859,
      "Lng": 76.4173
    },
    {
      "Name": "Manas B.O",
      "District": "KAITHAL",
      "State": "HARYANA",
      "Pincode": "136027",
      "Lat": 29.799859,
      "Lng": 76.4173
    },
    {
      "Name": "Padla B.O",
      "District": "KAITHAL",
      "State": "HARYANA",
      "Pincode": "136027",
      "Lat": 29.799859,
      "Lng": 76.4173
    },
    {
      "Name": "Peoda B.O",
      "District": "KAITHAL",
      "State": "HARYANA",
      "Pincode": "136027",
      "Lat": 29.799859,
      "Lng": 76.4173
    }
  ],
  "136030": [
    {
      "Name": "Seonsar B.O",
      "District": "KURUKSHETRA",
      "State": "HARYANA",
      "Pincode": "136030",
      "Lat": 29.93617,
      "Lng": 76.551097
    },
    {
      "Name": "Gumthala Garhu S.O",
      "District": "KURUKSHETRA",
      "State": "HARYANA",
      "Pincode": "136030",
      "Lat": 29.9361944,
      "Lng": 76.551
    },
    {
      "Name": "Batheri B.O",
      "District": "KURUKSHETRA",
      "State": "HARYANA",
      "Pincode": "136030",
      "Lat": 29.93617,
      "Lng": 76.551097
    },
    {
      "Name": "Thana B.O",
      "District": "KURUKSHETRA",
      "State": "HARYANA",
      "Pincode": "136030",
      "Lat": 29.93617,
      "Lng": 76.551097
    },
    {
      "Name": "Kakral Gujran B.O",
      "District": "KURUKSHETRA",
      "State": "HARYANA",
      "Pincode": "136030",
      "Lat": 29.93617,
      "Lng": 76.551097
    },
    {
      "Name": "Ramgarh Ror B.O",
      "District": "KURUKSHETRA",
      "State": "HARYANA",
      "Pincode": "136030",
      "Lat": 29.93617,
      "Lng": 76.551097
    }
  ],
  "136033": [
    {
      "Name": "Ladana Chaku B.O",
      "District": "KAITHAL",
      "State": "HARYANA",
      "Pincode": "136033",
      "Lat": 29.799859,
      "Lng": 76.4173
    },
    {
      "Name": "Siwan S.O",
      "District": "KAITHAL",
      "State": "HARYANA",
      "Pincode": "136033",
      "Lat": 29.799859,
      "Lng": 76.4173
    },
    {
      "Name": "Kawartan B.O",
      "District": "KAITHAL",
      "State": "HARYANA",
      "Pincode": "136033",
      "Lat": 29.799859,
      "Lng": 76.4173
    },
    {
      "Name": "Mandi Sadra B.O",
      "District": "KAITHAL",
      "State": "HARYANA",
      "Pincode": "136033",
      "Lat": 29.799859,
      "Lng": 76.4173
    },
    {
      "Name": "Kakrala Inayat B.O",
      "District": "KAITHAL",
      "State": "HARYANA",
      "Pincode": "136033",
      "Lat": 29.799859,
      "Lng": 76.4173
    },
    {
      "Name": "Kangthali B.O",
      "District": "KAITHAL",
      "State": "HARYANA",
      "Pincode": "136033",
      "Lat": 29.799859,
      "Lng": 76.4173
    },
    {
      "Name": "Kheri Gulam Ali B.O",
      "District": "KAITHAL",
      "State": "HARYANA",
      "Pincode": "136033",
      "Lat": 29.799859,
      "Lng": 76.4173
    },
    {
      "Name": "Sair B.O",
      "District": "KAITHAL",
      "State": "HARYANA",
      "Pincode": "136033",
      "Lat": 29.799859,
      "Lng": 76.4173
    }
  ],
  "136034": [
    {
      "Name": "Badsui B.O",
      "District": "KAITHAL",
      "State": "HARYANA",
      "Pincode": "136034",
      "Lat": 29.799859,
      "Lng": 76.4173
    },
    {
      "Name": "Balbera B.O",
      "District": "KAITHAL",
      "State": "HARYANA",
      "Pincode": "136034",
      "Lat": 29.799859,
      "Lng": 76.4173
    },
    {
      "Name": "Bhagal B.O",
      "District": "KAITHAL",
      "State": "HARYANA",
      "Pincode": "136034",
      "Lat": 29.799859,
      "Lng": 76.4173
    },
    {
      "Name": "Gaggarpur B.O",
      "District": "KAITHAL",
      "State": "HARYANA",
      "Pincode": "136034",
      "Lat": 29.799859,
      "Lng": 76.4173
    },
    {
      "Name": "Mengran B.O",
      "District": "KAITHAL",
      "State": "HARYANA",
      "Pincode": "136034",
      "Lat": 29.799859,
      "Lng": 76.4173
    },
    {
      "Name": "Arnauli B.O",
      "District": "KAITHAL",
      "State": "HARYANA",
      "Pincode": "136034",
      "Lat": 29.799859,
      "Lng": 76.4173
    },
    {
      "Name": "Bhuslan B.O",
      "District": "KAITHAL",
      "State": "HARYANA",
      "Pincode": "136034",
      "Lat": 29.799859,
      "Lng": 76.4173
    },
    {
      "Name": "Harigarh Kingan B.O",
      "District": "KAITHAL",
      "State": "HARYANA",
      "Pincode": "136034",
      "Lat": 29.799859,
      "Lng": 76.4173
    },
    {
      "Name": "Kharaudi B.O",
      "District": "KAITHAL",
      "State": "HARYANA",
      "Pincode": "136034",
      "Lat": 29.799859,
      "Lng": 76.4173
    },
    {
      "Name": "Mehmoodpur B.O",
      "District": "KAITHAL",
      "State": "HARYANA",
      "Pincode": "136034",
      "Lat": 29.799859,
      "Lng": 76.4173
    },
    {
      "Name": "Peedal B.O",
      "District": "KAITHAL",
      "State": "HARYANA",
      "Pincode": "136034",
      "Lat": 29.799859,
      "Lng": 76.4173
    },
    {
      "Name": "Baupur B.O",
      "District": "KAITHAL",
      "State": "HARYANA",
      "Pincode": "136034",
      "Lat": 29.799859,
      "Lng": 76.4173
    },
    {
      "Name": "Daba B.O",
      "District": "KAITHAL",
      "State": "HARYANA",
      "Pincode": "136034",
      "Lat": 29.799859,
      "Lng": 76.4173
    },
    {
      "Name": "Chika S.O",
      "District": "KAITHAL",
      "State": "HARYANA",
      "Pincode": "136034",
      "Lat": 29.799859,
      "Lng": 76.4173
    },
    {
      "Name": "Bhuna B.O",
      "District": "KAITHAL",
      "State": "HARYANA",
      "Pincode": "136034",
      "Lat": 29.799859,
      "Lng": 76.4173
    }
  ],
  "136035": [
    {
      "Name": "Agondh B.O",
      "District": "KAITHAL",
      "State": "HARYANA",
      "Pincode": "136035",
      "Lat": 30.038024,
      "Lng": 76.298064
    },
    {
      "Name": "Mastgarh B.O",
      "District": "KAITHAL",
      "State": "HARYANA",
      "Pincode": "136035",
      "Lat": 30.038024,
      "Lng": 76.298064
    },
    {
      "Name": "Guhla S.O",
      "District": "KAITHAL",
      "State": "HARYANA",
      "Pincode": "136035",
      "Lat": 30.0383333,
      "Lng": 76.2984167
    },
    {
      "Name": "Seonmajra B.O",
      "District": "KAITHAL",
      "State": "HARYANA",
      "Pincode": "136035",
      "Lat": 30.038024,
      "Lng": 76.298064
    },
    {
      "Name": "Duserpur B.O",
      "District": "KAITHAL",
      "State": "HARYANA",
      "Pincode": "136035",
      "Lat": 30.038024,
      "Lng": 76.298064
    },
    {
      "Name": "Kharkada B.O",
      "District": "KAITHAL",
      "State": "HARYANA",
      "Pincode": "136035",
      "Lat": 30.038024,
      "Lng": 76.298064
    },
    {
      "Name": "Kharkan B.O",
      "District": "KAITHAL",
      "State": "HARYANA",
      "Pincode": "136035",
      "Lat": 30.038024,
      "Lng": 76.298064
    }
  ],
  "136038": [
    {
      "Name": "Amin S.O",
      "District": "KURUKSHETRA",
      "State": "HARYANA",
      "Pincode": "136038",
      "Lat": 29.5702778,
      "Lng": 76.8703056
    }
  ],
  "136042": [
    {
      "Name": "Mundri B.O",
      "District": "KAITHAL",
      "State": "HARYANA",
      "Pincode": "136042",
      "Lat": 29.802463,
      "Lng": 76.560383
    },
    {
      "Name": "Rasina B.O",
      "District": "KAITHAL",
      "State": "HARYANA",
      "Pincode": "136042",
      "Lat": 29.802463,
      "Lng": 76.560383
    },
    {
      "Name": "Saunch B.O",
      "District": "KAITHAL",
      "State": "HARYANA",
      "Pincode": "136042",
      "Lat": 29.802463,
      "Lng": 76.560383
    },
    {
      "Name": "Naina Dhos B.O",
      "District": "KAITHAL",
      "State": "HARYANA",
      "Pincode": "136042",
      "Lat": 29.802463,
      "Lng": 76.560383
    },
    {
      "Name": "Teontha B.O",
      "District": "KAITHAL",
      "State": "HARYANA",
      "Pincode": "136042",
      "Lat": 29.802463,
      "Lng": 76.560383
    },
    {
      "Name": "Fatehpur S.O (Kaithal)",
      "District": "KAITHAL",
      "State": "HARYANA",
      "Pincode": "136042",
      "Lat": 29.802463,
      "Lng": 76.560383
    }
  ],
  "136043": [
    {
      "Name": "Karora B.O",
      "District": "KAITHAL",
      "State": "HARYANA",
      "Pincode": "136043",
      "Lat": 29.670538,
      "Lng": 76.5168
    },
    {
      "Name": "Kotra B.O",
      "District": "KAITHAL",
      "State": "HARYANA",
      "Pincode": "136043",
      "Lat": 29.670538,
      "Lng": 76.5168
    },
    {
      "Name": "Pai S.O",
      "District": "KAITHAL",
      "State": "HARYANA",
      "Pincode": "136043",
      "Lat": 29.670538,
      "Lng": 76.5168
    },
    {
      "Name": "Bhana B.O",
      "District": "KAITHAL",
      "State": "HARYANA",
      "Pincode": "136043",
      "Lat": 29.670538,
      "Lng": 76.5168
    },
    {
      "Name": "Pilni B.O",
      "District": "KAITHAL",
      "State": "HARYANA",
      "Pincode": "136043",
      "Lat": 29.670538,
      "Lng": 76.5168
    },
    {
      "Name": "Bakal B.O",
      "District": "KAITHAL",
      "State": "HARYANA",
      "Pincode": "136043",
      "Lat": 29.670538,
      "Lng": 76.5168
    },
    {
      "Name": "Kakot B.O",
      "District": "KAITHAL",
      "State": "HARYANA",
      "Pincode": "136043",
      "Lat": 29.670538,
      "Lng": 76.5168
    },
    {
      "Name": "Serhda B.O",
      "District": "KAITHAL",
      "State": "HARYANA",
      "Pincode": "136043",
      "Lat": 29.670538,
      "Lng": 76.5168
    },
    {
      "Name": "Sisla Sismore B.O",
      "District": "KAITHAL",
      "State": "HARYANA",
      "Pincode": "136043",
      "Lat": 29.670538,
      "Lng": 76.5168
    }
  ],
  "136044": [
    {
      "Name": "Mandwal B.O",
      "District": "KAITHAL",
      "State": "HARYANA",
      "Pincode": "136044",
      "Lat": 29.57595,
      "Lng": 76.484933
    },
    {
      "Name": "Rajound S.O",
      "District": "KAITHAL",
      "State": "HARYANA",
      "Pincode": "136044",
      "Lat": 29.57595,
      "Lng": 76.484933
    },
    {
      "Name": "Kithana B.O",
      "District": "KAITHAL",
      "State": "HARYANA",
      "Pincode": "136044",
      "Lat": 29.57595,
      "Lng": 76.484933
    },
    {
      "Name": "Rohera B.O",
      "District": "KAITHAL",
      "State": "HARYANA",
      "Pincode": "136044",
      "Lat": 29.57595,
      "Lng": 76.484933
    },
    {
      "Name": "Santokh Majra B.O",
      "District": "KAITHAL",
      "State": "HARYANA",
      "Pincode": "136044",
      "Lat": 29.57595,
      "Lng": 76.484933
    },
    {
      "Name": "Bir Bangran B.O",
      "District": "KAITHAL",
      "State": "HARYANA",
      "Pincode": "136044",
      "Lat": 29.57595,
      "Lng": 76.484933
    }
  ],
  "136117": [
    {
      "Name": "Kailram B.O",
      "District": "KAITHAL",
      "State": "HARYANA",
      "Pincode": "136117",
      "Lat": 29.674897,
      "Lng": 76.256273
    },
    {
      "Name": "Mataur B.O",
      "District": "KAITHAL",
      "State": "HARYANA",
      "Pincode": "136117",
      "Lat": 29.674897,
      "Lng": 76.256273
    },
    {
      "Name": "Sanghan B.O",
      "District": "KAITHAL",
      "State": "HARYANA",
      "Pincode": "136117",
      "Lat": 29.674897,
      "Lng": 76.256273
    },
    {
      "Name": "Simla B.O",
      "District": "KAITHAL",
      "State": "HARYANA",
      "Pincode": "136117",
      "Lat": 29.674897,
      "Lng": 76.256273
    },
    {
      "Name": "Badsikri Kalan B.O",
      "District": "KAITHAL",
      "State": "HARYANA",
      "Pincode": "136117",
      "Lat": 29.674897,
      "Lng": 76.256273
    },
    {
      "Name": "Balu B.O",
      "District": "KAITHAL",
      "State": "HARYANA",
      "Pincode": "136117",
      "Lat": 29.674897,
      "Lng": 76.256273
    },
    {
      "Name": "Dubbal B.O",
      "District": "KAITHAL",
      "State": "HARYANA",
      "Pincode": "136117",
      "Lat": 29.674897,
      "Lng": 76.256273
    },
    {
      "Name": "Kalayat Mandi B.O",
      "District": "KAITHAL",
      "State": "HARYANA",
      "Pincode": "136117",
      "Lat": 29.674897,
      "Lng": 76.256273
    },
    {
      "Name": "Kharak Pandwan B.O",
      "District": "KAITHAL",
      "State": "HARYANA",
      "Pincode": "136117",
      "Lat": 29.674897,
      "Lng": 76.256273
    },
    {
      "Name": "Kolekhan B.O",
      "District": "KAITHAL",
      "State": "HARYANA",
      "Pincode": "136117",
      "Lat": 29.674897,
      "Lng": 76.256273
    },
    {
      "Name": "Batta B.O",
      "District": "KAITHAL",
      "State": "HARYANA",
      "Pincode": "136117",
      "Lat": 29.674897,
      "Lng": 76.256273
    },
    {
      "Name": "Haripura B.O",
      "District": "KAITHAL",
      "State": "HARYANA",
      "Pincode": "136117",
      "Lat": 29.674897,
      "Lng": 76.256273
    },
    {
      "Name": "Kalasar B.O",
      "District": "KAITHAL",
      "State": "HARYANA",
      "Pincode": "136117",
      "Lat": 29.674897,
      "Lng": 76.256273
    },
    {
      "Name": "Kurar B.O",
      "District": "KAITHAL",
      "State": "HARYANA",
      "Pincode": "136117",
      "Lat": 29.674897,
      "Lng": 76.256273
    },
    {
      "Name": "Ram Garh Pandwa B.O",
      "District": "KAITHAL",
      "State": "HARYANA",
      "Pincode": "136117",
      "Lat": 29.674897,
      "Lng": 76.256273
    },
    {
      "Name": "Sajuma B.O",
      "District": "KAITHAL",
      "State": "HARYANA",
      "Pincode": "136117",
      "Lat": 29.674897,
      "Lng": 76.256273
    },
    {
      "Name": "Kalayat S.O",
      "District": "KAITHAL",
      "State": "HARYANA",
      "Pincode": "136117",
      "Lat": 29.674897,
      "Lng": 76.256273
    },
    {
      "Name": "Chaushala B.O",
      "District": "KAITHAL",
      "State": "HARYANA",
      "Pincode": "136117",
      "Lat": 29.674897,
      "Lng": 76.256273
    },
    {
      "Name": "Dhundwa B.O",
      "District": "KAITHAL",
      "State": "HARYANA",
      "Pincode": "136117",
      "Lat": 29.674897,
      "Lng": 76.256273
    }
  ],
  "136118": [
    {
      "Name": "Birla Mandir S.O",
      "District": "KURUKSHETRA",
      "State": "HARYANA",
      "Pincode": "136118",
      "Lat": 29.9653611,
      "Lng": 76.8261389
    },
    {
      "Name": "Mohan Nagar S.O (Kurukshetra)",
      "District": "KURUKSHETRA",
      "State": "HARYANA",
      "Pincode": "136118",
      "Lat": 29.972367,
      "Lng": 76.855261
    },
    {
      "Name": "Sector 3 U E KKR S.O",
      "District": "KURUKSHETRA",
      "State": "HARYANA",
      "Pincode": "136118",
      "Lat": 29.960663,
      "Lng": 76.890856
    },
    {
      "Name": "Kurukshetra H.O",
      "District": "KURUKSHETRA",
      "State": "HARYANA",
      "Pincode": "136118",
      "Lat": 29.973216999999998,
      "Lng": 76.8469722
    },
    {
      "Name": "Thanesar Town S.O",
      "District": "KURUKSHETRA",
      "State": "HARYANA",
      "Pincode": "136118",
      "Lat": 29.972472,
      "Lng": 76.85529
    },
    {
      "Name": "Judicial Complex Kurukshetra S.O",
      "District": "KURUKSHETRA",
      "State": "HARYANA",
      "Pincode": "136118",
      "Lat": 29.973217,
      "Lng": 76.830346
    }
  ],
  "136119": [
    {
      "Name": "Dhurala B.O",
      "District": "KURUKSHETRA",
      "State": "HARYANA",
      "Pincode": "136119",
      "Lat": 29.955549,
      "Lng": 76.812926
    },
    {
      "Name": "Kamoda B.O",
      "District": "KURUKSHETRA",
      "State": "HARYANA",
      "Pincode": "136119",
      "Lat": 29.955549,
      "Lng": 76.812926
    },
    {
      "Name": "Barwa B.O",
      "District": "KURUKSHETRA",
      "State": "HARYANA",
      "Pincode": "136119",
      "Lat": 29.955549,
      "Lng": 76.812926
    },
    {
      "Name": "Hassanpur B.O",
      "District": "KURUKSHETRA",
      "State": "HARYANA",
      "Pincode": "136119",
      "Lat": 29.955549,
      "Lng": 76.812926
    },
    {
      "Name": "Kurukshetra University S.O",
      "District": "KURUKSHETRA",
      "State": "HARYANA",
      "Pincode": "136119",
      "Lat": 29.955549,
      "Lng": 76.812926
    },
    {
      "Name": "Bagthala B.O",
      "District": "KURUKSHETRA",
      "State": "HARYANA",
      "Pincode": "136119",
      "Lat": 29.955549,
      "Lng": 76.812926
    },
    {
      "Name": "Kirmuch B.O",
      "District": "KURUKSHETRA",
      "State": "HARYANA",
      "Pincode": "136119",
      "Lat": 29.955549,
      "Lng": 76.812926
    },
    {
      "Name": "Salarpur B.O",
      "District": "KURUKSHETRA",
      "State": "HARYANA",
      "Pincode": "136119",
      "Lat": 29.955549,
      "Lng": 76.812926
    },
    {
      "Name": "Kheri Ram Nagar B.O",
      "District": "KURUKSHETRA",
      "State": "HARYANA",
      "Pincode": "136119",
      "Lat": 29.955549,
      "Lng": 76.812926
    },
    {
      "Name": "Barna B.O",
      "District": "KURUKSHETRA",
      "State": "HARYANA",
      "Pincode": "136119",
      "Lat": 29.955549,
      "Lng": 76.812926
    },
    {
      "Name": "Gurukul B.O",
      "District": "KURUKSHETRA",
      "State": "HARYANA",
      "Pincode": "136119",
      "Lat": 29.955549,
      "Lng": 76.812926
    },
    {
      "Name": "Hathira B.O",
      "District": "KURUKSHETRA",
      "State": "HARYANA",
      "Pincode": "136119",
      "Lat": 29.955549,
      "Lng": 76.812926
    },
    {
      "Name": "Bhor Saida B.O",
      "District": "KURUKSHETRA",
      "State": "HARYANA",
      "Pincode": "136119",
      "Lat": 29.955549,
      "Lng": 76.812926
    },
    {
      "Name": "Dabkheri B.O",
      "District": "KURUKSHETRA",
      "State": "HARYANA",
      "Pincode": "136119",
      "Lat": 29.955549,
      "Lng": 76.812926
    },
    {
      "Name": "Jyotisar B.O",
      "District": "KURUKSHETRA",
      "State": "HARYANA",
      "Pincode": "136119",
      "Lat": 29.955549,
      "Lng": 76.812926
    },
    {
      "Name": "Lukhi B.O",
      "District": "KURUKSHETRA",
      "State": "HARYANA",
      "Pincode": "136119",
      "Lat": 29.955549,
      "Lng": 76.812926
    },
    {
      "Name": "R.E.C.K. S.O",
      "District": "KURUKSHETRA",
      "State": "HARYANA",
      "Pincode": "136119",
      "Lat": 29.955549,
      "Lng": 76.812926
    }
  ],
  "136128": [
    {
      "Name": "Diwana B.O",
      "District": "KURUKSHETRA",
      "State": "HARYANA",
      "Pincode": "136128",
      "Lat": 29.981417,
      "Lng": 76.589277
    },
    {
      "Name": "Saina Saida B.O",
      "District": "KURUKSHETRA",
      "State": "HARYANA",
      "Pincode": "136128",
      "Lat": 29.981417,
      "Lng": 76.589277
    },
    {
      "Name": "Sandholi B.O",
      "District": "KURUKSHETRA",
      "State": "HARYANA",
      "Pincode": "136128",
      "Lat": 29.981417,
      "Lng": 76.589277
    },
    {
      "Name": "Saraswati Mandir Pehowa S.O",
      "District": "KURUKSHETRA",
      "State": "HARYANA",
      "Pincode": "136128",
      "Lat": 29.981417,
      "Lng": 76.589277
    },
    {
      "Name": "Bakhli B.O",
      "District": "KURUKSHETRA",
      "State": "HARYANA",
      "Pincode": "136128",
      "Lat": 29.981417,
      "Lng": 76.589277
    },
    {
      "Name": "Ishaq B.O",
      "District": "KURUKSHETRA",
      "State": "HARYANA",
      "Pincode": "136128",
      "Lat": 29.981417,
      "Lng": 76.589277
    },
    {
      "Name": "Sarsa B.O",
      "District": "KURUKSHETRA",
      "State": "HARYANA",
      "Pincode": "136128",
      "Lat": 29.981417,
      "Lng": 76.589277
    },
    {
      "Name": "Malikpur B.O",
      "District": "KURUKSHETRA",
      "State": "HARYANA",
      "Pincode": "136128",
      "Lat": 29.981417,
      "Lng": 76.589277
    },
    {
      "Name": "Murtzapur B.O",
      "District": "KURUKSHETRA",
      "State": "HARYANA",
      "Pincode": "136128",
      "Lat": 29.981417,
      "Lng": 76.589277
    },
    {
      "Name": "Pehowa S.O",
      "District": "KURUKSHETRA",
      "State": "HARYANA",
      "Pincode": "136128",
      "Lat": 29.981417,
      "Lng": 76.589277
    },
    {
      "Name": "Bhorakh B.O",
      "District": "KURUKSHETRA",
      "State": "HARYANA",
      "Pincode": "136128",
      "Lat": 29.981417,
      "Lng": 76.589277
    },
    {
      "Name": "Karah B.O",
      "District": "KURUKSHETRA",
      "State": "HARYANA",
      "Pincode": "136128",
      "Lat": 29.981417,
      "Lng": 76.589277
    },
    {
      "Name": "Bodhni B.O",
      "District": "KURUKSHETRA",
      "State": "HARYANA",
      "Pincode": "136128",
      "Lat": 29.981417,
      "Lng": 76.589277
    },
    {
      "Name": "Urnai B.O",
      "District": "KURUKSHETRA",
      "State": "HARYANA",
      "Pincode": "136128",
      "Lat": 29.981417,
      "Lng": 76.589277
    }
  ],
  "136129": [
    {
      "Name": "Chammu Kalan B.O",
      "District": "KURUKSHETRA",
      "State": "HARYANA",
      "Pincode": "136129",
      "Lat": 30.115686,
      "Lng": 76.666405
    },
    {
      "Name": "Jalbehra B.O",
      "District": "KURUKSHETRA",
      "State": "HARYANA",
      "Pincode": "136129",
      "Lat": 30.115686,
      "Lng": 76.666405
    },
    {
      "Name": "Rohti B.O",
      "District": "KURUKSHETRA",
      "State": "HARYANA",
      "Pincode": "136129",
      "Lat": 30.115686,
      "Lng": 76.666405
    },
    {
      "Name": "Naisi B.O",
      "District": "KURUKSHETRA",
      "State": "HARYANA",
      "Pincode": "136129",
      "Lat": 30.115686,
      "Lng": 76.666405
    },
    {
      "Name": "Ismailabad S.O",
      "District": "KURUKSHETRA",
      "State": "HARYANA",
      "Pincode": "136129",
      "Lat": 30.115686,
      "Lng": 76.666405
    },
    {
      "Name": "Thaska Miranji B.O",
      "District": "KURUKSHETRA",
      "State": "HARYANA",
      "Pincode": "136129",
      "Lat": 30.115686,
      "Lng": 76.666405
    }
  ],
  "136130": [
    {
      "Name": "Ajrana Kalan B.O",
      "District": "KURUKSHETRA",
      "State": "HARYANA",
      "Pincode": "136130",
      "Lat": 29.973217,
      "Lng": 76.830346
    },
    {
      "Name": "Jhansa S.O",
      "District": "KURUKSHETRA",
      "State": "HARYANA",
      "Pincode": "136130",
      "Lat": 29.973217,
      "Lng": 76.830346
    },
    {
      "Name": "Bhusthala B.O",
      "District": "KURUKSHETRA",
      "State": "HARYANA",
      "Pincode": "136130",
      "Lat": 29.973217,
      "Lng": 76.830346
    },
    {
      "Name": "Tangore B.O",
      "District": "KURUKSHETRA",
      "State": "HARYANA",
      "Pincode": "136130",
      "Lat": 29.973217,
      "Lng": 76.830346
    }
  ],
  "136131": [
    {
      "Name": "Bodla B.O",
      "District": "KURUKSHETRA",
      "State": "HARYANA",
      "Pincode": "136131",
      "Lat": 29.973217,
      "Lng": 76.830346
    },
    {
      "Name": "Bir Mathana B.O",
      "District": "KURUKSHETRA",
      "State": "HARYANA",
      "Pincode": "136131",
      "Lat": 29.973217,
      "Lng": 76.830346
    },
    {
      "Name": "Khanpur Kolian B.O",
      "District": "KURUKSHETRA",
      "State": "HARYANA",
      "Pincode": "136131",
      "Lat": 29.973217,
      "Lng": 76.830346
    },
    {
      "Name": "Pipli S.O",
      "District": "KURUKSHETRA",
      "State": "HARYANA",
      "Pincode": "136131",
      "Lat": 29.973217,
      "Lng": 76.830346
    },
    {
      "Name": "Mathana B.O",
      "District": "KURUKSHETRA",
      "State": "HARYANA",
      "Pincode": "136131",
      "Lat": 29.973217,
      "Lng": 76.830346
    },
    {
      "Name": "Umri B.O",
      "District": "KURUKSHETRA",
      "State": "HARYANA",
      "Pincode": "136131",
      "Lat": 29.973217,
      "Lng": 76.830346
    },
    {
      "Name": "Sirsala B.O",
      "District": "KURUKSHETRA",
      "State": "HARYANA",
      "Pincode": "136131",
      "Lat": 29.973217,
      "Lng": 76.830346
    },
    {
      "Name": "Kohlapur B.O",
      "District": "KURUKSHETRA",
      "State": "HARYANA",
      "Pincode": "136131",
      "Lat": 29.973217,
      "Lng": 76.830346
    },
    {
      "Name": "Palwal B.O",
      "District": "KURUKSHETRA",
      "State": "HARYANA",
      "Pincode": "136131",
      "Lat": 29.973217,
      "Lng": 76.830346
    }
  ],
  "136132": [
    {
      "Name": "Barout B.O",
      "District": "KURUKSHETRA",
      "State": "HARYANA",
      "Pincode": "136132",
      "Lat": 29.987047,
      "Lng": 77.041004
    },
    {
      "Name": "Kalirano B.O",
      "District": "KURUKSHETRA",
      "State": "HARYANA",
      "Pincode": "136132",
      "Lat": 29.987047,
      "Lng": 77.041004
    },
    {
      "Name": "Lohara B.O",
      "District": "KURUKSHETRA",
      "State": "HARYANA",
      "Pincode": "136132",
      "Lat": 29.987047,
      "Lng": 77.041004
    },
    {
      "Name": "Niwarsi B.O",
      "District": "KURUKSHETRA",
      "State": "HARYANA",
      "Pincode": "136132",
      "Lat": 29.987047,
      "Lng": 77.041004
    },
    {
      "Name": "Prahladpur B.O",
      "District": "KURUKSHETRA",
      "State": "HARYANA",
      "Pincode": "136132",
      "Lat": 29.987047,
      "Lng": 77.041004
    },
    {
      "Name": "Gajlana B.O",
      "District": "KURUKSHETRA",
      "State": "HARYANA",
      "Pincode": "136132",
      "Lat": 29.987047,
      "Lng": 77.041004
    },
    {
      "Name": "Gudha B.O",
      "District": "KURUKSHETRA",
      "State": "HARYANA",
      "Pincode": "136132",
      "Lat": 29.987047,
      "Lng": 77.041004
    },
    {
      "Name": "Kheri Dabdallan B.O",
      "District": "KURUKSHETRA",
      "State": "HARYANA",
      "Pincode": "136132",
      "Lat": 29.987047,
      "Lng": 77.041004
    },
    {
      "Name": "Brahan BO",
      "District": "KURUKSHETRA",
      "State": "HARYANA",
      "Pincode": "136132",
      "Lat": 29.987047,
      "Lng": 77.041004
    },
    {
      "Name": "Ngm Ladwa S.O",
      "District": "KURUKSHETRA",
      "State": "HARYANA",
      "Pincode": "136132",
      "Lat": 29.998094,
      "Lng": 77.033418
    },
    {
      "Name": "Bakali B.O",
      "District": "KURUKSHETRA",
      "State": "HARYANA",
      "Pincode": "136132",
      "Lat": 29.987047,
      "Lng": 77.041004
    },
    {
      "Name": "Ban B.O",
      "District": "KURUKSHETRA",
      "State": "HARYANA",
      "Pincode": "136132",
      "Lat": 29.987047,
      "Lng": 77.041004
    },
    {
      "Name": "Bapdi B.O",
      "District": "KURUKSHETRA",
      "State": "HARYANA",
      "Pincode": "136132",
      "Lat": 29.987047,
      "Lng": 77.041004
    },
    {
      "Name": "Ladwa S.O",
      "District": "KURUKSHETRA",
      "State": "HARYANA",
      "Pincode": "136132",
      "Lat": 29.987047,
      "Lng": 77.0404722
    }
  ],
  "136134": [
    {
      "Name": "Mohri S.O",
      "District": "KURUKSHETRA",
      "State": "HARYANA",
      "Pincode": "136134",
      "Lat": 29.9695,
      "Lng": 76.8782
    }
  ],
  "136135": [
    {
      "Name": "Kharindwa B.O",
      "District": "KURUKSHETRA",
      "State": "HARYANA",
      "Pincode": "136135",
      "Lat": 29.973217,
      "Lng": 76.830346
    },
    {
      "Name": "Tigri B.O",
      "District": "KURUKSHETRA",
      "State": "HARYANA",
      "Pincode": "136135",
      "Lat": 29.973217,
      "Lng": 76.830346
    },
    {
      "Name": "Majri Mohalla Shahabad S.O",
      "District": "KURUKSHETRA",
      "State": "HARYANA",
      "Pincode": "136135",
      "Lat": 29.973217,
      "Lng": 76.830346
    },
    {
      "Name": "Sudpur B.O",
      "District": "KURUKSHETRA",
      "State": "HARYANA",
      "Pincode": "136135",
      "Lat": 29.973217,
      "Lng": 76.830346
    },
    {
      "Name": "Yara B.O",
      "District": "KURUKSHETRA",
      "State": "HARYANA",
      "Pincode": "136135",
      "Lat": 29.973217,
      "Lng": 76.830346
    },
    {
      "Name": "Golpura B.O",
      "District": "KURUKSHETRA",
      "State": "HARYANA",
      "Pincode": "136135",
      "Lat": 29.973217,
      "Lng": 76.830346
    },
    {
      "Name": "Kalsana B.O",
      "District": "KURUKSHETRA",
      "State": "HARYANA",
      "Pincode": "136135",
      "Lat": 29.973217,
      "Lng": 76.830346
    },
    {
      "Name": "Kalyana B.O",
      "District": "KURUKSHETRA",
      "State": "HARYANA",
      "Pincode": "136135",
      "Lat": 29.973217,
      "Lng": 76.830346
    },
    {
      "Name": "Nagla B.O",
      "District": "KURUKSHETRA",
      "State": "HARYANA",
      "Pincode": "136135",
      "Lat": 29.973217,
      "Lng": 76.830346
    },
    {
      "Name": "Samalkhi B.O",
      "District": "KURUKSHETRA",
      "State": "HARYANA",
      "Pincode": "136135",
      "Lat": 29.973217,
      "Lng": 76.830346
    },
    {
      "Name": "Chaduni Jattan B.O",
      "District": "KURUKSHETRA",
      "State": "HARYANA",
      "Pincode": "136135",
      "Lat": 29.973217,
      "Lng": 76.830346
    },
    {
      "Name": "Deeg B.O",
      "District": "KURUKSHETRA",
      "State": "HARYANA",
      "Pincode": "136135",
      "Lat": 29.973217,
      "Lng": 76.830346
    },
    {
      "Name": "Jandheri B.O",
      "District": "KURUKSHETRA",
      "State": "HARYANA",
      "Pincode": "136135",
      "Lat": 29.973217,
      "Lng": 76.830346
    },
    {
      "Name": "Madanpur B.O",
      "District": "KURUKSHETRA",
      "State": "HARYANA",
      "Pincode": "136135",
      "Lat": 29.973217,
      "Lng": 76.830346
    },
    {
      "Name": "Nalvi B.O",
      "District": "KURUKSHETRA",
      "State": "HARYANA",
      "Pincode": "136135",
      "Lat": 29.973217,
      "Lng": 76.830346
    },
    {
      "Name": "Rattangarh B.O",
      "District": "KURUKSHETRA",
      "State": "HARYANA",
      "Pincode": "136135",
      "Lat": "NA",
      "Lng": "NA"
    },
    {
      "Name": "Haripur B.O",
      "District": "KURUKSHETRA",
      "State": "HARYANA",
      "Pincode": "136135",
      "Lat": 29.973217,
      "Lng": 76.830346
    },
    {
      "Name": "Landi B.O",
      "District": "KURUKSHETRA",
      "State": "HARYANA",
      "Pincode": "136135",
      "Lat": 29.973217,
      "Lng": 76.830346
    },
    {
      "Name": "Rawa B.O",
      "District": "KURUKSHETRA",
      "State": "HARYANA",
      "Pincode": "136135",
      "Lat": 29.973217,
      "Lng": 76.830346
    },
    {
      "Name": "Sharif Garh B.O",
      "District": "KURUKSHETRA",
      "State": "HARYANA",
      "Pincode": "136135",
      "Lat": 29.973217,
      "Lng": 76.830346
    },
    {
      "Name": "Shahabad(M) S.O",
      "District": "KURUKSHETRA",
      "State": "HARYANA",
      "Pincode": "136135",
      "Lat": 29.973217,
      "Lng": 76.830346
    }
  ],
  "136136": [
    {
      "Name": "Mandheri B.O",
      "District": "KURUKSHETRA",
      "State": "HARYANA",
      "Pincode": "136136",
      "Lat": 30.166519,
      "Lng": 76.709604
    },
    {
      "Name": "Shanti Nagar B.O",
      "District": "KURUKSHETRA",
      "State": "HARYANA",
      "Pincode": "136136",
      "Lat": 30.166519,
      "Lng": 76.709604
    },
    {
      "Name": "Thol S.O",
      "District": "KURUKSHETRA",
      "State": "HARYANA",
      "Pincode": "136136",
      "Lat": 30.166519,
      "Lng": 76.709604
    },
    {
      "Name": "Ajrawar B.O",
      "District": "KURUKSHETRA",
      "State": "HARYANA",
      "Pincode": "136136",
      "Lat": 30.166519,
      "Lng": 76.709604
    }
  ],
  "136156": [
    {
      "Name": "Bhagwanpur B.O",
      "District": "KURUKSHETRA",
      "State": "HARYANA",
      "Pincode": "136156",
      "Lat": 30.084325,
      "Lng": 76.987348
    },
    {
      "Name": "Jandola B.O",
      "District": "KURUKSHETRA",
      "State": "HARYANA",
      "Pincode": "136156",
      "Lat": 30.084325,
      "Lng": 76.987348
    },
    {
      "Name": "Lakhmari B.O",
      "District": "KURUKSHETRA",
      "State": "HARYANA",
      "Pincode": "136156",
      "Lat": 30.084325,
      "Lng": 76.987348
    },
    {
      "Name": "Kalal Majra B.O",
      "District": "KURUKSHETRA",
      "State": "HARYANA",
      "Pincode": "136156",
      "Lat": 30.084325,
      "Lng": 76.987348
    },
    {
      "Name": "Sanghor B.O",
      "District": "KURUKSHETRA",
      "State": "HARYANA",
      "Pincode": "136156",
      "Lat": 30.084325,
      "Lng": 76.987348
    },
    {
      "Name": "Bargat B.O",
      "District": "KURUKSHETRA",
      "State": "HARYANA",
      "Pincode": "136156",
      "Lat": 30.084325,
      "Lng": 76.987348
    },
    {
      "Name": "Dudhla B.O",
      "District": "KURUKSHETRA",
      "State": "HARYANA",
      "Pincode": "136156",
      "Lat": 30.084325,
      "Lng": 76.987348
    },
    {
      "Name": "Ram Saran Majra B.O",
      "District": "KURUKSHETRA",
      "State": "HARYANA",
      "Pincode": "136156",
      "Lat": 30.084325,
      "Lng": 76.987348
    },
    {
      "Name": "Bir Kalwa B.O",
      "District": "KURUKSHETRA",
      "State": "HARYANA",
      "Pincode": "136156",
      "Lat": 30.084325,
      "Lng": 76.987348
    },
    {
      "Name": "Babain S.O",
      "District": "KURUKSHETRA",
      "State": "HARYANA",
      "Pincode": "136156",
      "Lat": 30.04,
      "Lng": 76.58
    }
  ]
}
