{
  "151001": [
    {
      "Name": "Nai Basti Bathinda SO",
      "District": "BATHINDA",
      "State": "PUNJAB",
      "Pincode": "151001",
      "Lat": "NA",
      "Lng": "NA"
    },
    {
      "Name": "MRSTU Bathinda",
      "District": "BATHINDA",
      "State": "PUNJAB",
      "Pincode": "151001",
      "Lat": 30.17343,
      "Lng": 74.92282
    },
    {
      "Name": "Bathinda HO",
      "District": "BATHINDA",
      "State": "PUNJAB",
      "Pincode": "151001",
      "Lat": 30.204677,
      "Lng": 74.949001
    },
    {
      "Name": "Kamla Nehru Colony Bathinda SO",
      "District": "BATHINDA",
      "State": "PUNJAB",
      "Pincode": "151001",
      "Lat": 30.2241,
      "Lng": 74.9592
    }
  ],
  "151002": [
    {
      "Name": "Deon BO",
      "District": "BATHINDA",
      "State": "PUNJAB",
      "Pincode": "151002",
      "Lat": 30.21,
      "Lng": 74.9329
    },
    {
      "Name": "Sevian BO",
      "District": "BATHINDA",
      "State": "PUNJAB",
      "Pincode": "151002",
      "Lat": 30.2607,
      "Lng": 74.8997
    },
    {
      "Name": "Gndtp Bathinda SO",
      "District": "BATHINDA",
      "State": "PUNJAB",
      "Pincode": "151002",
      "Lat": 30.2383,
      "Lng": 74.92646
    }
  ],
  "151003": [
    {
      "Name": "Nfl Bathinda SO",
      "District": "BATHINDA",
      "State": "PUNJAB",
      "Pincode": "151003",
      "Lat": 30.25608,
      "Lng": 74.94534
    }
  ],
  "151004": [
    {
      "Name": "Bathinda Cantt SO",
      "District": "BATHINDA",
      "State": "PUNJAB",
      "Pincode": "151004",
      "Lat": 30.21006,
      "Lng": 74.98192
    }
  ],
  "151005": [
    {
      "Name": "Bir Behman BO",
      "District": "BATHINDA",
      "State": "PUNJAB",
      "Pincode": "151005",
      "Lat": 30.1995,
      "Lng": 74.8639
    },
    {
      "Name": "Multania BO",
      "District": "BATHINDA",
      "State": "PUNJAB",
      "Pincode": "151005",
      "Lat": 30.1795,
      "Lng": 74.8558
    },
    {
      "Name": "Teona BO",
      "District": "BATHINDA",
      "State": "PUNJAB",
      "Pincode": "151005",
      "Lat": 30.1728,
      "Lng": 74.8288
    },
    {
      "Name": "Jassi Pau Wali BO",
      "District": "BATHINDA",
      "State": "PUNJAB",
      "Pincode": "151005",
      "Lat": 30.10875,
      "Lng": 75.091
    },
    {
      "Name": "Jai Singh Wala BO",
      "District": "BATHINDA",
      "State": "PUNJAB",
      "Pincode": "151005",
      "Lat": 30.7281,
      "Lng": 75.0721
    },
    {
      "Name": "Jhumba BO",
      "District": "BATHINDA",
      "State": "PUNJAB",
      "Pincode": "151005",
      "Lat": 30.1581,
      "Lng": 74.7761
    },
    {
      "Name": "Sardargarh BO",
      "District": "BATHINDA",
      "State": "PUNJAB",
      "Pincode": "151005",
      "Lat": 25.2331,
      "Lng": 73.9889
    },
    {
      "Name": "Naruana BO",
      "District": "BATHINDA",
      "State": "PUNJAB",
      "Pincode": "151005",
      "Lat": 30.1638,
      "Lng": 74.896
    },
    {
      "Name": "Bibi Wala BO",
      "District": "BATHINDA",
      "State": "PUNJAB",
      "Pincode": "151005",
      "Lat": 30.2549,
      "Lng": 74.9881
    },
    {
      "Name": "Mehta BO",
      "District": "BATHINDA",
      "State": "PUNJAB",
      "Pincode": "151005",
      "Lat": 31.6659,
      "Lng": 75.2494
    },
    {
      "Name": "Gehri Baghi BO",
      "District": "BATHINDA",
      "State": "PUNJAB",
      "Pincode": "151005",
      "Lat": 30.1149,
      "Lng": 74.9603
    },
    {
      "Name": "Behman Diwana BO",
      "District": "BATHINDA",
      "State": "PUNJAB",
      "Pincode": "151005",
      "Lat": 30.2206,
      "Lng": 74.8522
    },
    {
      "Name": "Balluna BO",
      "District": "BATHINDA",
      "State": "PUNJAB",
      "Pincode": "151005",
      "Lat": 30.2236,
      "Lng": 74.782
    },
    {
      "Name": "Guru Sar Sehne Wala BO",
      "District": "BATHINDA",
      "State": "PUNJAB",
      "Pincode": "151005",
      "Lat": 30.1087,
      "Lng": 75.091
    },
    {
      "Name": "Chughe Kalan BO",
      "District": "BATHINDA",
      "State": "PUNJAB",
      "Pincode": "151005",
      "Lat": 30.1889,
      "Lng": 74.7867
    },
    {
      "Name": "Bathinda City SO",
      "District": "BATHINDA",
      "State": "PUNJAB",
      "Pincode": "151005",
      "Lat": 30.21141,
      "Lng": 74.93367
    },
    {
      "Name": "Railway Colony SO Bathinda",
      "District": "BATHINDA",
      "State": "PUNJAB",
      "Pincode": "151005",
      "Lat": 30.20853,
      "Lng": 74.92731
    }
  ],
  "151006": [
    {
      "Name": "NDC Bathinda",
      "District": "BATHINDA",
      "State": "PUNJAB",
      "Pincode": "151006",
      "Lat": 30.20509,
      "Lng": 74.94862
    }
  ],
  "151007": [
    {
      "Name": "Bhisiana BO",
      "District": "BATHINDA",
      "State": "PUNJAB",
      "Pincode": "151007",
      "Lat": 30.271017535403303,
      "Lng": 74.77338503351805
    },
    {
      "Name": "Virk Kalan BO",
      "District": "BATHINDA",
      "State": "PUNJAB",
      "Pincode": "151007",
      "Lat": 30.25035542889424,
      "Lng": 74.75686819329046
    },
    {
      "Name": "Burj Mehma BO",
      "District": "BATHINDA",
      "State": "PUNJAB",
      "Pincode": "151007",
      "Lat": 30.264510814536603,
      "Lng": 74.79997329158657
    },
    {
      "Name": "Mehma Bhagwana BO",
      "District": "BATHINDA",
      "State": "PUNJAB",
      "Pincode": "151007",
      "Lat": 30.288886678544557,
      "Lng": 74.81557120337054
    },
    {
      "Name": "Virk Khurd BO",
      "District": "BATHINDA",
      "State": "PUNJAB",
      "Pincode": "151007",
      "Lat": 30.241728493266276,
      "Lng": 74.74188336241598
    },
    {
      "Name": "Air Force Station Bhisiana",
      "District": "BATHINDA",
      "State": "PUNJAB",
      "Pincode": "151007",
      "Lat": 30.270952673822404,
      "Lng": 74.77336357397677
    }
  ],
  "151101": [
    {
      "Name": "Bhucho Khurd BO",
      "District": "BATHINDA",
      "State": "PUNJAB",
      "Pincode": "151101",
      "Lat": 30.2132,
      "Lng": 75.0903
    },
    {
      "Name": "Chak Fateh Sngh Wala BO",
      "District": "BATHINDA",
      "State": "PUNJAB",
      "Pincode": "151101",
      "Lat": 30.1832,
      "Lng": 75.0994
    },
    {
      "Name": "Jhanduke BO",
      "District": "BATHINDA",
      "State": "PUNJAB",
      "Pincode": "151101",
      "Lat": 29.7514,
      "Lng": 75.344
    },
    {
      "Name": "Gulab Garh BO",
      "District": "BATHINDA",
      "State": "PUNJAB",
      "Pincode": "151101",
      "Lat": 30.1087,
      "Lng": 75.091
    },
    {
      "Name": "Bhucho Mandi SO",
      "District": "BATHINDA",
      "State": "PUNJAB",
      "Pincode": "151101",
      "Lat": 30.21207,
      "Lng": 75.09721
    },
    {
      "Name": "Sema BO",
      "District": "BATHINDA",
      "State": "PUNJAB",
      "Pincode": "151101",
      "Lat": 30.2199,
      "Lng": 75.0026
    },
    {
      "Name": "Bhucho Kalan BO",
      "District": "BATHINDA",
      "State": "PUNJAB",
      "Pincode": "151101",
      "Lat": 30.2376,
      "Lng": 75.0816
    },
    {
      "Name": "Chak Bakhtu BO",
      "District": "BATHINDA",
      "State": "PUNJAB",
      "Pincode": "151101",
      "Lat": 30.19,
      "Lng": 75.121
    }
  ],
  "151102": [
    {
      "Name": "Nathpura BO",
      "District": "BATHINDA",
      "State": "PUNJAB",
      "Pincode": "151102",
      "Lat": 30.3472,
      "Lng": 75.0918
    },
    {
      "Name": "Bajjoana BO",
      "District": "BATHINDA",
      "State": "PUNJAB",
      "Pincode": "151102",
      "Lat": 30.36,
      "Lng": 75.1232
    },
    {
      "Name": "Dial Pura Mirja BO",
      "District": "BATHINDA",
      "State": "PUNJAB",
      "Pincode": "151102",
      "Lat": 30.3515,
      "Lng": 75.0805
    },
    {
      "Name": "Kalyan Sukha BO",
      "District": "BATHINDA",
      "State": "PUNJAB",
      "Pincode": "151102",
      "Lat": 30.3753,
      "Lng": 75.1151
    },
    {
      "Name": "Poohla BO",
      "District": "BATHINDA",
      "State": "PUNJAB",
      "Pincode": "151102",
      "Lat": 30.2982,
      "Lng": 75.1064
    },
    {
      "Name": "Poohli BO",
      "District": "BATHINDA",
      "State": "PUNJAB",
      "Pincode": "151102",
      "Lat": 30.2947,
      "Lng": 75.0823
    },
    {
      "Name": "Nathana SO",
      "District": "BATHINDA",
      "State": "PUNJAB",
      "Pincode": "151102",
      "Lat": 30.31522,
      "Lng": 75.09151
    },
    {
      "Name": "Govind Pura BO",
      "District": "BATHINDA",
      "State": "PUNJAB",
      "Pincode": "151102",
      "Lat": 30.2792,
      "Lng": 75.0158
    }
  ],
  "151103": [
    {
      "Name": "Ballian Wali BO",
      "District": "BATHINDA",
      "State": "PUNJAB",
      "Pincode": "151103",
      "Lat": 30.2661,
      "Lng": 75.2534
    },
    {
      "Name": "Karar Wala BO",
      "District": "BATHINDA",
      "State": "PUNJAB",
      "Pincode": "151103",
      "Lat": 30.2943,
      "Lng": 75.2931
    },
    {
      "Name": "Rampura Phul SO",
      "District": "BATHINDA",
      "State": "PUNJAB",
      "Pincode": "151103",
      "Lat": 30.26978,
      "Lng": 75.23608
    },
    {
      "Name": "Dikh BO",
      "District": "BATHINDA",
      "State": "PUNJAB",
      "Pincode": "151103",
      "Lat": 30.3181,
      "Lng": 75.2357
    },
    {
      "Name": "Kotra Koreyan Wala BO",
      "District": "BATHINDA",
      "State": "PUNJAB",
      "Pincode": "151103",
      "Lat": 30.2385,
      "Lng": 75.1998
    },
    {
      "Name": "Pitho BO",
      "District": "BATHINDA",
      "State": "PUNJAB",
      "Pincode": "151103",
      "Lat": 30.2498,
      "Lng": 75.2858
    },
    {
      "Name": "Bhunder BO",
      "District": "BATHINDA",
      "State": "PUNJAB",
      "Pincode": "151103",
      "Lat": 30.2086,
      "Lng": 75.2217
    },
    {
      "Name": "Gill Kalan BO",
      "District": "BATHINDA",
      "State": "PUNJAB",
      "Pincode": "151103",
      "Lat": 30.2723,
      "Lng": 75.2727
    },
    {
      "Name": "Jaidan BO",
      "District": "BATHINDA",
      "State": "PUNJAB",
      "Pincode": "151103",
      "Lat": 30.2525,
      "Lng": 75.3091
    },
    {
      "Name": "Dhade BO",
      "District": "BATHINDA",
      "State": "PUNJAB",
      "Pincode": "151103",
      "Lat": 30.1794,
      "Lng": 75.2494
    },
    {
      "Name": "Jethu Ke BO",
      "District": "BATHINDA",
      "State": "PUNJAB",
      "Pincode": "151103",
      "Lat": 30.2892,
      "Lng": 75.3223
    },
    {
      "Name": "Mandi Kalan BO",
      "District": "BATHINDA",
      "State": "PUNJAB",
      "Pincode": "151103",
      "Lat": 30.213,
      "Lng": 75.2552
    },
    {
      "Name": "Ramanvas BO",
      "District": "BATHINDA",
      "State": "PUNJAB",
      "Pincode": "151103",
      "Lat": 30.3181,
      "Lng": 75.2357
    }
  ],
  "151104": [
    {
      "Name": "Alike BO",
      "District": "BATHINDA",
      "State": "PUNJAB",
      "Pincode": "151104",
      "Lat": 30.3383,
      "Lng": 75.3208
    },
    {
      "Name": "Dhapali BO",
      "District": "BATHINDA",
      "State": "PUNJAB",
      "Pincode": "151104",
      "Lat": 30.3181,
      "Lng": 75.2357
    },
    {
      "Name": "Sailbrah BO",
      "District": "BATHINDA",
      "State": "PUNJAB",
      "Pincode": "151104",
      "Lat": 30.3798,
      "Lng": 75.2027
    },
    {
      "Name": "Phul SO",
      "District": "BATHINDA",
      "State": "PUNJAB",
      "Pincode": "151104",
      "Lat": 30.321784,
      "Lng": 75.24012
    },
    {
      "Name": "Raiya BO",
      "District": "BATHINDA",
      "State": "PUNJAB",
      "Pincode": "151104",
      "Lat": 30.3181,
      "Lng": 75.2357
    }
  ],
  "151105": [
    {
      "Name": "Bhaini Kani BO",
      "District": "BATHINDA",
      "State": "PUNJAB",
      "Pincode": "151105",
      "Lat": 30.2661,
      "Lng": 75.2534
    },
    {
      "Name": "Mehraj SO",
      "District": "BATHINDA",
      "State": "PUNJAB",
      "Pincode": "151105",
      "Lat": 30.31511,
      "Lng": 75.19169
    }
  ],
  "151106": [
    {
      "Name": "Gumti Kalan BO",
      "District": "BATHINDA",
      "State": "PUNJAB",
      "Pincode": "151106",
      "Lat": 30.4261,
      "Lng": 75.1648
    },
    {
      "Name": "Ghanda Bana BO",
      "District": "BATHINDA",
      "State": "PUNJAB",
      "Pincode": "151106",
      "Lat": 30.4159,
      "Lng": 75.2726
    },
    {
      "Name": "Bhai Rupa SO",
      "District": "BATHINDA",
      "State": "PUNJAB",
      "Pincode": "151106",
      "Lat": 30.43095,
      "Lng": 75.21968
    }
  ],
  "151108": [
    {
      "Name": "Kaur Singh Wala BO",
      "District": "BATHINDA",
      "State": "PUNJAB",
      "Pincode": "151108",
      "Lat": 30.1491,
      "Lng": 75.185
    },
    {
      "Name": "Ramu Wala Jalalka BO",
      "District": "BATHINDA",
      "State": "PUNJAB",
      "Pincode": "151108",
      "Lat": 30.1491,
      "Lng": 75.185
    },
    {
      "Name": "Aklia Jalal BO",
      "District": "BATHINDA",
      "State": "PUNJAB",
      "Pincode": "151108",
      "Lat": 30.5142,
      "Lng": 75.1604
    },
    {
      "Name": "Dial Pura Bhai Ka BO",
      "District": "BATHINDA",
      "State": "PUNJAB",
      "Pincode": "151108",
      "Lat": 30.1491,
      "Lng": 75.185
    },
    {
      "Name": "Jalal BO",
      "District": "BATHINDA",
      "State": "PUNJAB",
      "Pincode": "151108",
      "Lat": 30.3181,
      "Lng": 75.2357
    },
    {
      "Name": "Hakam Singh Wala BO",
      "District": "BATHINDA",
      "State": "PUNJAB",
      "Pincode": "151108",
      "Lat": 30.5657,
      "Lng": 75.1494
    },
    {
      "Name": "Salabatpura SO",
      "District": "BATHINDA",
      "State": "PUNJAB",
      "Pincode": "151108",
      "Lat": 30.48409,
      "Lng": 75.24306
    }
  ],
  "151111": [
    {
      "Name": "Lehra Bega BO",
      "District": "BATHINDA",
      "State": "PUNJAB",
      "Pincode": "151111",
      "Lat": 30.247,
      "Lng": 75.1633
    },
    {
      "Name": "Ghtp Lehra Mohabbat SO",
      "District": "BATHINDA",
      "State": "PUNJAB",
      "Pincode": "151111",
      "Lat": 30.25126,
      "Lng": 75.1629
    },
    {
      "Name": "Lehra Dhur Kot BO",
      "District": "BATHINDA",
      "State": "PUNJAB",
      "Pincode": "151111",
      "Lat": 30.2592,
      "Lng": 75.202
    },
    {
      "Name": "Lehra Khanna BO",
      "District": "BATHINDA",
      "State": "PUNJAB",
      "Pincode": "151111",
      "Lat": 30.2234,
      "Lng": 75.1414
    }
  ],
  "151201": [
    {
      "Name": "Ganga BO",
      "District": "BATHINDA",
      "State": "PUNJAB",
      "Pincode": "151201",
      "Lat": 30.3527,
      "Lng": 74.8233
    },
    {
      "Name": "Khemuana BO",
      "District": "BATHINDA",
      "State": "PUNJAB",
      "Pincode": "151201",
      "Lat": 30.211,
      "Lng": 74.9454
    },
    {
      "Name": "Akalia Kalan BO",
      "District": "BATHINDA",
      "State": "PUNJAB",
      "Pincode": "151201",
      "Lat": 30.3462,
      "Lng": 74.905
    },
    {
      "Name": "Jeeda BO",
      "District": "BATHINDA",
      "State": "PUNJAB",
      "Pincode": "151201",
      "Lat": 30.3737,
      "Lng": 74.9884
    },
    {
      "Name": "Mehma Sawai BO",
      "District": "BATHINDA",
      "State": "PUNJAB",
      "Pincode": "151201",
      "Lat": 30.3199,
      "Lng": 74.8346
    },
    {
      "Name": "Goniana Mandi SO",
      "District": "BATHINDA",
      "State": "PUNJAB",
      "Pincode": "151201",
      "Lat": 30.31678,
      "Lng": 74.91729
    },
    {
      "Name": "Janda Wala BO",
      "District": "BATHINDA",
      "State": "PUNJAB",
      "Pincode": "151201",
      "Lat": 30.3016,
      "Lng": 74.8206
    },
    {
      "Name": "Ablu BO",
      "District": "BATHINDA",
      "State": "PUNJAB",
      "Pincode": "151201",
      "Lat": 30.3369,
      "Lng": 74.7878
    },
    {
      "Name": "Bhokhra BO",
      "District": "BATHINDA",
      "State": "PUNJAB",
      "Pincode": "151201",
      "Lat": 25.0055,
      "Lng": 83.6707
    },
    {
      "Name": "Harrai Pur BO",
      "District": "BATHINDA",
      "State": "PUNJAB",
      "Pincode": "151201",
      "Lat": 30.3016,
      "Lng": 74.8206
    },
    {
      "Name": "Mehma Sarja BO",
      "District": "BATHINDA",
      "State": "PUNJAB",
      "Pincode": "151201",
      "Lat": 30.3097,
      "Lng": 74.8434
    },
    {
      "Name": "Nehian Wala BO",
      "District": "BATHINDA",
      "State": "PUNJAB",
      "Pincode": "151201",
      "Lat": 30.3063,
      "Lng": 74.9106
    }
  ],
  "151202": [
    {
      "Name": "Chaina BO",
      "District": "FARIDKOT",
      "State": "PUNJAB",
      "Pincode": "151202",
      "Lat": 30.4508351,
      "Lng": 74.8828694
    },
    {
      "Name": "Bishnandi BO",
      "District": "FARIDKOT",
      "State": "PUNJAB",
      "Pincode": "151202",
      "Lat": 30.4508381,
      "Lng": 74.8828664
    },
    {
      "Name": "Jaitu SO",
      "District": "FARIDKOT",
      "State": "PUNJAB",
      "Pincode": "151202",
      "Lat": 30.450196,
      "Lng": 74.888671
    },
    {
      "Name": "Chandbhan BO",
      "District": "FARIDKOT",
      "State": "PUNJAB",
      "Pincode": "151202",
      "Lat": 30.3845849,
      "Lng": 74.8990028
    },
    {
      "Name": "Kasam Bhatti BO",
      "District": "FARIDKOT",
      "State": "PUNJAB",
      "Pincode": "151202",
      "Lat": 30.1203496,
      "Lng": 31.3192978
    },
    {
      "Name": "Gumti Khurd BO",
      "District": "FARIDKOT",
      "State": "PUNJAB",
      "Pincode": "151202",
      "Lat": 30.4570499,
      "Lng": 75.660073
    },
    {
      "Name": "Rorikapura BO",
      "District": "FARIDKOT",
      "State": "PUNJAB",
      "Pincode": "151202",
      "Lat": 30.438556,
      "Lng": 74.8155469
    },
    {
      "Name": "Kotli BO",
      "District": "SRI MUKTSAR SAHIB",
      "State": "PUNJAB",
      "Pincode": "151202",
      "Lat": 30.4508341,
      "Lng": 74.8828704
    },
    {
      "Name": "Madhak BO",
      "District": "FARIDKOT",
      "State": "PUNJAB",
      "Pincode": "151202",
      "Lat": 30.4508351,
      "Lng": 74.8828694
    },
    {
      "Name": "Rameana BO",
      "District": "FARIDKOT",
      "State": "PUNJAB",
      "Pincode": "151202",
      "Lat": 30.43813,
      "Lng": 74.84029
    }
  ],
  "151203": [
    {
      "Name": "Faridkot HO",
      "District": "FARIDKOT",
      "State": "PUNJAB",
      "Pincode": "151203",
      "Lat": 30.683489,
      "Lng": 74.760401
    }
  ],
  "151204": [
    {
      "Name": "Dhilwan Kalan BO",
      "District": "FARIDKOT",
      "State": "PUNJAB",
      "Pincode": "151204",
      "Lat": 30.542,
      "Lng": 74.78335
    },
    {
      "Name": "Sarawan BO",
      "District": "FARIDKOT",
      "State": "PUNJAB",
      "Pincode": "151204",
      "Lat": 30.5251591,
      "Lng": 74.8814136
    },
    {
      "Name": "Romana Albel Singh BO",
      "District": "FARIDKOT",
      "State": "PUNJAB",
      "Pincode": "151204",
      "Lat": 30.54205,
      "Lng": 74.78335
    },
    {
      "Name": "Matta BO",
      "District": "FARIDKOT",
      "State": "PUNJAB",
      "Pincode": "151204",
      "Lat": 30.5804638,
      "Lng": 74.828879
    },
    {
      "Name": "Dhaipai BO",
      "District": "FARIDKOT",
      "State": "PUNJAB",
      "Pincode": "151204",
      "Lat": 30.5076123,
      "Lng": 74.830084
    },
    {
      "Name": "Koharwala BO",
      "District": "FARIDKOT",
      "State": "PUNJAB",
      "Pincode": "151204",
      "Lat": 30.581828,
      "Lng": 74.832055
    },
    {
      "Name": "Hari Nau BO",
      "District": "FARIDKOT",
      "State": "PUNJAB",
      "Pincode": "151204",
      "Lat": 30.54205,
      "Lng": 74.78335
    },
    {
      "Name": "Mour Sohag BO",
      "District": "FARIDKOT",
      "State": "PUNJAB",
      "Pincode": "151204",
      "Lat": 30.54205,
      "Lng": 74.78335
    },
    {
      "Name": "Kotkapura SO",
      "District": "FARIDKOT",
      "State": "PUNJAB",
      "Pincode": "151204",
      "Lat": 30.582859,
      "Lng": 74.8175
    }
  ],
  "151205": [
    {
      "Name": "Romana Ajit Singh BO",
      "District": "FARIDKOT",
      "State": "PUNJAB",
      "Pincode": "151205",
      "Lat": 30.43677,
      "Lng": 74.99656
    },
    {
      "Name": "Seda Singh Wala BO",
      "District": "FARIDKOT",
      "State": "PUNJAB",
      "Pincode": "151205",
      "Lat": 30.43677,
      "Lng": 74.99656
    },
    {
      "Name": "Wara Bhai Ka BO",
      "District": "FARIDKOT",
      "State": "PUNJAB",
      "Pincode": "151205",
      "Lat": 30.43677,
      "Lng": 74.99656
    },
    {
      "Name": "Baja Khana SO",
      "District": "FARIDKOT",
      "State": "PUNJAB",
      "Pincode": "151205",
      "Lat": 30.456607,
      "Lng": 74.982357
    },
    {
      "Name": "Fatehgarh Dabri Khana BO",
      "District": "FARIDKOT",
      "State": "PUNJAB",
      "Pincode": "151205",
      "Lat": 30.43677,
      "Lng": 74.99656
    },
    {
      "Name": "Dod BO",
      "District": "FARIDKOT",
      "State": "PUNJAB",
      "Pincode": "151205",
      "Lat": 30.4508321,
      "Lng": 74.8828724
    }
  ],
  "151206": [
    {
      "Name": "Kotha Guru BO",
      "District": "BATHINDA",
      "State": "PUNJAB",
      "Pincode": "151206",
      "Lat": 30.4433,
      "Lng": 75.0947
    },
    {
      "Name": "Hamirgarh BO",
      "District": "BATHINDA",
      "State": "PUNJAB",
      "Pincode": "151206",
      "Lat": 25.1882,
      "Lng": 74.6269
    },
    {
      "Name": "Siryewala BO",
      "District": "BATHINDA",
      "State": "PUNJAB",
      "Pincode": "151206",
      "Lat": 30.4882,
      "Lng": 75.0451
    },
    {
      "Name": "Maluka BO",
      "District": "BATHINDA",
      "State": "PUNJAB",
      "Pincode": "151206",
      "Lat": 30.4295,
      "Lng": 75.0545
    },
    {
      "Name": "Bhagta Bhai SO",
      "District": "BATHINDA",
      "State": "PUNJAB",
      "Pincode": "151206",
      "Lat": 30.48222,
      "Lng": 75.09502
    }
  ],
  "151207": [
    {
      "Name": "Jiwanwala BO",
      "District": "FARIDKOT",
      "State": "PUNJAB",
      "Pincode": "151207",
      "Lat": 30.64405,
      "Lng": 74.90892
    },
    {
      "Name": "Aulakh BO",
      "District": "FARIDKOT",
      "State": "PUNJAB",
      "Pincode": "151207",
      "Lat": 30.581825,
      "Lng": 74.832058
    },
    {
      "Name": "Kot Sukhia BO",
      "District": "FARIDKOT",
      "State": "PUNJAB",
      "Pincode": "151207",
      "Lat": 30.64405,
      "Lng": 74.90892
    },
    {
      "Name": "Malke BO",
      "District": "MOGA",
      "State": "PUNJAB",
      "Pincode": "151207",
      "Lat": 30.666705,
      "Lng": 74.749995
    },
    {
      "Name": "Panj Grain Kalan SO",
      "District": "FARIDKOT",
      "State": "PUNJAB",
      "Pincode": "151207",
      "Lat": 30.611942,
      "Lng": 74.913572
    },
    {
      "Name": "Bhaloor BO",
      "District": "MOGA",
      "State": "PUNJAB",
      "Pincode": "151207",
      "Lat": 30.666707,
      "Lng": 74.749993
    },
    {
      "Name": "Ghanianwala BO",
      "District": "FARIDKOT",
      "State": "PUNJAB",
      "Pincode": "151207",
      "Lat": 30.4170762,
      "Lng": 75.0326278
    },
    {
      "Name": "PG Khurd BO",
      "District": "MOGA",
      "State": "PUNJAB",
      "Pincode": "151207",
      "Lat": 30.64405,
      "Lng": 74.90892
    },
    {
      "Name": "Sivian BO",
      "District": "FARIDKOT",
      "State": "PUNJAB",
      "Pincode": "151207",
      "Lat": 30.666706,
      "Lng": 74.749994
    }
  ],
  "151208": [
    {
      "Name": "Bambhia Bhai Ka BO",
      "District": "MOGA",
      "State": "PUNJAB",
      "Pincode": "151208",
      "Lat": 30.131256,
      "Lng": 74.7095492
    },
    {
      "Name": "Bargari SO",
      "District": "FARIDKOT",
      "State": "PUNJAB",
      "Pincode": "151208",
      "Lat": 30.519774,
      "Lng": 74.950602
    },
    {
      "Name": "Wandar BO",
      "District": "MOGA",
      "State": "PUNJAB",
      "Pincode": "151208",
      "Lat": 30.52855,
      "Lng": 74.93097
    },
    {
      "Name": "Behbal Khurd BO",
      "District": "FARIDKOT",
      "State": "PUNJAB",
      "Pincode": "151208",
      "Lat": 30.5281791,
      "Lng": 74.9128271
    },
    {
      "Name": "Jhakhar Wala BO",
      "District": "FARIDKOT",
      "State": "PUNJAB",
      "Pincode": "151208",
      "Lat": 30.52855,
      "Lng": 74.93097
    },
    {
      "Name": "Saho Ke BO",
      "District": "MOGA",
      "State": "PUNJAB",
      "Pincode": "151208",
      "Lat": 30.52855,
      "Lng": 74.93097
    }
  ],
  "151209": [
    {
      "Name": "Machaki Mal Singh BO",
      "District": "FARIDKOT",
      "State": "PUNJAB",
      "Pincode": "151209",
      "Lat": 30.6185,
      "Lng": 74.7489
    },
    {
      "Name": "Dhimanwali BO",
      "District": "FARIDKOT",
      "State": "PUNJAB",
      "Pincode": "151209",
      "Lat": 30.581829,
      "Lng": 74.832054
    },
    {
      "Name": "Sikhanwala BO",
      "District": "FARIDKOT",
      "State": "PUNJAB",
      "Pincode": "151209",
      "Lat": 30.6391,
      "Lng": 74.8295
    },
    {
      "Name": "Wander Jatana BO",
      "District": "FARIDKOT",
      "State": "PUNJAB",
      "Pincode": "151209",
      "Lat": 30.6185,
      "Lng": 74.7489
    },
    {
      "Name": "Sandhwan SO",
      "District": "FARIDKOT",
      "State": "PUNJAB",
      "Pincode": "151209",
      "Lat": 30.613204,
      "Lng": 74.800355
    },
    {
      "Name": "Wara Daraka BO",
      "District": "FARIDKOT",
      "State": "PUNJAB",
      "Pincode": "151209",
      "Lat": 30.6185,
      "Lng": 74.7489
    }
  ],
  "151210": [
    {
      "Name": "Mohlan BO",
      "District": "SRI MUKTSAR SAHIB",
      "State": "PUNJAB",
      "Pincode": "151210",
      "Lat": 30.1891829,
      "Lng": 74.505306
    },
    {
      "Name": "Pakki BO",
      "District": "SRI MUKTSAR SAHIB",
      "State": "PUNJAB",
      "Pincode": "151210",
      "Lat": 30.1891819,
      "Lng": 74.505307
    },
    {
      "Name": "Rani Wala BO",
      "District": "SRI MUKTSAR SAHIB",
      "State": "PUNJAB",
      "Pincode": "151210",
      "Lat": 30.2958,
      "Lng": 74.36929
    },
    {
      "Name": "Bodi Wala BO",
      "District": "SRI MUKTSAR SAHIB",
      "State": "PUNJAB",
      "Pincode": "151210",
      "Lat": 30.2958,
      "Lng": 74.36929
    },
    {
      "Name": "Kattianwali BO",
      "District": "SRI MUKTSAR SAHIB",
      "State": "PUNJAB",
      "Pincode": "151210",
      "Lat": 30.2958,
      "Lng": 74.36929
    },
    {
      "Name": "Ratta Khera BO",
      "District": "SRI MUKTSAR SAHIB",
      "State": "PUNJAB",
      "Pincode": "151210",
      "Lat": 30.2958,
      "Lng": 74.36929
    },
    {
      "Name": "Urang BO",
      "District": "SRI MUKTSAR SAHIB",
      "State": "PUNJAB",
      "Pincode": "151210",
      "Lat": 30.1891819,
      "Lng": 74.505307
    },
    {
      "Name": "Karampatti BO",
      "District": "SRI MUKTSAR SAHIB",
      "State": "PUNJAB",
      "Pincode": "151210",
      "Lat": 30.1891869,
      "Lng": 74.505302
    },
    {
      "Name": "Midda BO",
      "District": "SRI MUKTSAR SAHIB",
      "State": "PUNJAB",
      "Pincode": "151210",
      "Lat": 30.2958,
      "Lng": 74.36929
    },
    {
      "Name": "Ratta Tibba BO",
      "District": "SRI MUKTSAR SAHIB",
      "State": "PUNJAB",
      "Pincode": "151210",
      "Lat": 30.2958,
      "Lng": 74.36929
    },
    {
      "Name": "Aspal BO",
      "District": "SRI MUKTSAR SAHIB",
      "State": "PUNJAB",
      "Pincode": "151210",
      "Lat": 30.1891819,
      "Lng": 74.505307
    },
    {
      "Name": "Qabar Wala BO",
      "District": "SRI MUKTSAR SAHIB",
      "State": "PUNJAB",
      "Pincode": "151210",
      "Lat": 30.2958,
      "Lng": 74.36929
    },
    {
      "Name": "Panni Wala Fatta BO",
      "District": "SRI MUKTSAR SAHIB",
      "State": "PUNJAB",
      "Pincode": "151210",
      "Lat": 30.2958,
      "Lng": 74.36929
    },
    {
      "Name": "Sarawan Bodla BO",
      "District": "SRI MUKTSAR SAHIB",
      "State": "PUNJAB",
      "Pincode": "151210",
      "Lat": 30.2958,
      "Lng": 74.36929
    },
    {
      "Name": "Alamwala SO",
      "District": "SRI MUKTSAR SAHIB",
      "State": "PUNJAB",
      "Pincode": "151210",
      "Lat": 30.267319,
      "Lng": 74.419312
    }
  ],
  "151211": [
    {
      "Name": "Haku Wala BO",
      "District": "SRI MUKTSAR SAHIB",
      "State": "PUNJAB",
      "Pincode": "151211",
      "Lat": 30.14212,
      "Lng": 75.18981
    },
    {
      "Name": "Bring Khera BO",
      "District": "SRI MUKTSAR SAHIB",
      "State": "PUNJAB",
      "Pincode": "151211",
      "Lat": 30.14212,
      "Lng": 75.18981
    },
    {
      "Name": "Ghumiara BO",
      "District": "SRI MUKTSAR SAHIB",
      "State": "PUNJAB",
      "Pincode": "151211",
      "Lat": 30.060957,
      "Lng": 74.612823
    },
    {
      "Name": "Killianwali BO",
      "District": "SRI MUKTSAR SAHIB",
      "State": "PUNJAB",
      "Pincode": "151211",
      "Lat": 30.06096,
      "Lng": 74.61282
    },
    {
      "Name": "Lohara BO",
      "District": "SRI MUKTSAR SAHIB",
      "State": "PUNJAB",
      "Pincode": "151211",
      "Lat": 30.060955,
      "Lng": 74.612825
    },
    {
      "Name": "Middu Khera BO",
      "District": "SRI MUKTSAR SAHIB",
      "State": "PUNJAB",
      "Pincode": "151211",
      "Lat": 30.14212,
      "Lng": 75.18981
    },
    {
      "Name": "Mandi Killianwali SO",
      "District": "SRI MUKTSAR SAHIB",
      "State": "PUNJAB",
      "Pincode": "151211",
      "Lat": 29.976171,
      "Lng": 74.696176
    }
  ],
  "151212": [
    {
      "Name": "Bihle Wala BO",
      "District": "FARIDKOT",
      "State": "PUNJAB",
      "Pincode": "151212",
      "Lat": 30.6740961,
      "Lng": 74.600503
    },
    {
      "Name": "Mehmuana BO",
      "District": "FARIDKOT",
      "State": "PUNJAB",
      "Pincode": "151212",
      "Lat": 30.6928851,
      "Lng": 74.6492
    },
    {
      "Name": "Sadiq SO",
      "District": "FARIDKOT",
      "State": "PUNJAB",
      "Pincode": "151212",
      "Lat": 30.708509,
      "Lng": 74.586133
    },
    {
      "Name": "Deep Singh Wala BO",
      "District": "FARIDKOT",
      "State": "PUNJAB",
      "Pincode": "151212",
      "Lat": 30.14212,
      "Lng": 75.18981
    },
    {
      "Name": "Gurudwara Jand Sahib BO",
      "District": "FARIDKOT",
      "State": "PUNJAB",
      "Pincode": "151212",
      "Lat": 30.14212,
      "Lng": 75.18981
    },
    {
      "Name": "Janerian BO",
      "District": "FARIDKOT",
      "State": "PUNJAB",
      "Pincode": "151212",
      "Lat": 30.666707,
      "Lng": 74.749993
    },
    {
      "Name": "Machaki Kalan BO",
      "District": "FARIDKOT",
      "State": "PUNJAB",
      "Pincode": "151212",
      "Lat": 30.14212,
      "Lng": 75.18981
    },
    {
      "Name": "Momara BO",
      "District": "FARIDKOT",
      "State": "PUNJAB",
      "Pincode": "151212",
      "Lat": 30.14212,
      "Lng": 75.18981
    }
  ],
  "151213": [
    {
      "Name": "Kammiana BO",
      "District": "FARIDKOT",
      "State": "PUNJAB",
      "Pincode": "151213",
      "Lat": 30.6455,
      "Lng": 74.7365
    },
    {
      "Name": "Moranwali BO",
      "District": "FARIDKOT",
      "State": "PUNJAB",
      "Pincode": "151213",
      "Lat": 30.666709,
      "Lng": 74.749991
    },
    {
      "Name": "Sukhan Wala BO",
      "District": "FARIDKOT",
      "State": "PUNJAB",
      "Pincode": "151213",
      "Lat": 30.6455,
      "Lng": 74.7365
    },
    {
      "Name": "Dhudhi BO",
      "District": "FARIDKOT",
      "State": "PUNJAB",
      "Pincode": "151213",
      "Lat": 30.7016335,
      "Lng": 74.83244
    },
    {
      "Name": "Harindra Nagar Faridkot SO",
      "District": "FARIDKOT",
      "State": "PUNJAB",
      "Pincode": "151213",
      "Lat": 30.666212,
      "Lng": 74.740482
    },
    {
      "Name": "Quila Nau BO",
      "District": "FARIDKOT",
      "State": "PUNJAB",
      "Pincode": "151213",
      "Lat": 30.6455,
      "Lng": 74.7365
    },
    {
      "Name": "Tehna BO",
      "District": "FARIDKOT",
      "State": "PUNJAB",
      "Pincode": "151213",
      "Lat": 30.666705,
      "Lng": 74.749995
    },
    {
      "Name": "DHURKOT BO",
      "District": "FARIDKOT",
      "State": "PUNJAB",
      "Pincode": "151213",
      "Lat": 30.7220151,
      "Lng": 74.8786052
    },
    {
      "Name": "Chandbaja BO",
      "District": "FARIDKOT",
      "State": "PUNJAB",
      "Pincode": "151213",
      "Lat": 30.7303845,
      "Lng": 74.8761885
    }
  ],
  "151214": [
    {
      "Name": "Bhagthala Kalan BO",
      "District": "FARIDKOT",
      "State": "PUNJAB",
      "Pincode": "151214",
      "Lat": 30.775904,
      "Lng": 74.788609
    },
    {
      "Name": "Ghugiana BO",
      "District": "FARIDKOT",
      "State": "PUNJAB",
      "Pincode": "151214",
      "Lat": 30.744019,
      "Lng": 74.643752
    },
    {
      "Name": "Pakhi Kalan BO",
      "District": "FARIDKOT",
      "State": "PUNJAB",
      "Pincode": "151214",
      "Lat": 30.755057,
      "Lng": 74.759617
    },
    {
      "Name": "Arrayianwala BO",
      "District": "FARIDKOT",
      "State": "PUNJAB",
      "Pincode": "151214",
      "Lat": 30.726045,
      "Lng": 74.702452
    },
    {
      "Name": "Pipli BO",
      "District": "FARIDKOT",
      "State": "PUNJAB",
      "Pincode": "151214",
      "Lat": 30.735362,
      "Lng": 74.731423
    },
    {
      "Name": "Golewala S.O",
      "District": "FARIDKOT",
      "State": "PUNJAB",
      "Pincode": "151214",
      "Lat": 30.790411,
      "Lng": 74.699154
    },
    {
      "Name": "Rajowala BO",
      "District": "FARIDKOT",
      "State": "PUNJAB",
      "Pincode": "151214",
      "Lat": 30.769219,
      "Lng": 74.711669
    },
    {
      "Name": "Sadhanwala B.O",
      "District": "FARIDKOT",
      "State": "PUNJAB",
      "Pincode": "151214",
      "Lat": 30.814291,
      "Lng": 74.638555
    }
  ],
  "151301": [
    {
      "Name": "Bangi Rughu BO",
      "District": "BATHINDA",
      "State": "PUNJAB",
      "Pincode": "151301",
      "Lat": 30.0149,
      "Lng": 74.9253
    },
    {
      "Name": "Bhagwan Garh BO",
      "District": "BATHINDA",
      "State": "PUNJAB",
      "Pincode": "151301",
      "Lat": 30.0662,
      "Lng": 74.9231
    },
    {
      "Name": "Bangi Ruldu BO",
      "District": "BATHINDA",
      "State": "PUNJAB",
      "Pincode": "151301",
      "Lat": 30.0119,
      "Lng": 74.972
    },
    {
      "Name": "Malkana BO",
      "District": "BATHINDA",
      "State": "PUNJAB",
      "Pincode": "151301",
      "Lat": 29.9372,
      "Lng": 75.0334
    },
    {
      "Name": "Raman SO",
      "District": "BATHINDA",
      "State": "PUNJAB",
      "Pincode": "151301",
      "Lat": 29.95933,
      "Lng": 74.96318
    },
    {
      "Name": "Sekhu BO",
      "District": "BATHINDA",
      "State": "PUNJAB",
      "Pincode": "151301",
      "Lat": 29.9866,
      "Lng": 74.8756
    },
    {
      "Name": "Giana BO",
      "District": "BATHINDA",
      "State": "PUNJAB",
      "Pincode": "151301",
      "Lat": 29.8897,
      "Lng": 75.0078
    },
    {
      "Name": "Kot Bakhtu BO",
      "District": "BATHINDA",
      "State": "PUNJAB",
      "Pincode": "151301",
      "Lat": 30.0426,
      "Lng": 74.9691
    },
    {
      "Name": "Laleana BO",
      "District": "BATHINDA",
      "State": "PUNJAB",
      "Pincode": "151301",
      "Lat": 29.9951,
      "Lng": 75.0217
    }
  ],
  "151302": [
    {
      "Name": "Behman Jassa Singh Wala BO",
      "District": "BATHINDA",
      "State": "PUNJAB",
      "Pincode": "151302",
      "Lat": 29.9224,
      "Lng": 75.1137
    },
    {
      "Name": "Kalal Wala BO",
      "District": "BATHINDA",
      "State": "PUNJAB",
      "Pincode": "151302",
      "Lat": 28.8165,
      "Lng": 75.1347
    },
    {
      "Name": "Sekhpura BO",
      "District": "BATHINDA",
      "State": "PUNJAB",
      "Pincode": "151302",
      "Lat": 29.9968,
      "Lng": 75.1589
    },
    {
      "Name": "Singo BO",
      "District": "BATHINDA",
      "State": "PUNJAB",
      "Pincode": "151302",
      "Lat": 29.9092,
      "Lng": 75.1589
    },
    {
      "Name": "Behniwal BO",
      "District": "MANSA",
      "State": "PUNJAB",
      "Pincode": "151302",
      "Lat": 30.9302,
      "Lng": 75.1939
    },
    {
      "Name": "Chehlanwali BO",
      "District": "MANSA",
      "State": "PUNJAB",
      "Pincode": "151302",
      "Lat": 29.9184,
      "Lng": 75.1119
    },
    {
      "Name": "Natheha BO",
      "District": "BATHINDA",
      "State": "PUNJAB",
      "Pincode": "151302",
      "Lat": 29.8423,
      "Lng": 75.1728
    },
    {
      "Name": "Talwandi Sabo SO",
      "District": "BATHINDA",
      "State": "PUNJAB",
      "Pincode": "151302",
      "Lat": 29.98892,
      "Lng": 75.08707
    },
    {
      "Name": "Bhagi Bander BO",
      "District": "BATHINDA",
      "State": "PUNJAB",
      "Pincode": "151302",
      "Lat": 29.9184,
      "Lng": 75.1119
    },
    {
      "Name": "Dhingar BO",
      "District": "MANSA",
      "State": "PUNJAB",
      "Pincode": "151302",
      "Lat": 30.2187,
      "Lng": 74.9633
    },
    {
      "Name": "Jaga Ram Tirath BO",
      "District": "BATHINDA",
      "State": "PUNJAB",
      "Pincode": "151302",
      "Lat": 29.9541,
      "Lng": 75.156
    },
    {
      "Name": "Kaureana BO",
      "District": "BATHINDA",
      "State": "PUNJAB",
      "Pincode": "151302",
      "Lat": 29.8487,
      "Lng": 75.1239
    },
    {
      "Name": "Teona Pujarian BO",
      "District": "BATHINDA",
      "State": "PUNJAB",
      "Pincode": "151302",
      "Lat": 29.9281,
      "Lng": 75.0772
    }
  ],
  "151401": [
    {
      "Name": "Dunne Wala BO",
      "District": "BATHINDA",
      "State": "PUNJAB",
      "Pincode": "151401",
      "Lat": 30.0409,
      "Lng": 74.8251
    },
    {
      "Name": "Ghudda BO",
      "District": "BATHINDA",
      "State": "PUNJAB",
      "Pincode": "151401",
      "Lat": 30.1245,
      "Lng": 74.7893
    },
    {
      "Name": "Kot Guru BO",
      "District": "BATHINDA",
      "State": "PUNJAB",
      "Pincode": "151401",
      "Lat": 30.0409,
      "Lng": 74.8251
    },
    {
      "Name": "Pathrala BO",
      "District": "BATHINDA",
      "State": "PUNJAB",
      "Pincode": "151401",
      "Lat": 30.0003,
      "Lng": 74.7527
    },
    {
      "Name": "Bandi BO",
      "District": "BATHINDA",
      "State": "PUNJAB",
      "Pincode": "151401",
      "Lat": 30.8557,
      "Lng": 74.8419
    },
    {
      "Name": "Gehri Butter BO",
      "District": "BATHINDA",
      "State": "PUNJAB",
      "Pincode": "151401",
      "Lat": 30.0961,
      "Lng": 74.8778
    },
    {
      "Name": "Kishan Pura Kutti BO",
      "District": "BATHINDA",
      "State": "PUNJAB",
      "Pincode": "151401",
      "Lat": 30.0409,
      "Lng": 74.8251
    },
    {
      "Name": "Sangat SO",
      "District": "BATHINDA",
      "State": "PUNJAB",
      "Pincode": "151401",
      "Lat": 30.08959,
      "Lng": 74.83531
    },
    {
      "Name": "Chak Attar Singh Wala BO",
      "District": "BATHINDA",
      "State": "PUNJAB",
      "Pincode": "151401",
      "Lat": 30.0409,
      "Lng": 74.8251
    },
    {
      "Name": "Jangi Rana BO",
      "District": "BATHINDA",
      "State": "PUNJAB",
      "Pincode": "151401",
      "Lat": 30.1508,
      "Lng": 74.7381
    },
    {
      "Name": "Kotli Sabo BO",
      "District": "BATHINDA",
      "State": "PUNJAB",
      "Pincode": "151401",
      "Lat": 30.0409,
      "Lng": 74.8251
    },
    {
      "Name": "Nand Garh BO",
      "District": "BATHINDA",
      "State": "PUNJAB",
      "Pincode": "151401",
      "Lat": 30.0409,
      "Lng": 74.8251
    },
    {
      "Name": "Chak Ruldu Singh Wala BO",
      "District": "BATHINDA",
      "State": "PUNJAB",
      "Pincode": "151401",
      "Lat": 30.0066,
      "Lng": 74.782
    },
    {
      "Name": "Jassi Bag Wali BO",
      "District": "BATHINDA",
      "State": "PUNJAB",
      "Pincode": "151401",
      "Lat": 30.0527,
      "Lng": 74.8142
    },
    {
      "Name": "Pakka Kalan BO",
      "District": "BATHINDA",
      "State": "PUNJAB",
      "Pincode": "151401",
      "Lat": 30.0321,
      "Lng": 74.8551
    },
    {
      "Name": "Rai Ke Kalan BO",
      "District": "BATHINDA",
      "State": "PUNJAB",
      "Pincode": "151401",
      "Lat": 30.0409,
      "Lng": 74.8251
    }
  ],
  "151501": [
    {
      "Name": "Gobindpura BO",
      "District": "MANSA",
      "State": "PUNJAB",
      "Pincode": "151501",
      "Lat": 30.2792,
      "Lng": 75.0158
    },
    {
      "Name": "Kishangarh Saide Singh Wala BO",
      "District": "MANSA",
      "State": "PUNJAB",
      "Pincode": "151501",
      "Lat": 29.9126,
      "Lng": 75.7313
    },
    {
      "Name": "Kulrian BO",
      "District": "MANSA",
      "State": "PUNJAB",
      "Pincode": "151501",
      "Lat": 29.8187,
      "Lng": 75.6837
    },
    {
      "Name": "Bahadurpur BO",
      "District": "MANSA",
      "State": "PUNJAB",
      "Pincode": "151501",
      "Lat": 30.1311,
      "Lng": 74.9865
    },
    {
      "Name": "Bareta SO",
      "District": "MANSA",
      "State": "PUNJAB",
      "Pincode": "151501",
      "Lat": 29.86143,
      "Lng": 75.69106
    },
    {
      "Name": "Dharampura BO",
      "District": "MANSA",
      "State": "PUNJAB",
      "Pincode": "151501",
      "Lat": 29.8279,
      "Lng": 75.6426
    },
    {
      "Name": "Kahangarh BO",
      "District": "MANSA",
      "State": "PUNJAB",
      "Pincode": "151501",
      "Lat": 29.8635,
      "Lng": 75.6964
    },
    {
      "Name": "Ranghrial BO",
      "District": "MANSA",
      "State": "PUNJAB",
      "Pincode": "151501",
      "Lat": 30.1311,
      "Lng": 74.9865
    }
  ],
  "151502": [
    {
      "Name": "Borewal BO",
      "District": "MANSA",
      "State": "PUNJAB",
      "Pincode": "151502",
      "Lat": 29.9916,
      "Lng": 75.4004
    },
    {
      "Name": "Datewas BO",
      "District": "MANSA",
      "State": "PUNJAB",
      "Pincode": "151502",
      "Lat": 29.9074,
      "Lng": 75.6194
    },
    {
      "Name": "Bareh BO",
      "District": "MANSA",
      "State": "PUNJAB",
      "Pincode": "151502",
      "Lat": 29.9237,
      "Lng": 75.5642
    },
    {
      "Name": "Biroke Kalan BO",
      "District": "MANSA",
      "State": "PUNJAB",
      "Pincode": "151502",
      "Lat": 29.9427,
      "Lng": 75.563
    },
    {
      "Name": "Hodla Kalan BO",
      "District": "MANSA",
      "State": "PUNJAB",
      "Pincode": "151502",
      "Lat": 30.0515,
      "Lng": 75.6114
    },
    {
      "Name": "Kishangarh Pharwahi BO",
      "District": "MANSA",
      "State": "PUNJAB",
      "Pincode": "151502",
      "Lat": 29.9427,
      "Lng": 75.563
    },
    {
      "Name": "Kulana BO",
      "District": "MANSA",
      "State": "PUNJAB",
      "Pincode": "151502",
      "Lat": 29.1495,
      "Lng": 75.9071
    },
    {
      "Name": "Budhlada Court Complex",
      "District": "MANSA",
      "State": "PUNJAB",
      "Pincode": "151502",
      "Lat": "NA",
      "Lng": "NA"
    },
    {
      "Name": "Alampur Bodla BO",
      "District": "MANSA",
      "State": "PUNJAB",
      "Pincode": "151502",
      "Lat": 30.0199,
      "Lng": 75.671
    },
    {
      "Name": "Ahmedpur BO",
      "District": "MANSA",
      "State": "PUNJAB",
      "Pincode": "151502",
      "Lat": 29.9325,
      "Lng": 75.5146
    },
    {
      "Name": "Dhalewan BO",
      "District": "MANSA",
      "State": "PUNJAB",
      "Pincode": "151502",
      "Lat": 30.027,
      "Lng": 75.5757
    },
    {
      "Name": "Gurney Kalan BO",
      "District": "MANSA",
      "State": "PUNJAB",
      "Pincode": "151502",
      "Lat": 29.9427,
      "Lng": 75.563
    },
    {
      "Name": "Budhlada SO",
      "District": "MANSA",
      "State": "PUNJAB",
      "Pincode": "151502",
      "Lat": 29.9224,
      "Lng": 75.55036
    },
    {
      "Name": "Bachhuana BO",
      "District": "MANSA",
      "State": "PUNJAB",
      "Pincode": "151502",
      "Lat": 29.9995,
      "Lng": 75.3936
    },
    {
      "Name": "Bappiana BO",
      "District": "MANSA",
      "State": "PUNJAB",
      "Pincode": "151502",
      "Lat": 29.9237,
      "Lng": 75.5642
    },
    {
      "Name": "Dodra BO",
      "District": "MANSA",
      "State": "PUNJAB",
      "Pincode": "151502",
      "Lat": 29.9788,
      "Lng": 75.6252
    },
    {
      "Name": "Phaphre Bhaike BO",
      "District": "MANSA",
      "State": "PUNJAB",
      "Pincode": "151502",
      "Lat": 29.9834,
      "Lng": 75.5036
    }
  ],
  "151503": [
    {
      "Name": "Saidewala BO",
      "District": "MANSA",
      "State": "PUNJAB",
      "Pincode": "151503",
      "Lat": 29.8328,
      "Lng": 75.591
    },
    {
      "Name": "Maghnia BO",
      "District": "MANSA",
      "State": "PUNJAB",
      "Pincode": "151503",
      "Lat": 29.8035,
      "Lng": 75.5823
    },
    {
      "Name": "Tahlian BO",
      "District": "MANSA",
      "State": "PUNJAB",
      "Pincode": "151503",
      "Lat": 29.8741,
      "Lng": 75.4607
    },
    {
      "Name": "Boha SO",
      "District": "MANSA",
      "State": "PUNJAB",
      "Pincode": "151503",
      "Lat": 29.837385,
      "Lng": 75.524166
    },
    {
      "Name": "Alampur Mandra BO",
      "District": "MANSA",
      "State": "PUNJAB",
      "Pincode": "151503",
      "Lat": 29.8226,
      "Lng": 75.448
    },
    {
      "Name": "Dalelwala BO",
      "District": "MANSA",
      "State": "PUNJAB",
      "Pincode": "151503",
      "Lat": 29.8295,
      "Lng": 75.4148
    },
    {
      "Name": "Reond Kalan BO",
      "District": "MANSA",
      "State": "PUNJAB",
      "Pincode": "151503",
      "Lat": 29.7736,
      "Lng": 75.5873
    },
    {
      "Name": "Uddat Saidewala BO",
      "District": "MANSA",
      "State": "PUNJAB",
      "Pincode": "151503",
      "Lat": 29.8214,
      "Lng": 75.4825
    }
  ],
  "151504": [
    {
      "Name": "Hiron Kalan BO",
      "District": "MANSA",
      "State": "PUNJAB",
      "Pincode": "151504",
      "Lat": 30.118,
      "Lng": 75.6292
    },
    {
      "Name": "Samaon BO",
      "District": "MANSA",
      "State": "PUNJAB",
      "Pincode": "151504",
      "Lat": 30.079,
      "Lng": 75.5349
    },
    {
      "Name": "Makha Chelan BO",
      "District": "MANSA",
      "State": "PUNJAB",
      "Pincode": "151504",
      "Lat": 30.06203,
      "Lng": 75.55568
    },
    {
      "Name": "Hamirgarh Dhaipai BO",
      "District": "MANSA",
      "State": "PUNJAB",
      "Pincode": "151504",
      "Lat": 30.06203,
      "Lng": 75.55568
    },
    {
      "Name": "Khiwa Kalan BO",
      "District": "MANSA",
      "State": "PUNJAB",
      "Pincode": "151504",
      "Lat": 30.1055,
      "Lng": 75.5699
    },
    {
      "Name": "Khiwa Khurd BO",
      "District": "MANSA",
      "State": "PUNJAB",
      "Pincode": "151504",
      "Lat": 30.1264,
      "Lng": 75.5735
    },
    {
      "Name": "Atlakalan BO",
      "District": "MANSA",
      "State": "PUNJAB",
      "Pincode": "151504",
      "Lat": 30.1016,
      "Lng": 75.4838
    },
    {
      "Name": "Dalel Singh Wala BO",
      "District": "MANSA",
      "State": "PUNJAB",
      "Pincode": "151504",
      "Lat": 30.0263,
      "Lng": 75.4778
    },
    {
      "Name": "Kotra Kalan BO",
      "District": "MANSA",
      "State": "PUNJAB",
      "Pincode": "151504",
      "Lat": 30.053,
      "Lng": 75.4901
    },
    {
      "Name": "Bhikhi SO",
      "District": "MANSA",
      "State": "PUNJAB",
      "Pincode": "151504",
      "Lat": 30.0654,
      "Lng": 75.53459
    },
    {
      "Name": "Matti BO",
      "District": "MANSA",
      "State": "PUNJAB",
      "Pincode": "151504",
      "Lat": 30.1172,
      "Lng": 75.5233
    }
  ],
  "151505": [
    {
      "Name": "Gehley BO",
      "District": "MANSA",
      "State": "PUNJAB",
      "Pincode": "151505",
      "Lat": 29.96075,
      "Lng": 75.33076
    },
    {
      "Name": "Rai Pur BO",
      "District": "MANSA",
      "State": "PUNJAB",
      "Pincode": "151505",
      "Lat": 29.9057,
      "Lng": 75.2547
    },
    {
      "Name": "Udit Bhagat Ram BO",
      "District": "MANSA",
      "State": "PUNJAB",
      "Pincode": "151505",
      "Lat": 29.9034,
      "Lng": 75.331
    },
    {
      "Name": "Dulo Wal BO",
      "District": "MANSA",
      "State": "PUNJAB",
      "Pincode": "151505",
      "Lat": 29.9607,
      "Lng": 75.3307
    },
    {
      "Name": "Jaurkian BO",
      "District": "MANSA",
      "State": "PUNJAB",
      "Pincode": "151505",
      "Lat": 29.8426,
      "Lng": 75.2071
    },
    {
      "Name": "Narinder Pura BO",
      "District": "MANSA",
      "State": "PUNJAB",
      "Pincode": "151505",
      "Lat": 29.96075,
      "Lng": 75.33076
    },
    {
      "Name": "Distt Couts Mansa SO",
      "District": "MANSA",
      "State": "PUNJAB",
      "Pincode": "151505",
      "Lat": "NA",
      "Lng": "NA"
    },
    {
      "Name": "Khara BO",
      "District": "MANSA",
      "State": "PUNJAB",
      "Pincode": "151505",
      "Lat": 30.5331,
      "Lng": 74.7118
    },
    {
      "Name": "Saharna BO",
      "District": "MANSA",
      "State": "PUNJAB",
      "Pincode": "151505",
      "Lat": 29.8985,
      "Lng": 75.4257
    },
    {
      "Name": "Mansa SO Mansa",
      "District": "MANSA",
      "State": "PUNJAB",
      "Pincode": "151505",
      "Lat": 29.98736,
      "Lng": 75.40363
    },
    {
      "Name": "Akkanwali BO",
      "District": "MANSA",
      "State": "PUNJAB",
      "Pincode": "151505",
      "Lat": 29.983309,
      "Lng": 75.383291
    },
    {
      "Name": "Bajjewala BO",
      "District": "MANSA",
      "State": "PUNJAB",
      "Pincode": "151505",
      "Lat": 29.8912,
      "Lng": 75.3152
    },
    {
      "Name": "Bhamme Kalan BO",
      "District": "MANSA",
      "State": "PUNJAB",
      "Pincode": "151505",
      "Lat": 29.8774,
      "Lng": 75.3514
    },
    {
      "Name": "Kot Dharmu BO",
      "District": "MANSA",
      "State": "PUNJAB",
      "Pincode": "151505",
      "Lat": 29.8951,
      "Lng": 75.3704
    },
    {
      "Name": "Kot Lallu BO",
      "District": "MANSA",
      "State": "PUNJAB",
      "Pincode": "151505",
      "Lat": 29.9948,
      "Lng": 75.452
    },
    {
      "Name": "Nangal Kalan BO",
      "District": "MANSA",
      "State": "PUNJAB",
      "Pincode": "151505",
      "Lat": 29.9216,
      "Lng": 75.3922
    },
    {
      "Name": "Lakhmir Wala BO",
      "District": "MANSA",
      "State": "PUNJAB",
      "Pincode": "151505",
      "Lat": 29.8602,
      "Lng": 75.393
    },
    {
      "Name": "Makha BO",
      "District": "MANSA",
      "State": "PUNJAB",
      "Pincode": "151505",
      "Lat": 29.9365,
      "Lng": 75.2989
    },
    {
      "Name": "Mian BO",
      "District": "MANSA",
      "State": "PUNJAB",
      "Pincode": "151505",
      "Lat": 29.8554,
      "Lng": 75.2384
    }
  ],
  "151506": [
    {
      "Name": "Kusla BO",
      "District": "MANSA",
      "State": "PUNJAB",
      "Pincode": "151506",
      "Lat": 29.7991,
      "Lng": 75.2348
    },
    {
      "Name": "Lallian Wali BO",
      "District": "MANSA",
      "State": "PUNJAB",
      "Pincode": "151506",
      "Lat": 30.14015,
      "Lng": 74.9395
    },
    {
      "Name": "Adamke BO",
      "District": "MANSA",
      "State": "PUNJAB",
      "Pincode": "151506",
      "Lat": 29.7124,
      "Lng": 75.3245
    },
    {
      "Name": "Chenewala BO",
      "District": "MANSA",
      "State": "PUNJAB",
      "Pincode": "151506",
      "Lat": 30.14015,
      "Lng": 74.9395
    },
    {
      "Name": "Fatehpur BO",
      "District": "MANSA",
      "State": "PUNJAB",
      "Pincode": "151506",
      "Lat": 30.14015,
      "Lng": 74.9395
    },
    {
      "Name": "Fatta Maluka BO",
      "District": "MANSA",
      "State": "PUNJAB",
      "Pincode": "151506",
      "Lat": 30.1401,
      "Lng": 74.9395
    },
    {
      "Name": "Hingna BO",
      "District": "MANSA",
      "State": "PUNJAB",
      "Pincode": "151506",
      "Lat": 30.14015,
      "Lng": 74.9395
    },
    {
      "Name": "Jhanduke BO",
      "District": "MANSA",
      "State": "PUNJAB",
      "Pincode": "151506",
      "Lat": 30.1617,
      "Lng": 75.1443
    },
    {
      "Name": "Moffar BO",
      "District": "MANSA",
      "State": "PUNJAB",
      "Pincode": "151506",
      "Lat": 29.7768,
      "Lng": 75.4192
    },
    {
      "Name": "Jatana Kalan BO",
      "District": "MANSA",
      "State": "PUNJAB",
      "Pincode": "151506",
      "Lat": 29.7633,
      "Lng": 75.2453
    },
    {
      "Name": "Jhunir SO",
      "District": "MANSA",
      "State": "PUNJAB",
      "Pincode": "151506",
      "Lat": 29.8027,
      "Lng": 75.34141
    },
    {
      "Name": "Ghuddu Wala BO",
      "District": "MANSA",
      "State": "PUNJAB",
      "Pincode": "151506",
      "Lat": 29.811,
      "Lng": 75.2953
    },
    {
      "Name": "Malkon BO",
      "District": "MANSA",
      "State": "PUNJAB",
      "Pincode": "151506",
      "Lat": 75.4454,
      "Lng": 29.8095
    }
  ],
  "151507": [
    {
      "Name": "Jhanda Khurd BO",
      "District": "MANSA",
      "State": "PUNJAB",
      "Pincode": "151507",
      "Lat": 29.6658,
      "Lng": 75.1823
    },
    {
      "Name": "Sangha BO",
      "District": "MANSA",
      "State": "PUNJAB",
      "Pincode": "151507",
      "Lat": 29.5755,
      "Lng": 75.2661
    },
    {
      "Name": "Jhanda Kalan BO",
      "District": "MANSA",
      "State": "PUNJAB",
      "Pincode": "151507",
      "Lat": 29.6393,
      "Lng": 75.2231
    },
    {
      "Name": "Mankhera BO",
      "District": "MANSA",
      "State": "PUNJAB",
      "Pincode": "151507",
      "Lat": 29.5819,
      "Lng": 75.2355
    },
    {
      "Name": "Mirpur Kalan BO",
      "District": "MANSA",
      "State": "PUNJAB",
      "Pincode": "151507",
      "Lat": 29.7143,
      "Lng": 75.2893
    },
    {
      "Name": "Nahran BO",
      "District": "MANSA",
      "State": "PUNJAB",
      "Pincode": "151507",
      "Lat": 29.6147,
      "Lng": 75.2618
    },
    {
      "Name": "Karandi BO",
      "District": "MANSA",
      "State": "PUNJAB",
      "Pincode": "151507",
      "Lat": 29.6074,
      "Lng": 75.2851
    },
    {
      "Name": "Khaira Kalan BO",
      "District": "MANSA",
      "State": "PUNJAB",
      "Pincode": "151507",
      "Lat": 29.6466,
      "Lng": 75.2691
    },
    {
      "Name": "Sardulgarh SO",
      "District": "MANSA",
      "State": "PUNJAB",
      "Pincode": "151507",
      "Lat": 29.695879,
      "Lng": 75.231837
    },
    {
      "Name": "Ahlupur BO",
      "District": "MANSA",
      "State": "PUNJAB",
      "Pincode": "151507",
      "Lat": 29.9833,
      "Lng": 75.3832
    }
  ],
  "151508": [
    {
      "Name": "Khokhar Kalan BO",
      "District": "MANSA",
      "State": "PUNJAB",
      "Pincode": "151508",
      "Lat": 30.0206,
      "Lng": 75.3427
    },
    {
      "Name": "Tamkot BO",
      "District": "MANSA",
      "State": "PUNJAB",
      "Pincode": "151508",
      "Lat": 30.0646,
      "Lng": 75.4068
    },
    {
      "Name": "Ubha BO",
      "District": "MANSA",
      "State": "PUNJAB",
      "Pincode": "151508",
      "Lat": 30.1073,
      "Lng": 75.3602
    },
    {
      "Name": "Bhaini Bagha SO",
      "District": "MANSA",
      "State": "PUNJAB",
      "Pincode": "151508",
      "Lat": 30.059476,
      "Lng": 75.363371
    },
    {
      "Name": "Khiala Kalan BO",
      "District": "MANSA",
      "State": "PUNJAB",
      "Pincode": "151508",
      "Lat": 31.6688,
      "Lng": 74.7044
    },
    {
      "Name": "Moosa BO",
      "District": "MANSA",
      "State": "PUNJAB",
      "Pincode": "151508",
      "Lat": 29.9784,
      "Lng": 75.3194
    },
    {
      "Name": "Burj Hari BO",
      "District": "MANSA",
      "State": "PUNJAB",
      "Pincode": "151508",
      "Lat": 30.0861,
      "Lng": 75.3475
    }
  ],
  "151509": [
    {
      "Name": "Jodhpur Pakhar BO",
      "District": "BATHINDA",
      "State": "PUNJAB",
      "Pincode": "151509",
      "Lat": 30.0548,
      "Lng": 75.1472
    },
    {
      "Name": "Kutti Wal Kalan BO",
      "District": "BATHINDA",
      "State": "PUNJAB",
      "Pincode": "151509",
      "Lat": 30.0316,
      "Lng": 75.2401
    },
    {
      "Name": "Raj Garh Kubbe BO",
      "District": "BATHINDA",
      "State": "PUNJAB",
      "Pincode": "151509",
      "Lat": 30.0316,
      "Lng": 75.2401
    },
    {
      "Name": "Kamalu Swaitch BO",
      "District": "BATHINDA",
      "State": "PUNJAB",
      "Pincode": "151509",
      "Lat": 30.0316,
      "Lng": 75.2401
    },
    {
      "Name": "Maur Mandi SO",
      "District": "BATHINDA",
      "State": "PUNJAB",
      "Pincode": "151509",
      "Lat": 30.06389,
      "Lng": 75.22777
    },
    {
      "Name": "Gehri Bara Singh BO",
      "District": "BATHINDA",
      "State": "PUNJAB",
      "Pincode": "151509",
      "Lat": 30.1269,
      "Lng": 75.1618
    },
    {
      "Name": "Ram Nagar BO",
      "District": "BATHINDA",
      "State": "PUNJAB",
      "Pincode": "151509",
      "Lat": 30.1491,
      "Lng": 75.185
    },
    {
      "Name": "Burj Sema BO",
      "District": "BATHINDA",
      "State": "PUNJAB",
      "Pincode": "151509",
      "Lat": 30.0316,
      "Lng": 75.2401
    },
    {
      "Name": "Kotli Kalan BO",
      "District": "MANSA",
      "State": "PUNJAB",
      "Pincode": "151509",
      "Lat": 30.03166,
      "Lng": 75.2401
    },
    {
      "Name": "Mai Sar Khana BO",
      "District": "BATHINDA",
      "State": "PUNJAB",
      "Pincode": "151509",
      "Lat": 30.0316,
      "Lng": 75.2401
    },
    {
      "Name": "Ghuman Kalan BO",
      "District": "BATHINDA",
      "State": "PUNJAB",
      "Pincode": "151509",
      "Lat": 30.0814,
      "Lng": 75.2814
    },
    {
      "Name": "Maur Kalan BO",
      "District": "BATHINDA",
      "State": "PUNJAB",
      "Pincode": "151509",
      "Lat": 30.0686,
      "Lng": 75.2435
    },
    {
      "Name": "Peer Kot BO",
      "District": "BATHINDA",
      "State": "PUNJAB",
      "Pincode": "151509",
      "Lat": 30.1372,
      "Lng": 75.3252
    }
  ],
  "151510": [
    {
      "Name": "Joga SO",
      "District": "MANSA",
      "State": "PUNJAB",
      "Pincode": "151510",
      "Lat": 30.16179,
      "Lng": 75.42432
    },
    {
      "Name": "Aklia BO",
      "District": "MANSA",
      "State": "PUNJAB",
      "Pincode": "151510",
      "Lat": 30.14507,
      "Lng": 75.42302
    },
    {
      "Name": "Balloh BO",
      "District": "BATHINDA",
      "State": "PUNJAB",
      "Pincode": "151510",
      "Lat": 30.14507,
      "Lng": 75.42302
    },
    {
      "Name": "Chauke BO",
      "District": "BATHINDA",
      "State": "PUNJAB",
      "Pincode": "151510",
      "Lat": 30.1824,
      "Lng": 75.3383
    },
    {
      "Name": "Ralla BO",
      "District": "MANSA",
      "State": "PUNJAB",
      "Pincode": "151510",
      "Lat": 30.1196,
      "Lng": 75.4333
    }
  ],
  "151511": [
    {
      "Name": "Tung Wali BO",
      "District": "BATHINDA",
      "State": "PUNJAB",
      "Pincode": "151511",
      "Lat": 30.1659,
      "Lng": 75.0465
    },
    {
      "Name": "KOT FATTA SO",
      "District": "BATHINDA",
      "State": "PUNJAB",
      "Pincode": "151511",
      "Lat": 30.122328,
      "Lng": 75.082926
    },
    {
      "Name": "Nasib Pura BO",
      "District": "BATHINDA",
      "State": "PUNJAB",
      "Pincode": "151511",
      "Lat": 30.0766,
      "Lng": 75.0005
    },
    {
      "Name": "Jiwan Singh Wala BO",
      "District": "BATHINDA",
      "State": "PUNJAB",
      "Pincode": "151511",
      "Lat": 30.0582,
      "Lng": 75.0304
    },
    {
      "Name": "Kot Shamir BO",
      "District": "BATHINDA",
      "State": "PUNJAB",
      "Pincode": "151511",
      "Lat": 30.1135,
      "Lng": 75.0085
    },
    {
      "Name": "Rai Khanna BO",
      "District": "BATHINDA",
      "State": "PUNJAB",
      "Pincode": "151511",
      "Lat": 30.2121,
      "Lng": 75.1171
    },
    {
      "Name": "Chethewala BO",
      "District": "BATHINDA",
      "State": "PUNJAB",
      "Pincode": "151511",
      "Lat": 30.0626,
      "Lng": 75.0684
    },
    {
      "Name": "KOT BHARA BO",
      "District": "BATHINDA",
      "State": "PUNJAB",
      "Pincode": "151511",
      "Lat": 30.096362,
      "Lng": 75.068599
    }
  ],
  "152001": [
    {
      "Name": "Sadar Bazar SO Firozpur",
      "District": "FIROZEPUR",
      "State": "PUNJAB",
      "Pincode": "152001",
      "Lat": 30.927546,
      "Lng": 74.610497
    },
    {
      "Name": "Ferozepur HO",
      "District": "FIROZEPUR",
      "State": "PUNJAB",
      "Pincode": "152001",
      "Lat": 30.927546,
      "Lng": 74.610497
    },
    {
      "Name": "Cantt Railway Station Ferozepu SO",
      "District": "FIROZEPUR",
      "State": "PUNJAB",
      "Pincode": "152001",
      "Lat": 30.927546,
      "Lng": 74.610497
    }
  ],
  "152002": [
    {
      "Name": "Jhok Tehal Singh BO",
      "District": "FIROZEPUR",
      "State": "PUNJAB",
      "Pincode": "152002",
      "Lat": 31.00523,
      "Lng": 74.59755
    },
    {
      "Name": "Mahalam BO",
      "District": "FIROZEPUR",
      "State": "PUNJAB",
      "Pincode": "152002",
      "Lat": 31.00523,
      "Lng": 74.59755
    },
    {
      "Name": "Palla Megha BO",
      "District": "FIROZEPUR",
      "State": "PUNJAB",
      "Pincode": "152002",
      "Lat": 31.00523,
      "Lng": 74.59755
    },
    {
      "Name": "Dod RS BO",
      "District": "FIROZEPUR",
      "State": "PUNJAB",
      "Pincode": "152002",
      "Lat": 31.00523,
      "Lng": 74.59755
    },
    {
      "Name": "Chowk Arya Samaj Ferozepur SO",
      "District": "FIROZEPUR",
      "State": "PUNJAB",
      "Pincode": "152002",
      "Lat": 30.927546,
      "Lng": 74.610497
    },
    {
      "Name": "Khushhal Singh Wala",
      "District": "FIROZEPUR",
      "State": "PUNJAB",
      "Pincode": "152002",
      "Lat": 30.965,
      "Lng": 74.6378
    },
    {
      "Name": "Chak Haraj BO",
      "District": "FIROZEPUR",
      "State": "PUNJAB",
      "Pincode": "152002",
      "Lat": 31.00523,
      "Lng": 74.59755
    },
    {
      "Name": "Dulchike BO",
      "District": "FIROZEPUR",
      "State": "PUNJAB",
      "Pincode": "152002",
      "Lat": 31.00523,
      "Lng": 74.59755
    },
    {
      "Name": "Kohar Singh Wala BO",
      "District": "FIROZEPUR",
      "State": "PUNJAB",
      "Pincode": "152002",
      "Lat": 31.00523,
      "Lng": 74.59755
    },
    {
      "Name": "Mehma BO",
      "District": "FIROZEPUR",
      "State": "PUNJAB",
      "Pincode": "152002",
      "Lat": 31.00523,
      "Lng": 74.59755
    },
    {
      "Name": "Ferozepur City SO",
      "District": "FIROZEPUR",
      "State": "PUNJAB",
      "Pincode": "152002",
      "Lat": 30.9331,
      "Lng": 74.6225
    },
    {
      "Name": "Maste Ke BO",
      "District": "FIROZEPUR",
      "State": "PUNJAB",
      "Pincode": "152002",
      "Lat": 31.00523,
      "Lng": 74.59755
    },
    {
      "Name": "Bare Ke BO",
      "District": "FIROZEPUR",
      "State": "PUNJAB",
      "Pincode": "152002",
      "Lat": 31.00523,
      "Lng": 74.59755
    },
    {
      "Name": "Industrial Area Ferozepur city",
      "District": "FIROZEPUR",
      "State": "PUNJAB",
      "Pincode": "152002",
      "Lat": 30.95,
      "Lng": 74.62
    }
  ],
  "152003": [
    {
      "Name": "Dhira Patra BO",
      "District": "FIROZEPUR",
      "State": "PUNJAB",
      "Pincode": "152003",
      "Lat": 30.99155,
      "Lng": 74.6133
    },
    {
      "Name": "Fatttuwala BO",
      "District": "FIROZEPUR",
      "State": "PUNJAB",
      "Pincode": "152003",
      "Lat": 30.99155,
      "Lng": 74.6133
    },
    {
      "Name": "Jhoke Harihar BO",
      "District": "FIROZEPUR",
      "State": "PUNJAB",
      "Pincode": "152003",
      "Lat": 30.99155,
      "Lng": 74.6133
    },
    {
      "Name": "Khai Pheme Ki BO",
      "District": "FIROZEPUR",
      "State": "PUNJAB",
      "Pincode": "152003",
      "Lat": 30.99155,
      "Lng": 74.6133
    },
    {
      "Name": "Canal Colony Ferozepur SO",
      "District": "FIROZEPUR",
      "State": "PUNJAB",
      "Pincode": "152003",
      "Lat": 31.0341,
      "Lng": 74.8482
    }
  ],
  "152004": [
    {
      "Name": "Bazidpur BO",
      "District": "FIROZEPUR",
      "State": "PUNJAB",
      "Pincode": "152004",
      "Lat": 29.97117,
      "Lng": 74.57624
    },
    {
      "Name": "Sayianwala BO",
      "District": "FIROZEPUR",
      "State": "PUNJAB",
      "Pincode": "152004",
      "Lat": 29.97117,
      "Lng": 74.57624
    },
    {
      "Name": "Rukna Begu BO",
      "District": "FIROZEPUR",
      "State": "PUNJAB",
      "Pincode": "152004",
      "Lat": 29.97117,
      "Lng": 74.57624
    },
    {
      "Name": "Saidanwala BO",
      "District": "FIROZEPUR",
      "State": "PUNJAB",
      "Pincode": "152004",
      "Lat": 29.97117,
      "Lng": 74.57624
    },
    {
      "Name": "Dastul Sahib BO",
      "District": "FIROZEPUR",
      "State": "PUNJAB",
      "Pincode": "152004",
      "Lat": 29.97117,
      "Lng": 74.57624
    },
    {
      "Name": "Nurpur Sethan BO",
      "District": "FIROZEPUR",
      "State": "PUNJAB",
      "Pincode": "152004",
      "Lat": 29.97117,
      "Lng": 74.57624
    },
    {
      "Name": "Patel Nagar BO",
      "District": "FIROZEPUR",
      "State": "PUNJAB",
      "Pincode": "152004",
      "Lat": 29.97117,
      "Lng": 74.57624
    },
    {
      "Name": "SBS Engg Colleger Ferozpeur SO",
      "District": "FIROZEPUR",
      "State": "PUNJAB",
      "Pincode": "152004",
      "Lat": 30.927548,
      "Lng": 74.610499
    },
    {
      "Name": "Toot BO",
      "District": "FIROZEPUR",
      "State": "PUNJAB",
      "Pincode": "152004",
      "Lat": 29.97117,
      "Lng": 74.57624
    }
  ],
  "152005": [
    {
      "Name": "Khosa Dal Singh BO",
      "District": "FIROZEPUR",
      "State": "PUNJAB",
      "Pincode": "152005",
      "Lat": 30.7499537,
      "Lng": 75.4126063
    },
    {
      "Name": "Lohgarh Thakran BO",
      "District": "FIROZEPUR",
      "State": "PUNJAB",
      "Pincode": "152005",
      "Lat": 30.918107,
      "Lng": 74.616135
    },
    {
      "Name": "Sodhi Nagar BO",
      "District": "FIROZEPUR",
      "State": "PUNJAB",
      "Pincode": "152005",
      "Lat": 30.7456,
      "Lng": 75.30656
    },
    {
      "Name": "Bharana BO",
      "District": "FIROZEPUR",
      "State": "PUNJAB",
      "Pincode": "152005",
      "Lat": 30.968536,
      "Lng": 74.991058
    },
    {
      "Name": "Chugatte Wala BO",
      "District": "FIROZEPUR",
      "State": "PUNJAB",
      "Pincode": "152005",
      "Lat": 30.82655,
      "Lng": 74.5765
    },
    {
      "Name": "Sandhe Hasham BO",
      "District": "FIROZEPUR",
      "State": "PUNJAB",
      "Pincode": "152005",
      "Lat": 29.97117,
      "Lng": 74.57624
    },
    {
      "Name": "Sherkhan Wala SO",
      "District": "FIROZEPUR",
      "State": "PUNJAB",
      "Pincode": "152005",
      "Lat": 30.927548,
      "Lng": 74.610499
    },
    {
      "Name": "Faridewala BO",
      "District": "FIROZEPUR",
      "State": "PUNJAB",
      "Pincode": "152005",
      "Lat": 29.97117,
      "Lng": 74.57624
    }
  ],
  "152020": [
    {
      "Name": "Behak BO",
      "District": "FAZILKA",
      "State": "PUNJAB",
      "Pincode": "152020",
      "Lat": 30.4,
      "Lng": 74.02
    },
    {
      "Name": "Chak Sotrian BO",
      "District": "FAZILKA",
      "State": "PUNJAB",
      "Pincode": "152020",
      "Lat": 30.37395,
      "Lng": 74.03525
    },
    {
      "Name": "Railway Road Mandi  Ladhuka",
      "District": "FAZILKA",
      "State": "PUNJAB",
      "Pincode": "152020",
      "Lat": 30.927548,
      "Lng": 74.610499
    },
    {
      "Name": "Kirianwali BO",
      "District": "FAZILKA",
      "State": "PUNJAB",
      "Pincode": "152020",
      "Lat": 30.403731,
      "Lng": 74.025533
    },
    {
      "Name": "Ladhuka BO",
      "District": "FAZILKA",
      "State": "PUNJAB",
      "Pincode": "152020",
      "Lat": 30.6874503,
      "Lng": 74.3172297
    },
    {
      "Name": "Ghubaya BO",
      "District": "FAZILKA",
      "State": "PUNJAB",
      "Pincode": "152020",
      "Lat": 30.56734,
      "Lng": 74.24597
    },
    {
      "Name": "Lamochar Kalan BO",
      "District": "FAZILKA",
      "State": "PUNJAB",
      "Pincode": "152020",
      "Lat": 30.6,
      "Lng": 74.25
    },
    {
      "Name": "Mandi Ladhuka BO",
      "District": "FAZILKA",
      "State": "PUNJAB",
      "Pincode": "152020",
      "Lat": 30.37395,
      "Lng": 74.03525
    }
  ],
  "152021": [
    {
      "Name": "Malluwalia Wala BO",
      "District": "FIROZEPUR",
      "State": "PUNJAB",
      "Pincode": "152021",
      "Lat": 30.82655,
      "Lng": 74.5765
    },
    {
      "Name": "Kaluwala",
      "District": "FIROZEPUR",
      "State": "PUNJAB",
      "Pincode": "152021",
      "Lat": "NA",
      "Lng": "NA"
    },
    {
      "Name": "Mallanwala SO",
      "District": "FIROZEPUR",
      "State": "PUNJAB",
      "Pincode": "152021",
      "Lat": 31.052868,
      "Lng": 74.820107
    },
    {
      "Name": "Kamal Wala BO",
      "District": "FIROZEPUR",
      "State": "PUNJAB",
      "Pincode": "152021",
      "Lat": 30.0712258,
      "Lng": 31.2801927
    },
    {
      "Name": "Sudh Singh Wala BO",
      "District": "FIROZEPUR",
      "State": "PUNJAB",
      "Pincode": "152021",
      "Lat": 30.82655,
      "Lng": 74.5765
    },
    {
      "Name": "Arif Ke BO",
      "District": "FIROZEPUR",
      "State": "PUNJAB",
      "Pincode": "152021",
      "Lat": 30.82655,
      "Lng": 74.5765
    },
    {
      "Name": "Rukne Wala BO",
      "District": "FIROZEPUR",
      "State": "PUNJAB",
      "Pincode": "152021",
      "Lat": 30.82655,
      "Lng": 74.5765
    }
  ],
  "152022": [
    {
      "Name": "Sharienwala BO",
      "District": "FIROZEPUR",
      "State": "PUNJAB",
      "Pincode": "152022",
      "Lat": 30.6863,
      "Lng": 74.38541
    },
    {
      "Name": "Chak Mahantan Wala BO",
      "District": "FIROZEPUR",
      "State": "PUNJAB",
      "Pincode": "152022",
      "Lat": 30.6863,
      "Lng": 74.38541
    },
    {
      "Name": "Guddar Dhandi BO",
      "District": "FIROZEPUR",
      "State": "PUNJAB",
      "Pincode": "152022",
      "Lat": 30.6863,
      "Lng": 74.38541
    },
    {
      "Name": "Jandwala BO",
      "District": "FIROZEPUR",
      "State": "PUNJAB",
      "Pincode": "152022",
      "Lat": 30.6413719,
      "Lng": 74.406386
    },
    {
      "Name": "Pindi BO",
      "District": "FIROZEPUR",
      "State": "PUNJAB",
      "Pincode": "152022",
      "Lat": 30.7389566,
      "Lng": 74.3851329
    },
    {
      "Name": "Guruharsahai SO",
      "District": "FIROZEPUR",
      "State": "PUNJAB",
      "Pincode": "152022",
      "Lat": 30.711361,
      "Lng": 74.398543
    },
    {
      "Name": "Sohangarh Thakkran BO",
      "District": "FIROZEPUR",
      "State": "PUNJAB",
      "Pincode": "152022",
      "Lat": 30.6863,
      "Lng": 74.38541
    },
    {
      "Name": "Ahmad Dhandi BO",
      "District": "FIROZEPUR",
      "State": "PUNJAB",
      "Pincode": "152022",
      "Lat": 30.6863,
      "Lng": 74.38541
    },
    {
      "Name": "Chhanga Rai Uttar BO",
      "District": "FIROZEPUR",
      "State": "PUNJAB",
      "Pincode": "152022",
      "Lat": 30.6863,
      "Lng": 74.38541
    },
    {
      "Name": "Jhariwala BO",
      "District": "FIROZEPUR",
      "State": "PUNJAB",
      "Pincode": "152022",
      "Lat": 30.6413719,
      "Lng": 74.4063861
    },
    {
      "Name": "Ranjitgarh BO",
      "District": "FIROZEPUR",
      "State": "PUNJAB",
      "Pincode": "152022",
      "Lat": 30.614647,
      "Lng": 74.4400957
    }
  ],
  "152023": [
    {
      "Name": "Mamdot SO",
      "District": "FIROZEPUR",
      "State": "PUNJAB",
      "Pincode": "152023",
      "Lat": 30.8705,
      "Lng": 74.4189
    },
    {
      "Name": "Chhanga Khurd BO",
      "District": "FIROZEPUR",
      "State": "PUNJAB",
      "Pincode": "152023",
      "Lat": 30.84315,
      "Lng": 74.39662
    },
    {
      "Name": "Hazara Singh Wala BO",
      "District": "FIROZEPUR",
      "State": "PUNJAB",
      "Pincode": "152023",
      "Lat": 30.84315,
      "Lng": 74.39662
    },
    {
      "Name": "Karma BO",
      "District": "FIROZEPUR",
      "State": "PUNJAB",
      "Pincode": "152023",
      "Lat": 30.918105,
      "Lng": 74.616137
    },
    {
      "Name": "Khunder Uttar BO",
      "District": "FIROZEPUR",
      "State": "PUNJAB",
      "Pincode": "152023",
      "Lat": 30.8285864,
      "Lng": 74.3994182
    },
    {
      "Name": "Tibbi Khurd BO",
      "District": "FIROZEPUR",
      "State": "PUNJAB",
      "Pincode": "152023",
      "Lat": 30.84315,
      "Lng": 74.39662
    },
    {
      "Name": "Lakho Ke Behram BO",
      "District": "FIROZEPUR",
      "State": "PUNJAB",
      "Pincode": "152023",
      "Lat": 30.84315,
      "Lng": 74.39662
    }
  ],
  "152024": [
    {
      "Name": "Bahamni Wala BO",
      "District": "FAZILKA",
      "State": "PUNJAB",
      "Pincode": "152024",
      "Lat": 30.56734,
      "Lng": 74.24597
    },
    {
      "Name": "Bsf Campus Chak Araian BO",
      "District": "FAZILKA",
      "State": "PUNJAB",
      "Pincode": "152024",
      "Lat": 30.56734,
      "Lng": 74.24597
    },
    {
      "Name": "Chak Saidoke BO",
      "District": "FAZILKA",
      "State": "PUNJAB",
      "Pincode": "152024",
      "Lat": 30.56734,
      "Lng": 74.24597
    },
    {
      "Name": "Pakka Kale Wala BO",
      "District": "FAZILKA",
      "State": "PUNJAB",
      "Pincode": "152024",
      "Lat": 30.56734,
      "Lng": 74.24597
    },
    {
      "Name": "Jalalabad W SO",
      "District": "FAZILKA",
      "State": "PUNJAB",
      "Pincode": "152024",
      "Lat": 30.60389,
      "Lng": 74.258403
    },
    {
      "Name": "Bagge Ke Uttar BO",
      "District": "FAZILKA",
      "State": "PUNJAB",
      "Pincode": "152024",
      "Lat": 30.56734,
      "Lng": 74.24597
    },
    {
      "Name": "Nau Baramad Sher Singhwala",
      "District": "FAZILKA",
      "State": "PUNJAB",
      "Pincode": "152024",
      "Lat": "NA",
      "Lng": "NA"
    },
    {
      "Name": "Jalalabad T SO",
      "District": "FAZILKA",
      "State": "PUNJAB",
      "Pincode": "152024",
      "Lat": 30.927546,
      "Lng": 74.610497
    },
    {
      "Name": "Dhandi Qadim BO",
      "District": "FAZILKA",
      "State": "PUNJAB",
      "Pincode": "152024",
      "Lat": 30.627276,
      "Lng": 74.201057
    },
    {
      "Name": "Amir Khas BO",
      "District": "FAZILKA",
      "State": "PUNJAB",
      "Pincode": "152024",
      "Lat": 30.56734,
      "Lng": 74.24597
    },
    {
      "Name": "Panje Ke Uttar BO",
      "District": "FAZILKA",
      "State": "PUNJAB",
      "Pincode": "152024",
      "Lat": 30.56734,
      "Lng": 74.24597
    },
    {
      "Name": "Balalke Kamalwala",
      "District": "FAZILKA",
      "State": "PUNJAB",
      "Pincode": "152024",
      "Lat": "NA",
      "Lng": "NA"
    },
    {
      "Name": "Chak Gulam Rasool Wala BO",
      "District": "FAZILKA",
      "State": "PUNJAB",
      "Pincode": "152024",
      "Lat": 30.56734,
      "Lng": 74.24597
    },
    {
      "Name": "Jiwan Araian BO",
      "District": "FAZILKA",
      "State": "PUNJAB",
      "Pincode": "152024",
      "Lat": 30.56734,
      "Lng": 74.24597
    },
    {
      "Name": "Ladhuwala Uttar BO",
      "District": "FAZILKA",
      "State": "PUNJAB",
      "Pincode": "152024",
      "Lat": 30.56734,
      "Lng": 74.24597
    }
  ],
  "152025": [
    {
      "Name": "Khokhar BO",
      "District": "SRI MUKTSAR SAHIB",
      "State": "PUNJAB",
      "Pincode": "152025",
      "Lat": 30.468446,
      "Lng": 74.517472
    },
    {
      "Name": "Jandoke BO",
      "District": "FARIDKOT",
      "State": "PUNJAB",
      "Pincode": "152025",
      "Lat": "NA",
      "Lng": "NA"
    },
    {
      "Name": "Assa Buttar BO",
      "District": "SRI MUKTSAR SAHIB",
      "State": "PUNJAB",
      "Pincode": "152025",
      "Lat": 30.47753,
      "Lng": 74.73175
    },
    {
      "Name": "Hari Ke Kalan BO",
      "District": "SRI MUKTSAR SAHIB",
      "State": "PUNJAB",
      "Pincode": "152025",
      "Lat": 30.47753,
      "Lng": 74.73175
    },
    {
      "Name": "Bhutti Wala BO",
      "District": "SRI MUKTSAR SAHIB",
      "State": "PUNJAB",
      "Pincode": "152025",
      "Lat": 30.47753,
      "Lng": 74.73175
    },
    {
      "Name": "Khara BO",
      "District": "FARIDKOT",
      "State": "PUNJAB",
      "Pincode": "152025",
      "Lat": 30.483574,
      "Lng": 74.5075664
    },
    {
      "Name": "Bariwala SO",
      "District": "SRI MUKTSAR SAHIB",
      "State": "PUNJAB",
      "Pincode": "152025",
      "Lat": 30.538932,
      "Lng": 74.653217
    },
    {
      "Name": "Sarai Naga BO",
      "District": "SRI MUKTSAR SAHIB",
      "State": "PUNJAB",
      "Pincode": "152025",
      "Lat": 30.47753,
      "Lng": 74.73175
    },
    {
      "Name": "Sure Wala BO",
      "District": "SRI MUKTSAR SAHIB",
      "State": "PUNJAB",
      "Pincode": "152025",
      "Lat": 30.47753,
      "Lng": 74.73175
    }
  ],
  "152026": [
    {
      "Name": "Jhabel Wali BO",
      "District": "SRI MUKTSAR SAHIB",
      "State": "PUNJAB",
      "Pincode": "152026",
      "Lat": 30.5141221,
      "Lng": 74.6005024
    },
    {
      "Name": "Madrassa BO",
      "District": "SRI MUKTSAR SAHIB",
      "State": "PUNJAB",
      "Pincode": "152026",
      "Lat": 30.5431,
      "Lng": 74.45196
    },
    {
      "Name": "Mangatker BO",
      "District": "SRI MUKTSAR SAHIB",
      "State": "PUNJAB",
      "Pincode": "152026",
      "Lat": 30.468448,
      "Lng": 74.51747
    },
    {
      "Name": "Rahurianwali BO",
      "District": "SRI MUKTSAR SAHIB",
      "State": "PUNJAB",
      "Pincode": "152026",
      "Lat": 30.5431,
      "Lng": 74.45196
    },
    {
      "Name": "Sammewali BO",
      "District": "SRI MUKTSAR SAHIB",
      "State": "PUNJAB",
      "Pincode": "152026",
      "Lat": 30.468448,
      "Lng": 74.51747
    },
    {
      "Name": "Ballamgarh BO",
      "District": "SRI MUKTSAR SAHIB",
      "State": "PUNJAB",
      "Pincode": "152026",
      "Lat": 30.471323,
      "Lng": 74.501843
    },
    {
      "Name": "Goniana Village BO",
      "District": "SRI MUKTSAR SAHIB",
      "State": "PUNJAB",
      "Pincode": "152026",
      "Lat": 30.3199126,
      "Lng": 74.9179393
    },
    {
      "Name": "Seerwali BO",
      "District": "SRI MUKTSAR SAHIB",
      "State": "PUNJAB",
      "Pincode": "152026",
      "Lat": 30.666708,
      "Lng": 74.749992
    },
    {
      "Name": "Udekaran BO",
      "District": "SRI MUKTSAR SAHIB",
      "State": "PUNJAB",
      "Pincode": "152026",
      "Lat": 30.4952966,
      "Lng": 74.5492496
    },
    {
      "Name": "Badhai BO",
      "District": "SRI MUKTSAR SAHIB",
      "State": "PUNJAB",
      "Pincode": "152026",
      "Lat": 30.5431,
      "Lng": 74.45196
    },
    {
      "Name": "Bhagsar BO",
      "District": "SRI MUKTSAR SAHIB",
      "State": "PUNJAB",
      "Pincode": "152026",
      "Lat": 30.4698497,
      "Lng": 74.5063628
    },
    {
      "Name": "Lakhewali BO",
      "District": "SRI MUKTSAR SAHIB",
      "State": "PUNJAB",
      "Pincode": "152026",
      "Lat": 30.468448,
      "Lng": 74.51747
    },
    {
      "Name": "Lubanianwali BO",
      "District": "SRI MUKTSAR SAHIB",
      "State": "PUNJAB",
      "Pincode": "152026",
      "Lat": 30.5431,
      "Lng": 74.45196
    },
    {
      "Name": "Nandgarh BO",
      "District": "SRI MUKTSAR SAHIB",
      "State": "PUNJAB",
      "Pincode": "152026",
      "Lat": 30.5431,
      "Lng": 74.45196
    },
    {
      "Name": "Sanghu dhon BO",
      "District": "SRI MUKTSAR SAHIB",
      "State": "PUNJAB",
      "Pincode": "152026",
      "Lat": 30.5431,
      "Lng": 74.45196
    },
    {
      "Name": "Thandewala BO",
      "District": "SRI MUKTSAR SAHIB",
      "State": "PUNJAB",
      "Pincode": "152026",
      "Lat": 30.468449,
      "Lng": 74.517469
    },
    {
      "Name": "Sri Muktsar Sahib MDG",
      "District": "SRI MUKTSAR SAHIB",
      "State": "PUNJAB",
      "Pincode": "152026",
      "Lat": 30.473617,
      "Lng": 74.529899
    },
    {
      "Name": "Akalgarh BO",
      "District": "SRI MUKTSAR SAHIB",
      "State": "PUNJAB",
      "Pincode": "152026",
      "Lat": 30.468447,
      "Lng": 74.517471
    },
    {
      "Name": "Kanianwali BO",
      "District": "SRI MUKTSAR SAHIB",
      "State": "PUNJAB",
      "Pincode": "152026",
      "Lat": 30.66671,
      "Lng": 74.74999
    },
    {
      "Name": "Gulabewala B.O",
      "District": "SRI MUKTSAR SAHIB",
      "State": "PUNJAB",
      "Pincode": "152026",
      "Lat": 30.561555,
      "Lng": 74.477766
    },
    {
      "Name": "Muktsar Kty SO",
      "District": "SRI MUKTSAR SAHIB",
      "State": "PUNJAB",
      "Pincode": "152026",
      "Lat": 30.467966,
      "Lng": 74.501546
    }
  ],
  "152028": [
    {
      "Name": "Khosa Randhir BO",
      "District": "MOGA",
      "State": "PUNJAB",
      "Pincode": "152028",
      "Lat": 30.893749,
      "Lng": 75.126809
    },
    {
      "Name": "Sanehar BO",
      "District": "FIROZEPUR",
      "State": "PUNJAB",
      "Pincode": "152028",
      "Lat": 30.968536,
      "Lng": 74.991058
    },
    {
      "Name": "Manawan SO",
      "District": "MOGA",
      "State": "PUNJAB",
      "Pincode": "152028",
      "Lat": 30.922104,
      "Lng": 75.07537
    },
    {
      "Name": "Balkhandi BO",
      "District": "FIROZEPUR",
      "State": "PUNJAB",
      "Pincode": "152028",
      "Lat": 30.903195,
      "Lng": 75.083558
    },
    {
      "Name": "Chuhar Chak Khurd BO",
      "District": "MOGA",
      "State": "PUNJAB",
      "Pincode": "152028",
      "Lat": 31.896945,
      "Lng": 75.255189
    },
    {
      "Name": "Jhanda Bagga Purana BO",
      "District": "FIROZEPUR",
      "State": "PUNJAB",
      "Pincode": "152028",
      "Lat": 30.50978,
      "Lng": 74.3699
    },
    {
      "Name": "Mansoor Deva BO",
      "District": "FIROZEPUR",
      "State": "PUNJAB",
      "Pincode": "152028",
      "Lat": 30.50978,
      "Lng": 74.3699
    },
    {
      "Name": "Awan BO",
      "District": "FIROZEPUR",
      "State": "PUNJAB",
      "Pincode": "152028",
      "Lat": 30.79,
      "Lng": 74.37
    },
    {
      "Name": "Jhatre BO",
      "District": "FIROZEPUR",
      "State": "PUNJAB",
      "Pincode": "152028",
      "Lat": 30.968535,
      "Lng": 74.991059
    },
    {
      "Name": "Longodeva BO",
      "District": "MOGA",
      "State": "PUNJAB",
      "Pincode": "152028",
      "Lat": 30.968538,
      "Lng": 74.991056
    },
    {
      "Name": "Sukhewala BO",
      "District": "FIROZEPUR",
      "State": "PUNJAB",
      "Pincode": "152028",
      "Lat": 30.954632,
      "Lng": 75.024606
    },
    {
      "Name": "Talwandi Jallekhan BO",
      "District": "FIROZEPUR",
      "State": "PUNJAB",
      "Pincode": "152028",
      "Lat": 30.9098929,
      "Lng": 74.1386587
    }
  ],
  "152031": [
    {
      "Name": "Kauni BO",
      "District": "SRI MUKTSAR SAHIB",
      "State": "PUNJAB",
      "Pincode": "152031",
      "Lat": 30.4097688,
      "Lng": 74.6788337
    },
    {
      "Name": "Sukhana Ablu BO",
      "District": "SRI MUKTSAR SAHIB",
      "State": "PUNJAB",
      "Pincode": "152031",
      "Lat": 30.6416597,
      "Lng": 75.648436
    },
    {
      "Name": "Butter Sharing BO",
      "District": "SRI MUKTSAR SAHIB",
      "State": "PUNJAB",
      "Pincode": "152031",
      "Lat": 30.65836,
      "Lng": 74.63284
    },
    {
      "Name": "Gurhi Sangar BO",
      "District": "SRI MUKTSAR SAHIB",
      "State": "PUNJAB",
      "Pincode": "152031",
      "Lat": 30.65836,
      "Lng": 74.63284
    },
    {
      "Name": "Bhullar BO",
      "District": "SRI MUKTSAR SAHIB",
      "State": "PUNJAB",
      "Pincode": "152031",
      "Lat": 30.4806863,
      "Lng": 74.5262868
    },
    {
      "Name": "Doda SO Muktsar",
      "District": "SRI MUKTSAR SAHIB",
      "State": "PUNJAB",
      "Pincode": "152031",
      "Lat": 30.383673,
      "Lng": 74.638183
    },
    {
      "Name": "Mallan BO",
      "District": "SRI MUKTSAR SAHIB",
      "State": "PUNJAB",
      "Pincode": "152031",
      "Lat": 30.4053713,
      "Lng": 74.7328223
    },
    {
      "Name": "Chhattiana BO",
      "District": "SRI MUKTSAR SAHIB",
      "State": "PUNJAB",
      "Pincode": "152031",
      "Lat": 30.3305771,
      "Lng": 74.668028
    }
  ],
  "152032": [
    {
      "Name": "Bam BO",
      "District": "SRI MUKTSAR SAHIB",
      "State": "PUNJAB",
      "Pincode": "152032",
      "Lat": 30.3558497,
      "Lng": 74.3396085
    },
    {
      "Name": "Chak Gilze Wala BO",
      "District": "SRI MUKTSAR SAHIB",
      "State": "PUNJAB",
      "Pincode": "152032",
      "Lat": 30.36775,
      "Lng": 74.46007
    },
    {
      "Name": "Dhigana BO",
      "District": "SRI MUKTSAR SAHIB",
      "State": "PUNJAB",
      "Pincode": "152032",
      "Lat": 30.3868074,
      "Lng": 74.4871528
    },
    {
      "Name": "Sotha BO",
      "District": "SRI MUKTSAR SAHIB",
      "State": "PUNJAB",
      "Pincode": "152032",
      "Lat": 30.4718283,
      "Lng": 74.5122871
    },
    {
      "Name": "Bhangchari BO",
      "District": "SRI MUKTSAR SAHIB",
      "State": "PUNJAB",
      "Pincode": "152032",
      "Lat": 30.36775,
      "Lng": 74.46007
    },
    {
      "Name": "Chak Duhe Wala BO",
      "District": "SRI MUKTSAR SAHIB",
      "State": "PUNJAB",
      "Pincode": "152032",
      "Lat": 30.36775,
      "Lng": 74.46007
    },
    {
      "Name": "Rupana SO",
      "District": "SRI MUKTSAR SAHIB",
      "State": "PUNJAB",
      "Pincode": "152032",
      "Lat": 30.409839,
      "Lng": 74.522129
    },
    {
      "Name": "Tamkot BO",
      "District": "SRI MUKTSAR SAHIB",
      "State": "PUNJAB",
      "Pincode": "152032",
      "Lat": 30.468445,
      "Lng": 74.517473
    },
    {
      "Name": "Chak Shere Wala BO",
      "District": "SRI MUKTSAR SAHIB",
      "State": "PUNJAB",
      "Pincode": "152032",
      "Lat": 30.36775,
      "Lng": 74.46007
    },
    {
      "Name": "Mahbadhar BO",
      "District": "SRI MUKTSAR SAHIB",
      "State": "PUNJAB",
      "Pincode": "152032",
      "Lat": 30.36775,
      "Lng": 74.46007
    }
  ],
  "152033": [
    {
      "Name": "Ratta Khera BO",
      "District": "FAZILKA",
      "State": "PUNJAB",
      "Pincode": "152033",
      "Lat": 30.97996,
      "Lng": 74.6816
    },
    {
      "Name": "Chak Janisar BO",
      "District": "FAZILKA",
      "State": "PUNJAB",
      "Pincode": "152033",
      "Lat": 30.97996,
      "Lng": 74.6816
    },
    {
      "Name": "Khuranj BO",
      "District": "FAZILKA",
      "State": "PUNJAB",
      "Pincode": "152033",
      "Lat": 30.4598942,
      "Lng": 74.2876132
    },
    {
      "Name": "Chak Badhoke BO",
      "District": "FAZILKA",
      "State": "PUNJAB",
      "Pincode": "152033",
      "Lat": 30.97996,
      "Lng": 74.6816
    },
    {
      "Name": "Chak Kherewala BO",
      "District": "FAZILKA",
      "State": "PUNJAB",
      "Pincode": "152033",
      "Lat": 30.97996,
      "Lng": 74.6816
    },
    {
      "Name": "Nukerian BO",
      "District": "FAZILKA",
      "State": "PUNJAB",
      "Pincode": "152033",
      "Lat": 30.97996,
      "Lng": 74.6816
    },
    {
      "Name": "Mandi Amin Ganj SO",
      "District": "FAZILKA",
      "State": "PUNJAB",
      "Pincode": "152033",
      "Lat": 30.445801,
      "Lng": 74.255157
    }
  ],
  "152101": [
    {
      "Name": "Channu BO",
      "District": "SRI MUKTSAR SAHIB",
      "State": "PUNJAB",
      "Pincode": "152101",
      "Lat": 30.0944111,
      "Lng": 74.6076333
    },
    {
      "Name": "Madhir BO",
      "District": "SRI MUKTSAR SAHIB",
      "State": "PUNJAB",
      "Pincode": "152101",
      "Lat": 30.28235,
      "Lng": 74.6746
    },
    {
      "Name": "Husner",
      "District": "SRI MUKTSAR SAHIB",
      "State": "PUNJAB",
      "Pincode": "152101",
      "Lat": 30.2141989,
      "Lng": 74.6497972
    },
    {
      "Name": "Peori BO",
      "District": "SRI MUKTSAR SAHIB",
      "State": "PUNJAB",
      "Pincode": "152101",
      "Lat": 30.28235,
      "Lng": 74.6746
    },
    {
      "Name": "Daula BO",
      "District": "SRI MUKTSAR SAHIB",
      "State": "PUNJAB",
      "Pincode": "152101",
      "Lat": 30.19844,
      "Lng": 74.65903
    },
    {
      "Name": "Lalbai BO",
      "District": "SRI MUKTSAR SAHIB",
      "State": "PUNJAB",
      "Pincode": "152101",
      "Lat": 30.198441,
      "Lng": 74.659029
    },
    {
      "Name": "Tharaj Wala BO",
      "District": "SRI MUKTSAR SAHIB",
      "State": "PUNJAB",
      "Pincode": "152101",
      "Lat": 30.5455969,
      "Lng": 75.103443
    },
    {
      "Name": "Sahib Chand BO",
      "District": "SRI MUKTSAR SAHIB",
      "State": "PUNJAB",
      "Pincode": "152101",
      "Lat": 30.28235,
      "Lng": 74.6746
    },
    {
      "Name": "Gidderbaha SO",
      "District": "SRI MUKTSAR SAHIB",
      "State": "PUNJAB",
      "Pincode": "152101",
      "Lat": 30.213582,
      "Lng": 74.650927
    },
    {
      "Name": "Bhaliana BO",
      "District": "SRI MUKTSAR SAHIB",
      "State": "PUNJAB",
      "Pincode": "152101",
      "Lat": 30.198443,
      "Lng": 74.659027
    },
    {
      "Name": "Ghagga BO",
      "District": "SRI MUKTSAR SAHIB",
      "State": "PUNJAB",
      "Pincode": "152101",
      "Lat": 30.198441,
      "Lng": 74.659029
    },
    {
      "Name": "Kot Bhai BO",
      "District": "SRI MUKTSAR SAHIB",
      "State": "PUNJAB",
      "Pincode": "152101",
      "Lat": 30.28235,
      "Lng": 74.6746
    }
  ],
  "152107": [
    {
      "Name": "Malout Village BO",
      "District": "SRI MUKTSAR SAHIB",
      "State": "PUNJAB",
      "Pincode": "152107",
      "Lat": 30.1891909,
      "Lng": 74.505298
    },
    {
      "Name": "Malout SO",
      "District": "SRI MUKTSAR SAHIB",
      "State": "PUNJAB",
      "Pincode": "152107",
      "Lat": 30.187676,
      "Lng": 74.502276
    },
    {
      "Name": "Dabwali Rahurianwali BO",
      "District": "SRI MUKTSAR SAHIB",
      "State": "PUNJAB",
      "Pincode": "152107",
      "Lat": 30.23285,
      "Lng": 74.45763
    },
    {
      "Name": "Bhagwanpura BO",
      "District": "SRI MUKTSAR SAHIB",
      "State": "PUNJAB",
      "Pincode": "152107",
      "Lat": 30.23285,
      "Lng": 74.45763
    },
    {
      "Name": "Ghumiara Khera BO",
      "District": "SRI MUKTSAR SAHIB",
      "State": "PUNJAB",
      "Pincode": "152107",
      "Lat": 30.23285,
      "Lng": 74.45763
    },
    {
      "Name": "Burj Sidhwan BO",
      "District": "SRI MUKTSAR SAHIB",
      "State": "PUNJAB",
      "Pincode": "152107",
      "Lat": 30.23285,
      "Lng": 74.45763
    },
    {
      "Name": "Chappianwali BO",
      "District": "SRI MUKTSAR SAHIB",
      "State": "PUNJAB",
      "Pincode": "152107",
      "Lat": 30.1891849,
      "Lng": 74.505304
    },
    {
      "Name": "Faqarsar BO",
      "District": "SRI MUKTSAR SAHIB",
      "State": "PUNJAB",
      "Pincode": "152107",
      "Lat": 30.1891849,
      "Lng": 74.505304
    },
    {
      "Name": "Jand Wala Chadat Singh BO",
      "District": "SRI MUKTSAR SAHIB",
      "State": "PUNJAB",
      "Pincode": "152107",
      "Lat": 30.23285,
      "Lng": 74.45763
    },
    {
      "Name": "Virk Khera BO",
      "District": "SRI MUKTSAR SAHIB",
      "State": "PUNJAB",
      "Pincode": "152107",
      "Lat": 30.8642113,
      "Lng": 75.5524057
    }
  ],
  "152112": [
    {
      "Name": "Khunan Kalan BO",
      "District": "SRI MUKTSAR SAHIB",
      "State": "PUNJAB",
      "Pincode": "152112",
      "Lat": 30.4853,
      "Lng": 74.08622
    },
    {
      "Name": "Khane Ki Dhab BO",
      "District": "SRI MUKTSAR SAHIB",
      "State": "PUNJAB",
      "Pincode": "152112",
      "Lat": 30.4853,
      "Lng": 74.08622
    },
    {
      "Name": "Lakkarwala BO",
      "District": "SRI MUKTSAR SAHIB",
      "State": "PUNJAB",
      "Pincode": "152112",
      "Lat": 30.1891869,
      "Lng": 74.505302
    },
    {
      "Name": "Tarkhanwala BO",
      "District": "SRI MUKTSAR SAHIB",
      "State": "PUNJAB",
      "Pincode": "152112",
      "Lat": 30.4853,
      "Lng": 74.08622
    },
    {
      "Name": "Badian BO",
      "District": "SRI MUKTSAR SAHIB",
      "State": "PUNJAB",
      "Pincode": "152112",
      "Lat": 30.1891829,
      "Lng": 74.505306
    },
    {
      "Name": "Bhunder BO",
      "District": "SRI MUKTSAR SAHIB",
      "State": "PUNJAB",
      "Pincode": "152112",
      "Lat": 30.189183,
      "Lng": 74.505305
    },
    {
      "Name": "Gurusar BO",
      "District": "SRI MUKTSAR SAHIB",
      "State": "PUNJAB",
      "Pincode": "152112",
      "Lat": 30.1891839,
      "Lng": 74.505305
    },
    {
      "Name": "Kuraiwala BO",
      "District": "SRI MUKTSAR SAHIB",
      "State": "PUNJAB",
      "Pincode": "152112",
      "Lat": 30.1891859,
      "Lng": 74.505303
    },
    {
      "Name": "Bhullerian BO",
      "District": "SRI MUKTSAR SAHIB",
      "State": "PUNJAB",
      "Pincode": "152112",
      "Lat": 30.1891869,
      "Lng": 74.505302
    },
    {
      "Name": "Ena Khera BO",
      "District": "SRI MUKTSAR SAHIB",
      "State": "PUNJAB",
      "Pincode": "152112",
      "Lat": 30.4853,
      "Lng": 74.08622
    },
    {
      "Name": "Jhurar BO",
      "District": "SRI MUKTSAR SAHIB",
      "State": "PUNJAB",
      "Pincode": "152112",
      "Lat": 30.259178,
      "Lng": 74.4626867
    },
    {
      "Name": "Malwala Katorewala BO",
      "District": "SRI MUKTSAR SAHIB",
      "State": "PUNJAB",
      "Pincode": "152112",
      "Lat": 30.4853,
      "Lng": 74.08622
    },
    {
      "Name": "Ram Nagar SO Muktsar",
      "District": "SRI MUKTSAR SAHIB",
      "State": "PUNJAB",
      "Pincode": "152112",
      "Lat": 30.297023,
      "Lng": 74.500883
    }
  ],
  "152113": [
    {
      "Name": "Bhitti Wala BO",
      "District": "SRI MUKTSAR SAHIB",
      "State": "PUNJAB",
      "Pincode": "152113",
      "Lat": 30.0665,
      "Lng": 74.61906
    },
    {
      "Name": "Fatuhi Khera BO",
      "District": "SRI MUKTSAR SAHIB",
      "State": "PUNJAB",
      "Pincode": "152113",
      "Lat": 30.0579247,
      "Lng": 73.8610071
    },
    {
      "Name": "Roran Wali BO",
      "District": "SRI MUKTSAR SAHIB",
      "State": "PUNJAB",
      "Pincode": "152113",
      "Lat": 30.0665,
      "Lng": 74.61906
    },
    {
      "Name": "Mehna BO",
      "District": "SRI MUKTSAR SAHIB",
      "State": "PUNJAB",
      "Pincode": "152113",
      "Lat": 30.060954,
      "Lng": 74.612826
    },
    {
      "Name": "Khuddian Gulab Singh BO",
      "District": "SRI MUKTSAR SAHIB",
      "State": "PUNJAB",
      "Pincode": "152113",
      "Lat": 30.0665,
      "Lng": 74.61906
    },
    {
      "Name": "Mann BO",
      "District": "SRI MUKTSAR SAHIB",
      "State": "PUNJAB",
      "Pincode": "152113",
      "Lat": 30.0820903,
      "Lng": 74.6435447
    },
    {
      "Name": "Panjawa BO",
      "District": "SRI MUKTSAR SAHIB",
      "State": "PUNJAB",
      "Pincode": "152113",
      "Lat": 30.060956,
      "Lng": 74.612824
    },
    {
      "Name": "Sikh Wala BO",
      "District": "SRI MUKTSAR SAHIB",
      "State": "PUNJAB",
      "Pincode": "152113",
      "Lat": 30.0665,
      "Lng": 74.61906
    },
    {
      "Name": "Badal BO",
      "District": "SRI MUKTSAR SAHIB",
      "State": "PUNJAB",
      "Pincode": "152113",
      "Lat": 30.0889272,
      "Lng": 74.6515554
    },
    {
      "Name": "Banwala BO",
      "District": "SRI MUKTSAR SAHIB",
      "State": "PUNJAB",
      "Pincode": "152113",
      "Lat": 30.0665,
      "Lng": 74.61906
    },
    {
      "Name": "Singhewala BO",
      "District": "SRI MUKTSAR SAHIB",
      "State": "PUNJAB",
      "Pincode": "152113",
      "Lat": 30.060959,
      "Lng": 74.612821
    },
    {
      "Name": "Kandu Khera BO",
      "District": "SRI MUKTSAR SAHIB",
      "State": "PUNJAB",
      "Pincode": "152113",
      "Lat": 30.0665,
      "Lng": 74.61906
    },
    {
      "Name": "Lambi SO",
      "District": "SRI MUKTSAR SAHIB",
      "State": "PUNJAB",
      "Pincode": "152113",
      "Lat": 30.057694,
      "Lng": 74.609863
    }
  ],
  "152114": [
    {
      "Name": "Mahuana BO",
      "District": "SRI MUKTSAR SAHIB",
      "State": "PUNJAB",
      "Pincode": "152114",
      "Lat": 30.060956,
      "Lng": 74.612824
    },
    {
      "Name": "Abul Khurana BO",
      "District": "SRI MUKTSAR SAHIB",
      "State": "PUNJAB",
      "Pincode": "152114",
      "Lat": 30.2980666,
      "Lng": 75.3688779
    },
    {
      "Name": "Deon Khera BO",
      "District": "SRI MUKTSAR SAHIB",
      "State": "PUNJAB",
      "Pincode": "152114",
      "Lat": 30.2674936,
      "Lng": 74.8433926
    },
    {
      "Name": "Phullu Khera BO",
      "District": "SRI MUKTSAR SAHIB",
      "State": "PUNJAB",
      "Pincode": "152114",
      "Lat": 30.0665,
      "Lng": 74.47692
    },
    {
      "Name": "Adhnian BO",
      "District": "SRI MUKTSAR SAHIB",
      "State": "PUNJAB",
      "Pincode": "152114",
      "Lat": 30.060956,
      "Lng": 74.612824
    },
    {
      "Name": "Dhaula Kingra BO",
      "District": "SRI MUKTSAR SAHIB",
      "State": "PUNJAB",
      "Pincode": "152114",
      "Lat": 30.0665,
      "Lng": 74.47692
    },
    {
      "Name": "Fatehpur Minian BO",
      "District": "SRI MUKTSAR SAHIB",
      "State": "PUNJAB",
      "Pincode": "152114",
      "Lat": 30.0665,
      "Lng": 74.47692
    },
    {
      "Name": "Sehna Khera BO",
      "District": "SRI MUKTSAR SAHIB",
      "State": "PUNJAB",
      "Pincode": "152114",
      "Lat": 30.0665,
      "Lng": 74.47692
    },
    {
      "Name": "Tappa Khera SO",
      "District": "SRI MUKTSAR SAHIB",
      "State": "PUNJAB",
      "Pincode": "152114",
      "Lat": 30.103903,
      "Lng": 74.532102
    },
    {
      "Name": "Kuttianwali BO",
      "District": "SRI MUKTSAR SAHIB",
      "State": "PUNJAB",
      "Pincode": "152114",
      "Lat": 30.0665,
      "Lng": 74.47692
    },
    {
      "Name": "Ratherian BO",
      "District": "SRI MUKTSAR SAHIB",
      "State": "PUNJAB",
      "Pincode": "152114",
      "Lat": 30.060958,
      "Lng": 74.612822
    }
  ],
  "152115": [
    {
      "Name": "Dabwali Dhab BO",
      "District": "SRI MUKTSAR SAHIB",
      "State": "PUNJAB",
      "Pincode": "152115",
      "Lat": 30.7444,
      "Lng": 74.67895
    },
    {
      "Name": "Mahni Kherea BO",
      "District": "SRI MUKTSAR SAHIB",
      "State": "PUNJAB",
      "Pincode": "152115",
      "Lat": 30.7444,
      "Lng": 74.67895
    },
    {
      "Name": "Sham Khera BO",
      "District": "SRI MUKTSAR SAHIB",
      "State": "PUNJAB",
      "Pincode": "152115",
      "Lat": 30.7444,
      "Lng": 74.67895
    },
    {
      "Name": "Tarmala BO",
      "District": "SRI MUKTSAR SAHIB",
      "State": "PUNJAB",
      "Pincode": "152115",
      "Lat": 30.060956,
      "Lng": 74.612824
    },
    {
      "Name": "Gurusar Jodhe Ka BO",
      "District": "SRI MUKTSAR SAHIB",
      "State": "PUNJAB",
      "Pincode": "152115",
      "Lat": 30.7444,
      "Lng": 74.67895
    },
    {
      "Name": "Khema Khera BO",
      "District": "SRI MUKTSAR SAHIB",
      "State": "PUNJAB",
      "Pincode": "152115",
      "Lat": 30.7444,
      "Lng": 74.67895
    },
    {
      "Name": "Bhaika Khera SO",
      "District": "SRI MUKTSAR SAHIB",
      "State": "PUNJAB",
      "Pincode": "152115",
      "Lat": 30.075778,
      "Lng": 74.415911
    }
  ],
  "152116": [
    {
      "Name": "Burj Mohar BO",
      "District": "FAZILKA",
      "State": "PUNJAB",
      "Pincode": "152116",
      "Lat": 30.19,
      "Lng": 74.19
    },
    {
      "Name": "Wahabwala BO",
      "District": "FAZILKA",
      "State": "PUNJAB",
      "Pincode": "152116",
      "Lat": 30.15515,
      "Lng": 74.2034
    },
    {
      "Name": "Abohar SO",
      "District": "FAZILKA",
      "State": "PUNJAB",
      "Pincode": "152116",
      "Lat": 30.144428,
      "Lng": 74.199623
    },
    {
      "Name": "Jhurar Khera BO",
      "District": "FAZILKA",
      "State": "PUNJAB",
      "Pincode": "152116",
      "Lat": 30.01,
      "Lng": 74.13
    },
    {
      "Name": "Waryam Khera BO",
      "District": "FAZILKA",
      "State": "PUNJAB",
      "Pincode": "152116",
      "Lat": 30.9633257,
      "Lng": 72.2548723
    },
    {
      "Name": "Abohar Mandi SO",
      "District": "FAZILKA",
      "State": "PUNJAB",
      "Pincode": "152116",
      "Lat": 30.137712,
      "Lng": 74.202531
    },
    {
      "Name": "Krishna Nagari Abohar SO",
      "District": "FAZILKA",
      "State": "PUNJAB",
      "Pincode": "152116",
      "Lat": 30.927546,
      "Lng": 74.610497
    },
    {
      "Name": "Nai Abadi Abohar SO",
      "District": "FAZILKA",
      "State": "PUNJAB",
      "Pincode": "152116",
      "Lat": 30.927546,
      "Lng": 74.610497
    },
    {
      "Name": "New Grain Market Abohar SO",
      "District": "FAZILKA",
      "State": "PUNJAB",
      "Pincode": "152116",
      "Lat": 30.927546,
      "Lng": 74.610497
    },
    {
      "Name": "Bhagoo BO",
      "District": "FAZILKA",
      "State": "PUNJAB",
      "Pincode": "152116",
      "Lat": 30.03,
      "Lng": 74.23
    },
    {
      "Name": "Kandwala Amarkot BO",
      "District": "FAZILKA",
      "State": "PUNJAB",
      "Pincode": "152116",
      "Lat": 30.06,
      "Lng": 74.16
    },
    {
      "Name": "Rajanwali BO",
      "District": "FAZILKA",
      "State": "PUNJAB",
      "Pincode": "152116",
      "Lat": 30.07,
      "Lng": 74.26
    },
    {
      "Name": "Ramsara BO",
      "District": "FAZILKA",
      "State": "PUNJAB",
      "Pincode": "152116",
      "Lat": 30.9265596,
      "Lng": 74.6135171
    },
    {
      "Name": "Rukanpura BO",
      "District": "FAZILKA",
      "State": "PUNJAB",
      "Pincode": "152116",
      "Lat": 30.9265616,
      "Lng": 74.6135151
    },
    {
      "Name": "Alamgarh BO",
      "District": "FAZILKA",
      "State": "PUNJAB",
      "Pincode": "152116",
      "Lat": 30.12,
      "Lng": 74.16
    },
    {
      "Name": "Govt Seed Form BO",
      "District": "FAZILKA",
      "State": "PUNJAB",
      "Pincode": "152116",
      "Lat": 30.14,
      "Lng": 74.2
    },
    {
      "Name": "Kikar Khera BO",
      "District": "FAZILKA",
      "State": "PUNJAB",
      "Pincode": "152116",
      "Lat": 30.08,
      "Lng": 74.17
    },
    {
      "Name": "Patti Sadiq BO",
      "District": "FAZILKA",
      "State": "PUNJAB",
      "Pincode": "152116",
      "Lat": 29.99,
      "Lng": 74.11
    }
  ],
  "152117": [
    {
      "Name": "Chanan Khera BO",
      "District": "FAZILKA",
      "State": "PUNJAB",
      "Pincode": "152117",
      "Lat": 30.1576,
      "Lng": 74.33157
    },
    {
      "Name": "Jodhpur BO",
      "District": "FAZILKA",
      "State": "PUNJAB",
      "Pincode": "152117",
      "Lat": 30.9265596,
      "Lng": 74.6135171
    },
    {
      "Name": "Kundal BO",
      "District": "FAZILKA",
      "State": "PUNJAB",
      "Pincode": "152117",
      "Lat": 30.215825,
      "Lng": 74.2687424
    },
    {
      "Name": "Bahawal Bassi BO",
      "District": "FAZILKA",
      "State": "PUNJAB",
      "Pincode": "152117",
      "Lat": 30.1576,
      "Lng": 74.33157
    },
    {
      "Name": "Bhungal BO",
      "District": "FAZILKA",
      "State": "PUNJAB",
      "Pincode": "152117",
      "Lat": 30.9265596,
      "Lng": 74.6135171
    },
    {
      "Name": "Dhab Kokerian BO",
      "District": "FAZILKA",
      "State": "PUNJAB",
      "Pincode": "152117",
      "Lat": 30.1576,
      "Lng": 74.33157
    },
    {
      "Name": "Gaddan Dob BO",
      "District": "FAZILKA",
      "State": "PUNJAB",
      "Pincode": "152117",
      "Lat": 30.1576,
      "Lng": 74.33157
    },
    {
      "Name": "Gobindgarh BO",
      "District": "FAZILKA",
      "State": "PUNJAB",
      "Pincode": "152117",
      "Lat": 30.9265626,
      "Lng": 74.6135141
    },
    {
      "Name": "Ramgarh BO",
      "District": "FAZILKA",
      "State": "PUNJAB",
      "Pincode": "152117",
      "Lat": 30.9265596,
      "Lng": 74.6135171
    },
    {
      "Name": "Balluana SO",
      "District": "FAZILKA",
      "State": "PUNJAB",
      "Pincode": "152117",
      "Lat": 30.173793,
      "Lng": 74.314744
    },
    {
      "Name": "Bahadur Khera BO",
      "District": "FAZILKA",
      "State": "PUNJAB",
      "Pincode": "152117",
      "Lat": 30.1576,
      "Lng": 74.33157
    },
    {
      "Name": "Kera Khera BO",
      "District": "FAZILKA",
      "State": "PUNJAB",
      "Pincode": "152117",
      "Lat": 30.1576,
      "Lng": 74.33157
    },
    {
      "Name": "Mallukpur BO",
      "District": "FAZILKA",
      "State": "PUNJAB",
      "Pincode": "152117",
      "Lat": 30.9265616,
      "Lng": 74.6135151
    }
  ],
  "152118": [
    {
      "Name": "Khuban BO",
      "District": "FAZILKA",
      "State": "PUNJAB",
      "Pincode": "152118",
      "Lat": 30.9265586,
      "Lng": 74.6135181
    },
    {
      "Name": "Sardarpura BO",
      "District": "FAZILKA",
      "State": "PUNJAB",
      "Pincode": "152118",
      "Lat": 30.15515,
      "Lng": 74.2034
    },
    {
      "Name": "Himatpura BO",
      "District": "FAZILKA",
      "State": "PUNJAB",
      "Pincode": "152118",
      "Lat": 30.9265616,
      "Lng": 74.6135151
    },
    {
      "Name": "Sherewala BO",
      "District": "FAZILKA",
      "State": "PUNJAB",
      "Pincode": "152118",
      "Lat": 30.15515,
      "Lng": 74.2034
    },
    {
      "Name": "Dodewala BO",
      "District": "FAZILKA",
      "State": "PUNJAB",
      "Pincode": "152118",
      "Lat": 30.9265606,
      "Lng": 74.6135161
    },
    {
      "Name": "Bazidpur Bhooma BO",
      "District": "FAZILKA",
      "State": "PUNJAB",
      "Pincode": "152118",
      "Lat": 30.15515,
      "Lng": 74.2034
    },
    {
      "Name": "Dutaran Wala BO",
      "District": "FAZILKA",
      "State": "PUNJAB",
      "Pincode": "152118",
      "Lat": 30.15515,
      "Lng": 74.2034
    },
    {
      "Name": "Khairpur BO",
      "District": "FAZILKA",
      "State": "PUNJAB",
      "Pincode": "152118",
      "Lat": 30.15515,
      "Lng": 74.2034
    },
    {
      "Name": "Rampura BO",
      "District": "FAZILKA",
      "State": "PUNJAB",
      "Pincode": "152118",
      "Lat": 30.9265596,
      "Lng": 74.6135171
    },
    {
      "Name": "Sitto Gunno BO",
      "District": "FAZILKA",
      "State": "PUNJAB",
      "Pincode": "152118",
      "Lat": 30.15515,
      "Lng": 74.2034
    },
    {
      "Name": "Mehrana BO",
      "District": "FAZILKA",
      "State": "PUNJAB",
      "Pincode": "152118",
      "Lat": 30.9265596,
      "Lng": 74.6135171
    },
    {
      "Name": "Raipura BO",
      "District": "FAZILKA",
      "State": "PUNJAB",
      "Pincode": "152118",
      "Lat": 30.9265596,
      "Lng": 74.6135171
    },
    {
      "Name": "Kular BO",
      "District": "FAZILKA",
      "State": "PUNJAB",
      "Pincode": "152118",
      "Lat": 30.9265576,
      "Lng": 74.6135191
    },
    {
      "Name": "Rajpura BO",
      "District": "FAZILKA",
      "State": "PUNJAB",
      "Pincode": "152118",
      "Lat": 30.9265596,
      "Lng": 74.6135171
    },
    {
      "Name": "Sitto SO",
      "District": "FAZILKA",
      "State": "PUNJAB",
      "Pincode": "152118",
      "Lat": 30.927546,
      "Lng": 74.610497
    }
  ],
  "152121": [
    {
      "Name": "Mamu Khera BO",
      "District": "FAZILKA",
      "State": "PUNJAB",
      "Pincode": "152121",
      "Lat": 30.32155,
      "Lng": 74.05224
    },
    {
      "Name": "Kabul Shah Khuban BO",
      "District": "FAZILKA",
      "State": "PUNJAB",
      "Pincode": "152121",
      "Lat": 30.3,
      "Lng": 74.09
    },
    {
      "Name": "Azamwala BO",
      "District": "FAZILKA",
      "State": "PUNJAB",
      "Pincode": "152121",
      "Lat": 30.6874513,
      "Lng": 74.3172287
    },
    {
      "Name": "Khui Khera SO",
      "District": "FAZILKA",
      "State": "PUNJAB",
      "Pincode": "152121",
      "Lat": 30.302635,
      "Lng": 74.095551
    },
    {
      "Name": "Katehra BO",
      "District": "FAZILKA",
      "State": "PUNJAB",
      "Pincode": "152121",
      "Lat": 30.403728,
      "Lng": 74.025536
    },
    {
      "Name": "Kheowali Dhab BO",
      "District": "FAZILKA",
      "State": "PUNJAB",
      "Pincode": "152121",
      "Lat": 30.32155,
      "Lng": 74.05224
    },
    {
      "Name": "Shajrana BO",
      "District": "FAZILKA",
      "State": "PUNJAB",
      "Pincode": "152121",
      "Lat": 30.403729,
      "Lng": 74.025535
    },
    {
      "Name": "Kamal Wala BO",
      "District": "FAZILKA",
      "State": "PUNJAB",
      "Pincode": "152121",
      "Lat": 30.0712258,
      "Lng": 31.2801927
    },
    {
      "Name": "Khippanwali BO",
      "District": "FAZILKA",
      "State": "PUNJAB",
      "Pincode": "152121",
      "Lat": 30.403732,
      "Lng": 74.025532
    },
    {
      "Name": "Shatirwala BO",
      "District": "FAZILKA",
      "State": "PUNJAB",
      "Pincode": "152121",
      "Lat": 30.32155,
      "Lng": 74.05224
    }
  ],
  "152122": [
    {
      "Name": "Bazidpur Kattianwali BO",
      "District": "FAZILKA",
      "State": "PUNJAB",
      "Pincode": "152122",
      "Lat": 30.2451,
      "Lng": 74.12985
    },
    {
      "Name": "Jhummianwali BO",
      "District": "FAZILKA",
      "State": "PUNJAB",
      "Pincode": "152122",
      "Lat": 30.403733,
      "Lng": 74.025531
    },
    {
      "Name": "Roharian Wali BO",
      "District": "FAZILKA",
      "State": "PUNJAB",
      "Pincode": "152122",
      "Lat": 30.2451,
      "Lng": 74.12985
    },
    {
      "Name": "Danger Khera BO",
      "District": "FAZILKA",
      "State": "PUNJAB",
      "Pincode": "152122",
      "Lat": 30.2451,
      "Lng": 74.12985
    },
    {
      "Name": "Ghallu BO",
      "District": "FAZILKA",
      "State": "PUNJAB",
      "Pincode": "152122",
      "Lat": 30.403727,
      "Lng": 74.025537
    },
    {
      "Name": "Kohrianwali BO",
      "District": "FAZILKA",
      "State": "PUNJAB",
      "Pincode": "152122",
      "Lat": 30.2451,
      "Lng": 74.12985
    },
    {
      "Name": "Dharangwala BO",
      "District": "FAZILKA",
      "State": "PUNJAB",
      "Pincode": "152122",
      "Lat": 30.2241258,
      "Lng": 74.2512325
    },
    {
      "Name": "Churiwala Dhanna BO",
      "District": "FAZILKA",
      "State": "PUNJAB",
      "Pincode": "152122",
      "Lat": 30.2039719,
      "Lng": 74.1104938
    },
    {
      "Name": "Muradwala Dal Singh BO",
      "District": "FAZILKA",
      "State": "PUNJAB",
      "Pincode": "152122",
      "Lat": 30.2666216,
      "Lng": 74.2516604
    },
    {
      "Name": "Nihal Khera SO",
      "District": "FAZILKA",
      "State": "PUNJAB",
      "Pincode": "152122",
      "Lat": 30.927548,
      "Lng": 74.610499
    }
  ],
  "152123": [
    {
      "Name": "Hasta Kalan BO",
      "District": "FAZILKA",
      "State": "PUNJAB",
      "Pincode": "152123",
      "Lat": 30.37395,
      "Lng": 74.03525
    },
    {
      "Name": "Mauzam BO",
      "District": "FAZILKA",
      "State": "PUNJAB",
      "Pincode": "152123",
      "Lat": 30.403727,
      "Lng": 74.025537
    },
    {
      "Name": "Rana BO",
      "District": "FAZILKA",
      "State": "PUNJAB",
      "Pincode": "152123",
      "Lat": 30.403725,
      "Lng": 74.025539
    },
    {
      "Name": "Muhar Khiwa",
      "District": "FAZILKA",
      "State": "PUNJAB",
      "Pincode": "152123",
      "Lat": "NA",
      "Lng": "NA"
    },
    {
      "Name": "Fazilka SO",
      "District": "FAZILKA",
      "State": "PUNJAB",
      "Pincode": "152123",
      "Lat": 30.4036,
      "Lng": 74.0279
    },
    {
      "Name": "Gandhi Nagar Fazilka SO",
      "District": "FAZILKA",
      "State": "PUNJAB",
      "Pincode": "152123",
      "Lat": 30.927546,
      "Lng": 74.610497
    },
    {
      "Name": "Sabuana BO",
      "District": "FAZILKA",
      "State": "PUNJAB",
      "Pincode": "152123",
      "Lat": 30.403728,
      "Lng": 74.025536
    },
    {
      "Name": "Chimnewala BO",
      "District": "FAZILKA",
      "State": "PUNJAB",
      "Pincode": "152123",
      "Lat": 30.403731,
      "Lng": 74.025533
    },
    {
      "Name": "New Judicial Court Complex Fazilka",
      "District": "FAZILKA",
      "State": "PUNJAB",
      "Pincode": "152123",
      "Lat": 30.41,
      "Lng": 74.07
    },
    {
      "Name": "Chak Banwala BO",
      "District": "FAZILKA",
      "State": "PUNJAB",
      "Pincode": "152123",
      "Lat": 30.37395,
      "Lng": 74.03525
    },
    {
      "Name": "Jandwala Kharta BO",
      "District": "FAZILKA",
      "State": "PUNJAB",
      "Pincode": "152123",
      "Lat": 30.6413719,
      "Lng": 74.4063861
    },
    {
      "Name": "Jaurki Andhewali BO",
      "District": "FAZILKA",
      "State": "PUNJAB",
      "Pincode": "152123",
      "Lat": 30.37395,
      "Lng": 74.03525
    },
    {
      "Name": "Karni Khera BO",
      "District": "FAZILKA",
      "State": "PUNJAB",
      "Pincode": "152123",
      "Lat": 30.37395,
      "Lng": 74.03525
    }
  ],
  "152124": [
    {
      "Name": "Dabwala Kalan BO",
      "District": "FAZILKA",
      "State": "PUNJAB",
      "Pincode": "152124",
      "Lat": 30.54705,
      "Lng": 74.596
    },
    {
      "Name": "Mahuana Bodla BO",
      "District": "FAZILKA",
      "State": "PUNJAB",
      "Pincode": "152124",
      "Lat": 30.1073691,
      "Lng": 74.5624261
    },
    {
      "Name": "Dhippanwali BO",
      "District": "FAZILKA",
      "State": "PUNJAB",
      "Pincode": "152124",
      "Lat": 30.54705,
      "Lng": 74.596
    },
    {
      "Name": "Ghattianwali Jattan BO",
      "District": "FAZILKA",
      "State": "PUNJAB",
      "Pincode": "152124",
      "Lat": 30.54705,
      "Lng": 74.596
    },
    {
      "Name": "Jandwala Bhimeshah BO",
      "District": "FAZILKA",
      "State": "PUNJAB",
      "Pincode": "152124",
      "Lat": 30.2052103,
      "Lng": 74.5331275
    },
    {
      "Name": "Mullianwali BO",
      "District": "FAZILKA",
      "State": "PUNJAB",
      "Pincode": "152124",
      "Lat": 30.403732,
      "Lng": 74.025532
    },
    {
      "Name": "Tahliwal Bodla BO",
      "District": "FAZILKA",
      "State": "PUNJAB",
      "Pincode": "152124",
      "Lat": 30.54705,
      "Lng": 74.596
    },
    {
      "Name": "Aslamwala BO",
      "District": "FAZILKA",
      "State": "PUNJAB",
      "Pincode": "152124",
      "Lat": 30.54705,
      "Lng": 74.596
    },
    {
      "Name": "Kandwala Hazarkhan BO",
      "District": "FAZILKA",
      "State": "PUNJAB",
      "Pincode": "152124",
      "Lat": 30.1210277,
      "Lng": 74.1886181
    },
    {
      "Name": "Pakkan BO",
      "District": "FAZILKA",
      "State": "PUNJAB",
      "Pincode": "152124",
      "Lat": 30.403727,
      "Lng": 74.025537
    },
    {
      "Name": "Tahliwala Jattan BO",
      "District": "FAZILKA",
      "State": "PUNJAB",
      "Pincode": "152124",
      "Lat": 30.54705,
      "Lng": 74.596
    },
    {
      "Name": "Jhottianwali BO",
      "District": "FAZILKA",
      "State": "PUNJAB",
      "Pincode": "152124",
      "Lat": 30.403733,
      "Lng": 74.025531
    },
    {
      "Name": "Arniwala Sheikh Subhan SO",
      "District": "FAZILKA",
      "State": "PUNJAB",
      "Pincode": "152124",
      "Lat": 30.348146,
      "Lng": 74.257034
    }
  ],
  "152128": [
    {
      "Name": "Diwan Khera BO",
      "District": "FAZILKA",
      "State": "PUNJAB",
      "Pincode": "152128",
      "Lat": 30.1417,
      "Lng": 74.01125
    },
    {
      "Name": "Panjkosi BO",
      "District": "FAZILKA",
      "State": "PUNJAB",
      "Pincode": "152128",
      "Lat": 30.9265606,
      "Lng": 74.6135161
    },
    {
      "Name": "Danewala BO",
      "District": "FAZILKA",
      "State": "PUNJAB",
      "Pincode": "152128",
      "Lat": 30.9265606,
      "Lng": 74.6135161
    },
    {
      "Name": "Haripura BO",
      "District": "FAZILKA",
      "State": "PUNJAB",
      "Pincode": "152128",
      "Lat": 30.9265606,
      "Lng": 74.6135161
    },
    {
      "Name": "Killianwali BO",
      "District": "FAZILKA",
      "State": "PUNJAB",
      "Pincode": "152128",
      "Lat": 30.9265636,
      "Lng": 74.6135131
    },
    {
      "Name": "Khuiyan Server SO",
      "District": "FAZILKA",
      "State": "PUNJAB",
      "Pincode": "152128",
      "Lat": 30.113567,
      "Lng": 74.066042
    },
    {
      "Name": "Dharampura BO",
      "District": "FAZILKA",
      "State": "PUNJAB",
      "Pincode": "152128",
      "Lat": 30.9265626,
      "Lng": 74.6135141
    },
    {
      "Name": "Koil Khera BO",
      "District": "FAZILKA",
      "State": "PUNJAB",
      "Pincode": "152128",
      "Lat": 30.1417,
      "Lng": 74.01125
    },
    {
      "Name": "Patrewala BO",
      "District": "FAZILKA",
      "State": "PUNJAB",
      "Pincode": "152128",
      "Lat": 30.40373,
      "Lng": 74.025534
    },
    {
      "Name": "Bakainwala BO",
      "District": "FAZILKA",
      "State": "PUNJAB",
      "Pincode": "152128",
      "Lat": 30.403731,
      "Lng": 74.025533
    },
    {
      "Name": "Jandwala Mira Sangla BO",
      "District": "FAZILKA",
      "State": "PUNJAB",
      "Pincode": "152128",
      "Lat": 30.2052123,
      "Lng": 74.5331255
    },
    {
      "Name": "Roop Nagar BO",
      "District": "FAZILKA",
      "State": "PUNJAB",
      "Pincode": "152128",
      "Lat": 30.1417,
      "Lng": 74.01125
    },
    {
      "Name": "Sappanwali BO",
      "District": "FAZILKA",
      "State": "PUNJAB",
      "Pincode": "152128",
      "Lat": 30.9265626,
      "Lng": 74.6135141
    },
    {
      "Name": "Sayadwala BO",
      "District": "FAZILKA",
      "State": "PUNJAB",
      "Pincode": "152128",
      "Lat": 30.1417,
      "Lng": 74.01125
    }
  ],
  "152132": [
    {
      "Name": "Gumjal BO",
      "District": "FAZILKA",
      "State": "PUNJAB",
      "Pincode": "152132",
      "Lat": 30.9265586,
      "Lng": 74.6135181
    },
    {
      "Name": "Shergarh BO",
      "District": "FAZILKA",
      "State": "PUNJAB",
      "Pincode": "152132",
      "Lat": 30.04488,
      "Lng": 73.98143
    },
    {
      "Name": "Usman Khera BO",
      "District": "FAZILKA",
      "State": "PUNJAB",
      "Pincode": "152132",
      "Lat": 30.04488,
      "Lng": 73.98143
    },
    {
      "Name": "Dhigan Wali BO",
      "District": "FAZILKA",
      "State": "PUNJAB",
      "Pincode": "152132",
      "Lat": 30.04488,
      "Lng": 73.98143
    },
    {
      "Name": "Giddranwali BO",
      "District": "FAZILKA",
      "State": "PUNJAB",
      "Pincode": "152132",
      "Lat": 30.2336032,
      "Lng": 74.2787037
    },
    {
      "Name": "Panniwala Mohala BO",
      "District": "FAZILKA",
      "State": "PUNJAB",
      "Pincode": "152132",
      "Lat": 30.04488,
      "Lng": 73.98143
    },
    {
      "Name": "Bhangar Khera BO",
      "District": "FAZILKA",
      "State": "PUNJAB",
      "Pincode": "152132",
      "Lat": 30.04488,
      "Lng": 73.98143
    },
    {
      "Name": "Dalmir Khera BO",
      "District": "FAZILKA",
      "State": "PUNJAB",
      "Pincode": "152132",
      "Lat": 30.04488,
      "Lng": 73.98143
    },
    {
      "Name": "Panjawan Mandal BO",
      "District": "FAZILKA",
      "State": "PUNJAB",
      "Pincode": "152132",
      "Lat": 30.04488,
      "Lng": 73.98143
    },
    {
      "Name": "Tootwala BO",
      "District": "FAZILKA",
      "State": "PUNJAB",
      "Pincode": "152132",
      "Lat": 30.04488,
      "Lng": 73.98143
    },
    {
      "Name": "Maujgarh SO",
      "District": "FAZILKA",
      "State": "PUNJAB",
      "Pincode": "152132",
      "Lat": 30.065659,
      "Lng": 73.987893
    },
    {
      "Name": "Jandwala Hanumanta BO",
      "District": "FAZILKA",
      "State": "PUNJAB",
      "Pincode": "152132",
      "Lat": 30.2052103,
      "Lng": 74.5331275
    }
  ]
}
