{
  "180001": [
    {
      "Name": "Bakshinagar SO",
      "District": "JAMMU",
      "State": "JAMMU AND KASHMIR",
      "Pincode": "180001",
      "Lat": 32.73784,
      "Lng": 74.849251
    },
    {
      "Name": "OHRoad SO",
      "District": "JAMMU",
      "State": "JAMMU AND KASHMIR",
      "Pincode": "180001",
      "Lat": 32.73403,
      "Lng": 74.866003
    },
    {
      "Name": "Jammu Market SO",
      "District": "JAMMU",
      "State": "JAMMU AND KASHMIR",
      "Pincode": "180001",
      "Lat": 32.713879,
      "Lng": 74.85709
    },
    {
      "Name": "RNBazar SO",
      "District": "JAMMU",
      "State": "JAMMU AND KASHMIR",
      "Pincode": "180001",
      "Lat": 32.731173,
      "Lng": 74.863688
    },
    {
      "Name": "Shaktinagar Jammu SO",
      "District": "JAMMU",
      "State": "JAMMU AND KASHMIR",
      "Pincode": "180001",
      "Lat": 32.7360277,
      "Lng": 74.8428888
    },
    {
      "Name": "Jammu HO",
      "District": "JAMMU",
      "State": "JAMMU AND KASHMIR",
      "Pincode": "180001",
      "Lat": 32.6984722,
      "Lng": 74.8575833
    },
    {
      "Name": "New Secretariat Jammu SO",
      "District": "JAMMU",
      "State": "JAMMU AND KASHMIR",
      "Pincode": "180001",
      "Lat": 32.735892,
      "Lng": 74.862824
    },
    {
      "Name": "Mubarak Mandi SO",
      "District": "JAMMU",
      "State": "JAMMU AND KASHMIR",
      "Pincode": "180001",
      "Lat": 32.6984722,
      "Lng": 74.8575833
    },
    {
      "Name": "Peermitha SO",
      "District": "JAMMU",
      "State": "JAMMU AND KASHMIR",
      "Pincode": "180001",
      "Lat": 32.732837,
      "Lng": 74.868805
    }
  ],
  "180002": [
    {
      "Name": "Gho Manhasan BO",
      "District": "JAMMU",
      "State": "JAMMU AND KASHMIR",
      "Pincode": "180002",
      "Lat": 32.722613,
      "Lng": 74.837554
    },
    {
      "Name": "Gol Gujral BO",
      "District": "JAMMU",
      "State": "JAMMU AND KASHMIR",
      "Pincode": "180002",
      "Lat": 32.723171,
      "Lng": 74.815227
    },
    {
      "Name": "Talab Tillo SO",
      "District": "JAMMU",
      "State": "JAMMU AND KASHMIR",
      "Pincode": "180002",
      "Lat": 32.722613,
      "Lng": 74.837554
    },
    {
      "Name": "Bhadrod BO",
      "District": "JAMMU",
      "State": "JAMMU AND KASHMIR",
      "Pincode": "180002",
      "Lat": 32.713975,
      "Lng": 74.892754
    },
    {
      "Name": "Govind Nagar BO",
      "District": "JAMMU",
      "State": "JAMMU AND KASHMIR",
      "Pincode": "180002",
      "Lat": 32.689298,
      "Lng": 74.882685
    },
    {
      "Name": "Akalpur BO",
      "District": "JAMMU",
      "State": "JAMMU AND KASHMIR",
      "Pincode": "180002",
      "Lat": 32.735793,
      "Lng": 74.821469
    },
    {
      "Name": "Sangrampur BO",
      "District": "JAMMU",
      "State": "JAMMU AND KASHMIR",
      "Pincode": "180002",
      "Lat": 32.758344,
      "Lng": 74.784144
    }
  ],
  "180003": [
    {
      "Name": "Mandal BO",
      "District": "JAMMU",
      "State": "JAMMU AND KASHMIR",
      "Pincode": "180003",
      "Lat": 33.880683,
      "Lng": 75.436391
    },
    {
      "Name": "Jammu Cantt SO",
      "District": "JAMMU",
      "State": "JAMMU AND KASHMIR",
      "Pincode": "180003",
      "Lat": 32.68929,
      "Lng": 74.833106
    },
    {
      "Name": "NATC SO",
      "District": "JAMMU",
      "State": "JAMMU AND KASHMIR",
      "Pincode": "180003",
      "Lat": 32.6898889,
      "Lng": 74.8366667
    },
    {
      "Name": "Makwal BO",
      "District": "JAMMU",
      "State": "JAMMU AND KASHMIR",
      "Pincode": "180003",
      "Lat": 32.521456,
      "Lng": 75.012015
    },
    {
      "Name": "Sohanjana BO",
      "District": "JAMMU",
      "State": "JAMMU AND KASHMIR",
      "Pincode": "180003",
      "Lat": 32.880653,
      "Lng": 75.05219
    },
    {
      "Name": "Industrial Estate SO Jammu",
      "District": "JAMMU",
      "State": "JAMMU AND KASHMIR",
      "Pincode": "180003",
      "Lat": 32.674886,
      "Lng": 74.875566
    }
  ],
  "180004": [
    {
      "Name": "Guru Nanak Nagar SO Jammu",
      "District": "JAMMU",
      "State": "JAMMU AND KASHMIR",
      "Pincode": "180004",
      "Lat": 32.694451,
      "Lng": 74.865495
    },
    {
      "Name": "Gandhinagar HO",
      "District": "JAMMU",
      "State": "JAMMU AND KASHMIR",
      "Pincode": "180004",
      "Lat": 32.6984722,
      "Lng": 74.8575833
    }
  ],
  "180005": [
    {
      "Name": "Karan Nagar SO Jammu",
      "District": "JAMMU",
      "State": "JAMMU AND KASHMIR",
      "Pincode": "180005",
      "Lat": 32.745873,
      "Lng": 74.869719
    },
    {
      "Name": "Subash Nagar Jammu SO",
      "District": "JAMMU",
      "State": "JAMMU AND KASHMIR",
      "Pincode": "180005",
      "Lat": 32.744971,
      "Lng": 74.845596
    },
    {
      "Name": "Kotli Colony SO",
      "District": "JAMMU",
      "State": "JAMMU AND KASHMIR",
      "Pincode": "180005",
      "Lat": 32.7429444,
      "Lng": 74.8504444
    },
    {
      "Name": "Rehari Mohalla SO",
      "District": "JAMMU",
      "State": "JAMMU AND KASHMIR",
      "Pincode": "180005",
      "Lat": 32.744988,
      "Lng": 74.850679
    },
    {
      "Name": "Puran Nagar SO",
      "District": "JAMMU",
      "State": "JAMMU AND KASHMIR",
      "Pincode": "180005",
      "Lat": 32.748072,
      "Lng": 74.860755
    }
  ],
  "180006": [
    {
      "Name": "New University Campus SO",
      "District": "JAMMU",
      "State": "JAMMU AND KASHMIR",
      "Pincode": "180006",
      "Lat": 32.71937,
      "Lng": 74.868063
    },
    {
      "Name": "Qilla Bahu SO",
      "District": "JAMMU",
      "State": "JAMMU AND KASHMIR",
      "Pincode": "180006",
      "Lat": 32.726302,
      "Lng": 74.880134
    }
  ],
  "180007": [
    {
      "Name": "Janipur High Court SO",
      "District": "JAMMU",
      "State": "JAMMU AND KASHMIR",
      "Pincode": "180007",
      "Lat": 32.759565,
      "Lng": 74.856102
    },
    {
      "Name": "Janipur SO",
      "District": "JAMMU",
      "State": "JAMMU AND KASHMIR",
      "Pincode": "180007",
      "Lat": 34.754262,
      "Lng": 74.859485
    }
  ],
  "180009": [
    {
      "Name": "SKUASTCHATHA SO",
      "District": "JAMMU",
      "State": "JAMMU AND KASHMIR",
      "Pincode": "180009",
      "Lat": 32.652915,
      "Lng": 74.807113
    }
  ],
  "180010": [
    {
      "Name": "Gangyal SO",
      "District": "JAMMU",
      "State": "JAMMU AND KASHMIR",
      "Pincode": "180010",
      "Lat": 32.668291,
      "Lng": 74.866795
    },
    {
      "Name": "Kalu Chak BO",
      "District": "JAMMU",
      "State": "JAMMU AND KASHMIR",
      "Pincode": "180010",
      "Lat": 32.668291,
      "Lng": 74.866795
    }
  ],
  "180011": [
    {
      "Name": "Sunjwan BO",
      "District": "JAMMU",
      "State": "JAMMU AND KASHMIR",
      "Pincode": "180011",
      "Lat": 32.693826,
      "Lng": 74.906262
    },
    {
      "Name": "Greater Kailash SO",
      "District": "JAMMU",
      "State": "JAMMU AND KASHMIR",
      "Pincode": "180011",
      "Lat": 32.664803,
      "Lng": 74.894569
    },
    {
      "Name": "Sainik Colony SO",
      "District": "JAMMU",
      "State": "JAMMU AND KASHMIR",
      "Pincode": "180011",
      "Lat": 32.672471,
      "Lng": 74.912108
    }
  ],
  "180012": [
    {
      "Name": "Meghdoot Bhawan",
      "District": "JAMMU",
      "State": "JAMMU AND KASHMIR",
      "Pincode": "180012",
      "Lat": 32.71018622763894,
      "Lng": 74.87953785806894
    },
    {
      "Name": "Railway Station SO",
      "District": "JAMMU",
      "State": "JAMMU AND KASHMIR",
      "Pincode": "180012",
      "Lat": 32.705905,
      "Lng": 74.879967
    },
    {
      "Name": "New Fruit Market SO",
      "District": "JAMMU",
      "State": "JAMMU AND KASHMIR",
      "Pincode": "180012",
      "Lat": 32.715987,
      "Lng": 74.879969
    }
  ],
  "180013": [
    {
      "Name": "Roopnagar Jammu Tawi SO",
      "District": "JAMMU",
      "State": "JAMMU AND KASHMIR",
      "Pincode": "180013",
      "Lat": 32.772311,
      "Lng": 74.839821
    }
  ],
  "180015": [
    {
      "Name": "Chani Himat SO",
      "District": "JAMMU",
      "State": "JAMMU AND KASHMIR",
      "Pincode": "180015",
      "Lat": 32.692392,
      "Lng": 74.894569
    }
  ],
  "180016": [
    {
      "Name": "Vinaik Bazar SO",
      "District": "JAMMU",
      "State": "JAMMU AND KASHMIR",
      "Pincode": "180016",
      "Lat": 32.730512,
      "Lng": 74.867495
    },
    {
      "Name": "Krishna Nagar SO Jammu",
      "District": "JAMMU",
      "State": "JAMMU AND KASHMIR",
      "Pincode": "180016",
      "Lat": 32.733501,
      "Lng": 74.85158
    }
  ],
  "180017": [
    {
      "Name": "Aitham BO",
      "District": "JAMMU",
      "State": "JAMMU AND KASHMIR",
      "Pincode": "180017",
      "Lat": 32.744605,
      "Lng": 74.977887
    },
    {
      "Name": "Kana Chirgal BO",
      "District": "JAMMU",
      "State": "JAMMU AND KASHMIR",
      "Pincode": "180017",
      "Lat": 32.736056,
      "Lng": 74.923561
    },
    {
      "Name": "Majeen SO",
      "District": "JAMMU",
      "State": "JAMMU AND KASHMIR",
      "Pincode": "180017",
      "Lat": 32.7513889,
      "Lng": 74.9083333
    },
    {
      "Name": "Bain Bajalta BO",
      "District": "JAMMU",
      "State": "JAMMU AND KASHMIR",
      "Pincode": "180017",
      "Lat": 32.762169,
      "Lng": 74.952067
    },
    {
      "Name": "Surinsar BO",
      "District": "JAMMU",
      "State": "JAMMU AND KASHMIR",
      "Pincode": "180017",
      "Lat": 32.760532,
      "Lng": 74.939797
    }
  ],
  "180018": [
    {
      "Name": "Udheywala SO",
      "District": "JAMMU",
      "State": "JAMMU AND KASHMIR",
      "Pincode": "180018",
      "Lat": 32.743578,
      "Lng": 74.811964
    }
  ],
  "180019": [
    {
      "Name": "Sidhra Housing colony",
      "District": "JAMMU",
      "State": "JAMMU AND KASHMIR",
      "Pincode": "180019",
      "Lat": 32.72965,
      "Lng": 74.80659
    }
  ],
  "180020": [
    {
      "Name": "TRIKUTA NAGAR",
      "District": "JAMMU",
      "State": "JAMMU AND KASHMIR",
      "Pincode": "180020",
      "Lat": 32.69575,
      "Lng": 74.87556
    }
  ],
  "181008": [
    {
      "Name": "Raipur Satwari",
      "District": "JAMMU",
      "State": "JAMMU AND KASHMIR",
      "Pincode": "181008",
      "Lat": 32.692423,
      "Lng": 74.82747
    }
  ],
  "181101": [
    {
      "Name": "Khour Devian BO",
      "District": "JAMMU",
      "State": "JAMMU AND KASHMIR",
      "Pincode": "181101",
      "Lat": 32.549201,
      "Lng": 74.20158
    },
    {
      "Name": "Rattisn BO",
      "District": "JAMMU",
      "State": "JAMMU AND KASHMIR",
      "Pincode": "181101",
      "Lat": 32.643524,
      "Lng": 74.814043
    },
    {
      "Name": "Gadigarh BO",
      "District": "JAMMU",
      "State": "JAMMU AND KASHMIR",
      "Pincode": "181101",
      "Lat": 32.677529,
      "Lng": 74.852175
    },
    {
      "Name": "Kirpind BO",
      "District": "JAMMU",
      "State": "JAMMU AND KASHMIR",
      "Pincode": "181101",
      "Lat": 32.644419,
      "Lng": 74.818545
    },
    {
      "Name": "Langotian BO",
      "District": "JAMMU",
      "State": "JAMMU AND KASHMIR",
      "Pincode": "181101",
      "Lat": 32.586455,
      "Lng": 74.784907
    },
    {
      "Name": "Bhour Camp BO",
      "District": "JAMMU",
      "State": "JAMMU AND KASHMIR",
      "Pincode": "181101",
      "Lat": 32.460162,
      "Lng": 74.202998
    },
    {
      "Name": "Simble Camp BO",
      "District": "JAMMU",
      "State": "JAMMU AND KASHMIR",
      "Pincode": "181101",
      "Lat": 32.715215,
      "Lng": 74.23123
    },
    {
      "Name": "Miran Sahib SO",
      "District": "JAMMU",
      "State": "JAMMU AND KASHMIR",
      "Pincode": "181101",
      "Lat": 32.644419,
      "Lng": 74.815845
    }
  ],
  "181102": [
    {
      "Name": "Agra Chak BO",
      "District": "JAMMU",
      "State": "JAMMU AND KASHMIR",
      "Pincode": "181102",
      "Lat": 32.582884,
      "Lng": 74.6781
    },
    {
      "Name": "Faloura BO",
      "District": "JAMMU",
      "State": "JAMMU AND KASHMIR",
      "Pincode": "181102",
      "Lat": 32.621957,
      "Lng": 74.25985
    },
    {
      "Name": "Kotlishah Daula BO",
      "District": "JAMMU",
      "State": "JAMMU AND KASHMIR",
      "Pincode": "181102",
      "Lat": 32.621977,
      "Lng": 74.757403
    },
    {
      "Name": "Rangpur Malania BO",
      "District": "JAMMU",
      "State": "JAMMU AND KASHMIR",
      "Pincode": "181102",
      "Lat": 32.571149,
      "Lng": 74.667604
    },
    {
      "Name": "Jassore BO",
      "District": "JAMMU",
      "State": "JAMMU AND KASHMIR",
      "Pincode": "181102",
      "Lat": 32.163401,
      "Lng": 75.218166
    },
    {
      "Name": "Suchetgarh BO",
      "District": "JAMMU",
      "State": "JAMMU AND KASHMIR",
      "Pincode": "181102",
      "Lat": 32.571149,
      "Lng": 76.667604
    },
    {
      "Name": "RSPura Adda SO",
      "District": "JAMMU",
      "State": "JAMMU AND KASHMIR",
      "Pincode": "181102",
      "Lat": 32.6053889,
      "Lng": 74.85
    },
    {
      "Name": "Badyal Brahmna BO",
      "District": "JAMMU",
      "State": "JAMMU AND KASHMIR",
      "Pincode": "181102",
      "Lat": 32.6219457,
      "Lng": 74.6982152
    },
    {
      "Name": "Chandu Chak BO",
      "District": "JAMMU",
      "State": "JAMMU AND KASHMIR",
      "Pincode": "181102",
      "Lat": 32.61472,
      "Lng": 74.595682
    },
    {
      "Name": "Chohala BO",
      "District": "JAMMU",
      "State": "JAMMU AND KASHMIR",
      "Pincode": "181102",
      "Lat": 32.602713,
      "Lng": 74.759784
    },
    {
      "Name": "Satrayan BO",
      "District": "JAMMU",
      "State": "JAMMU AND KASHMIR",
      "Pincode": "181102",
      "Lat": 32.567214,
      "Lng": 75.610279
    },
    {
      "Name": "Shamka BO",
      "District": "JAMMU",
      "State": "JAMMU AND KASHMIR",
      "Pincode": "181102",
      "Lat": 32.552177,
      "Lng": 74.868921
    },
    {
      "Name": "Chakrohi BO",
      "District": "JAMMU",
      "State": "JAMMU AND KASHMIR",
      "Pincode": "181102",
      "Lat": 32.514,
      "Lng": 74.684686
    },
    {
      "Name": "Gharana BO",
      "District": "JAMMU",
      "State": "JAMMU AND KASHMIR",
      "Pincode": "181102",
      "Lat": 32.859524,
      "Lng": 72.321542
    },
    {
      "Name": "RSPura SO",
      "District": "JAMMU",
      "State": "JAMMU AND KASHMIR",
      "Pincode": "181102",
      "Lat": 32.604899,
      "Lng": 74.731531
    }
  ],
  "181111": [
    {
      "Name": "Dablehar SO",
      "District": "JAMMU",
      "State": "JAMMU AND KASHMIR",
      "Pincode": "181111",
      "Lat": 32.539529,
      "Lng": 74.731734
    },
    {
      "Name": "Goondla BO",
      "District": "JAMMU",
      "State": "JAMMU AND KASHMIR",
      "Pincode": "181111",
      "Lat": 32.50219,
      "Lng": 74.172563
    },
    {
      "Name": "Magowali BO",
      "District": "JAMMU",
      "State": "JAMMU AND KASHMIR",
      "Pincode": "181111",
      "Lat": 32.515468,
      "Lng": 74.713222
    },
    {
      "Name": "Rathana BO",
      "District": "JAMMU",
      "State": "JAMMU AND KASHMIR",
      "Pincode": "181111",
      "Lat": 32.539878,
      "Lng": 74.787832
    },
    {
      "Name": "Salehar BO",
      "District": "JAMMU",
      "State": "JAMMU AND KASHMIR",
      "Pincode": "181111",
      "Lat": 32.560411,
      "Lng": 74.820007
    }
  ],
  "181121": [
    {
      "Name": "AGOffice BO",
      "District": "JAMMU",
      "State": "JAMMU AND KASHMIR",
      "Pincode": "181121",
      "Lat": 32.737376,
      "Lng": 74.837857
    },
    {
      "Name": "Paloura SO",
      "District": "JAMMU",
      "State": "JAMMU AND KASHMIR",
      "Pincode": "181121",
      "Lat": 32.755449,
      "Lng": 74.824394
    },
    {
      "Name": "Topsherkhania BO",
      "District": "JAMMU",
      "State": "JAMMU AND KASHMIR",
      "Pincode": "181121",
      "Lat": 32.748385,
      "Lng": 74.839747
    }
  ],
  "181122": [
    {
      "Name": "Ranjan BO",
      "District": "JAMMU",
      "State": "JAMMU AND KASHMIR",
      "Pincode": "181122",
      "Lat": 32.869406,
      "Lng": 74.765892
    },
    {
      "Name": "Gharota BO",
      "District": "JAMMU",
      "State": "JAMMU AND KASHMIR",
      "Pincode": "181122",
      "Lat": 32.85642,
      "Lng": 74.727854
    },
    {
      "Name": "Rabta BO",
      "District": "JAMMU",
      "State": "JAMMU AND KASHMIR",
      "Pincode": "181122",
      "Lat": 32.819462,
      "Lng": 74.743521
    },
    {
      "Name": "Sarote BO",
      "District": "JAMMU",
      "State": "JAMMU AND KASHMIR",
      "Pincode": "181122",
      "Lat": 32.834069,
      "Lng": 74.832754
    },
    {
      "Name": "Seri Panditan BO",
      "District": "JAMMU",
      "State": "JAMMU AND KASHMIR",
      "Pincode": "181122",
      "Lat": 32.882379,
      "Lng": 74.803921
    },
    {
      "Name": "Kot BO",
      "District": "JAMMU",
      "State": "JAMMU AND KASHMIR",
      "Pincode": "181122",
      "Lat": 32.816024,
      "Lng": 74.818407
    },
    {
      "Name": "Bhalwal SO",
      "District": "JAMMU",
      "State": "JAMMU AND KASHMIR",
      "Pincode": "181122",
      "Lat": 32.80948,
      "Lng": 74.768445
    },
    {
      "Name": "Baran BO",
      "District": "JAMMU",
      "State": "JAMMU AND KASHMIR",
      "Pincode": "181122",
      "Lat": 32.823901,
      "Lng": 74.754189
    },
    {
      "Name": "Jandial BO",
      "District": "JAMMU",
      "State": "JAMMU AND KASHMIR",
      "Pincode": "181122",
      "Lat": 32.829342,
      "Lng": 74.654213
    }
  ],
  "181123": [
    {
      "Name": "Raipur BO",
      "District": "JAMMU",
      "State": "JAMMU AND KASHMIR",
      "Pincode": "181123",
      "Lat": 32.788325,
      "Lng": 74.822602
    },
    {
      "Name": "Bantalab SO",
      "District": "JAMMU",
      "State": "JAMMU AND KASHMIR",
      "Pincode": "181123",
      "Lat": 32.78435,
      "Lng": 74.823703
    }
  ],
  "181124": [
    {
      "Name": "Bsf Camp Paloura SO",
      "District": "JAMMU",
      "State": "JAMMU AND KASHMIR",
      "Pincode": "181124",
      "Lat": 32.750648,
      "Lng": 74.820327
    }
  ],
  "181131": [
    {
      "Name": "Adlehar BO",
      "District": "JAMMU",
      "State": "JAMMU AND KASHMIR",
      "Pincode": "181131",
      "Lat": 32.501326,
      "Lng": 74.811233
    },
    {
      "Name": "Allah BO",
      "District": "JAMMU",
      "State": "JAMMU AND KASHMIR",
      "Pincode": "181131",
      "Lat": 32.501236,
      "Lng": 74.02585
    },
    {
      "Name": "Rangpur Trewa BO",
      "District": "JAMMU",
      "State": "JAMMU AND KASHMIR",
      "Pincode": "181131",
      "Lat": 32.42152,
      "Lng": 72.136252
    },
    {
      "Name": "Kalyana BO",
      "District": "JAMMU",
      "State": "JAMMU AND KASHMIR",
      "Pincode": "181131",
      "Lat": 32.519224,
      "Lng": 74.799533
    },
    {
      "Name": "Pindicharka Kalan BO",
      "District": "JAMMU",
      "State": "JAMMU AND KASHMIR",
      "Pincode": "181131",
      "Lat": 32.24381,
      "Lng": 74.136526
    },
    {
      "Name": "Sai Kalan BO",
      "District": "JAMMU",
      "State": "JAMMU AND KASHMIR",
      "Pincode": "181131",
      "Lat": 24.680811,
      "Lng": 73.20281
    },
    {
      "Name": "Talhar BO",
      "District": "JAMMU",
      "State": "JAMMU AND KASHMIR",
      "Pincode": "181131",
      "Lat": 32.515618,
      "Lng": 74.77028
    },
    {
      "Name": "Arnia SO",
      "District": "JAMMU",
      "State": "JAMMU AND KASHMIR",
      "Pincode": "181131",
      "Lat": 32.519224,
      "Lng": 74.799533
    },
    {
      "Name": "Parlah BO",
      "District": "JAMMU",
      "State": "JAMMU AND KASHMIR",
      "Pincode": "181131",
      "Lat": 32.494097,
      "Lng": 74.719075
    },
    {
      "Name": "Kool Kalan BO",
      "District": "JAMMU",
      "State": "JAMMU AND KASHMIR",
      "Pincode": "181131",
      "Lat": 32.519224,
      "Lng": 74.799533
    }
  ],
  "181132": [
    {
      "Name": "Deoli BO",
      "District": "JAMMU",
      "State": "JAMMU AND KASHMIR",
      "Pincode": "181132",
      "Lat": 25.758218,
      "Lng": 75.381816
    },
    {
      "Name": "Rehal BO",
      "District": "JAMMU",
      "State": "JAMMU AND KASHMIR",
      "Pincode": "181132",
      "Lat": 32.561712,
      "Lng": 74.875566
    },
    {
      "Name": "Bishnah SO",
      "District": "JAMMU",
      "State": "JAMMU AND KASHMIR",
      "Pincode": "181132",
      "Lat": 32.610819,
      "Lng": 74.859485
    },
    {
      "Name": "Kanhal BO",
      "District": "JAMMU",
      "State": "JAMMU AND KASHMIR",
      "Pincode": "181132",
      "Lat": 32.596122,
      "Lng": 74.835361
    },
    {
      "Name": "Kheri BO",
      "District": "JAMMU",
      "State": "JAMMU AND KASHMIR",
      "Pincode": "181132",
      "Lat": 32.610819,
      "Lng": 74.859485
    },
    {
      "Name": "Kotli Mian Fateh BO",
      "District": "JAMMU",
      "State": "JAMMU AND KASHMIR",
      "Pincode": "181132",
      "Lat": 32.630864,
      "Lng": 74.831705
    },
    {
      "Name": "Banachak BO",
      "District": "JAMMU",
      "State": "JAMMU AND KASHMIR",
      "Pincode": "181132",
      "Lat": 32.6031,
      "Lng": 74.878125
    },
    {
      "Name": "Chak Umrah BO",
      "District": "JAMMU",
      "State": "JAMMU AND KASHMIR",
      "Pincode": "181132",
      "Lat": 32.527131,
      "Lng": 74.863871
    },
    {
      "Name": "Darap BO",
      "District": "JAMMU",
      "State": "JAMMU AND KASHMIR",
      "Pincode": "181132",
      "Lat": 32.306326,
      "Lng": 75.186222
    },
    {
      "Name": "Palli BO",
      "District": "JAMMU",
      "State": "JAMMU AND KASHMIR",
      "Pincode": "181132",
      "Lat": 32.610819,
      "Lng": 74.859485
    },
    {
      "Name": "Pandorian Manhasan BO",
      "District": "JAMMU",
      "State": "JAMMU AND KASHMIR",
      "Pincode": "181132",
      "Lat": 32.632102,
      "Lng": 74.201252
    },
    {
      "Name": "Bishnah Adda SO",
      "District": "JAMMU",
      "State": "JAMMU AND KASHMIR",
      "Pincode": "181132",
      "Lat": 32.610819,
      "Lng": 74.8549485
    }
  ],
  "181133": [
    {
      "Name": "Birpur BO",
      "District": "SAMBA",
      "State": "JAMMU AND KASHMIR",
      "Pincode": "181133",
      "Lat": 32.636522,
      "Lng": 74.914135
    },
    {
      "Name": "Smailpur BO",
      "District": "SAMBA",
      "State": "JAMMU AND KASHMIR",
      "Pincode": "181133",
      "Lat": 32.629161,
      "Lng": 74.961685
    },
    {
      "Name": "Tarore BO",
      "District": "SAMBA",
      "State": "JAMMU AND KASHMIR",
      "Pincode": "181133",
      "Lat": 32.54154,
      "Lng": 74.265145
    },
    {
      "Name": "Sarore BO",
      "District": "SAMBA",
      "State": "JAMMU AND KASHMIR",
      "Pincode": "181133",
      "Lat": 32.629769,
      "Lng": 74.890184
    },
    {
      "Name": "Bari Brahmna Icomplex SO",
      "District": "SAMBA",
      "State": "JAMMU AND KASHMIR",
      "Pincode": "181133",
      "Lat": 32.644691,
      "Lng": 74.899727
    },
    {
      "Name": "Bari Brahmna SO",
      "District": "SAMBA",
      "State": "JAMMU AND KASHMIR",
      "Pincode": "181133",
      "Lat": 32.636522,
      "Lng": 74.914135
    }
  ],
  "181134": [
    {
      "Name": "AIIMS Vijaypur",
      "District": "JAMMU",
      "State": "JAMMU AND KASHMIR",
      "Pincode": "181134",
      "Lat": 32.564468,
      "Lng": 75.0356005
    }
  ],
  "181141": [
    {
      "Name": "Abtal BO",
      "District": "SAMBA",
      "State": "JAMMU AND KASHMIR",
      "Pincode": "181141",
      "Lat": 32.489435,
      "Lng": 74.925627
    },
    {
      "Name": "Chak Chimna BO",
      "District": "JAMMU",
      "State": "JAMMU AND KASHMIR",
      "Pincode": "181141",
      "Lat": 32.135477,
      "Lng": 75.612079
    },
    {
      "Name": "Nanga BO",
      "District": "SAMBA",
      "State": "JAMMU AND KASHMIR",
      "Pincode": "181141",
      "Lat": 32.466727,
      "Lng": 74.957123
    },
    {
      "Name": "Ramgarh SO Jammu",
      "District": "SAMBA",
      "State": "JAMMU AND KASHMIR",
      "Pincode": "181141",
      "Lat": 32.891893,
      "Lng": 74.758578
    },
    {
      "Name": "Kesomanhasan BO",
      "District": "SAMBA",
      "State": "JAMMU AND KASHMIR",
      "Pincode": "181141",
      "Lat": 32.507674,
      "Lng": 74.964715
    },
    {
      "Name": "Nandpur BO",
      "District": "SAMBA",
      "State": "JAMMU AND KASHMIR",
      "Pincode": "181141",
      "Lat": 32.700901,
      "Lng": 75.50402
    }
  ],
  "181143": [
    {
      "Name": "Rahya BO",
      "District": "SAMBA",
      "State": "JAMMU AND KASHMIR",
      "Pincode": "181143",
      "Lat": 32.622581,
      "Lng": 74.992705
    },
    {
      "Name": "Rajinderpura BO",
      "District": "SAMBA",
      "State": "JAMMU AND KASHMIR",
      "Pincode": "181143",
      "Lat": 32.266851,
      "Lng": 74.596705
    },
    {
      "Name": "CENTRAL UNIVERSITY BO",
      "District": "SAMBA",
      "State": "JAMMU AND KASHMIR",
      "Pincode": "181143",
      "Lat": "NA",
      "Lng": "NA"
    },
    {
      "Name": "Gurah Salathia SO",
      "District": "JAMMU",
      "State": "JAMMU AND KASHMIR",
      "Pincode": "181143",
      "Lat": 32.6047778,
      "Lng": 75.0431389
    }
  ],
  "181145": [
    {
      "Name": "Khara Madana BO",
      "District": "SAMBA",
      "State": "JAMMU AND KASHMIR",
      "Pincode": "181145",
      "Lat": 32.681487,
      "Lng": 75.00854
    },
    {
      "Name": "Mandal BO",
      "District": "SAMBA",
      "State": "JAMMU AND KASHMIR",
      "Pincode": "181145",
      "Lat": 32.880683,
      "Lng": 75.436391
    },
    {
      "Name": "Utter Behni BO",
      "District": "SAMBA",
      "State": "JAMMU AND KASHMIR",
      "Pincode": "181145",
      "Lat": 32.621584,
      "Lng": 75.003625
    },
    {
      "Name": "Purmandal SO",
      "District": "SAMBA",
      "State": "JAMMU AND KASHMIR",
      "Pincode": "181145",
      "Lat": 32.681487,
      "Lng": 74.00854
    }
  ],
  "181152": [
    {
      "Name": "Bathindi SO",
      "District": "JAMMU",
      "State": "JAMMU AND KASHMIR",
      "Pincode": "181152",
      "Lat": 32.710377,
      "Lng": 74.906262
    }
  ],
  "181201": [
    {
      "Name": "Lehar BO",
      "District": "JAMMU",
      "State": "JAMMU AND KASHMIR",
      "Pincode": "181201",
      "Lat": 32.899524,
      "Lng": 74.742485
    },
    {
      "Name": "Mandarian BO",
      "District": "JAMMU",
      "State": "JAMMU AND KASHMIR",
      "Pincode": "181201",
      "Lat": 32.952984,
      "Lng": 74.719907
    },
    {
      "Name": "Gharatal BO",
      "District": "JAMMU",
      "State": "JAMMU AND KASHMIR",
      "Pincode": "181201",
      "Lat": 32.685426,
      "Lng": 74.235489
    },
    {
      "Name": "Gurha Brahmna BO",
      "District": "JAMMU",
      "State": "JAMMU AND KASHMIR",
      "Pincode": "181201",
      "Lat": 32.756712,
      "Lng": 74.765111
    },
    {
      "Name": "Ambaran BO",
      "District": "JAMMU",
      "State": "JAMMU AND KASHMIR",
      "Pincode": "181201",
      "Lat": 32.899524,
      "Lng": 74.742485
    },
    {
      "Name": "Bala BO",
      "District": "JAMMU",
      "State": "JAMMU AND KASHMIR",
      "Pincode": "181201",
      "Lat": 32.709721,
      "Lng": 74.889787
    },
    {
      "Name": "Brui BO",
      "District": "JAMMU",
      "State": "JAMMU AND KASHMIR",
      "Pincode": "181201",
      "Lat": 32.654821,
      "Lng": 74.562148
    },
    {
      "Name": "Gandharwan BO",
      "District": "JAMMU",
      "State": "JAMMU AND KASHMIR",
      "Pincode": "181201",
      "Lat": 32.495634,
      "Lng": 74.344522
    },
    {
      "Name": "Sungal BO",
      "District": "JAMMU",
      "State": "JAMMU AND KASHMIR",
      "Pincode": "181201",
      "Lat": 41.132974,
      "Lng": 73.361889
    },
    {
      "Name": "Akhnoor SO",
      "District": "JAMMU",
      "State": "JAMMU AND KASHMIR",
      "Pincode": "181201",
      "Lat": 32.899524,
      "Lng": 74.742485
    },
    {
      "Name": "Pacca Danga Akhnoor SO",
      "District": "JAMMU",
      "State": "JAMMU AND KASHMIR",
      "Pincode": "181201",
      "Lat": 32.7257777,
      "Lng": 74.8487222
    },
    {
      "Name": "Bamal Colony BO",
      "District": "JAMMU",
      "State": "JAMMU AND KASHMIR",
      "Pincode": "181201",
      "Lat": 32.695821,
      "Lng": 74.332651
    },
    {
      "Name": "Pangyari BO",
      "District": "JAMMU",
      "State": "JAMMU AND KASHMIR",
      "Pincode": "181201",
      "Lat": 32.899524,
      "Lng": 74.742485
    },
    {
      "Name": "Kaink Jagir BO",
      "District": "JAMMU",
      "State": "JAMMU AND KASHMIR",
      "Pincode": "181201",
      "Lat": 32.966138,
      "Lng": 74.740193
    },
    {
      "Name": "Kathar BO",
      "District": "JAMMU",
      "State": "JAMMU AND KASHMIR",
      "Pincode": "181201",
      "Lat": 33.016529,
      "Lng": 74.714099
    },
    {
      "Name": "Mawa Brahmna BO",
      "District": "JAMMU",
      "State": "JAMMU AND KASHMIR",
      "Pincode": "181201",
      "Lat": 32.922284,
      "Lng": 74.572691
    }
  ],
  "181202": [
    {
      "Name": "Devipur BO",
      "District": "JAMMU",
      "State": "JAMMU AND KASHMIR",
      "Pincode": "181202",
      "Lat": 32.556375,
      "Lng": 74.65029
    },
    {
      "Name": "Dhoke Khalsa BO",
      "District": "JAMMU",
      "State": "JAMMU AND KASHMIR",
      "Pincode": "181202",
      "Lat": 32.814845,
      "Lng": 74.537266
    },
    {
      "Name": "Bakore BO",
      "District": "JAMMU",
      "State": "JAMMU AND KASHMIR",
      "Pincode": "181202",
      "Lat": 32.807122,
      "Lng": 74.56203
    },
    {
      "Name": "Chak Kirpalpur BO",
      "District": "JAMMU",
      "State": "JAMMU AND KASHMIR",
      "Pincode": "181202",
      "Lat": 31.200029,
      "Lng": 75.71825
    },
    {
      "Name": "Datial BO",
      "District": "JAMMU",
      "State": "JAMMU AND KASHMIR",
      "Pincode": "181202",
      "Lat": 32.576201,
      "Lng": 74.658425
    },
    {
      "Name": "Jourian SO",
      "District": "JAMMU",
      "State": "JAMMU AND KASHMIR",
      "Pincode": "181202",
      "Lat": 32.8325278,
      "Lng": 74.5769722
    },
    {
      "Name": "Maira BO",
      "District": "JAMMU",
      "State": "JAMMU AND KASHMIR",
      "Pincode": "181202",
      "Lat": 32.803039,
      "Lng": 74.539766
    },
    {
      "Name": "Bhalwal Brahmna BO",
      "District": "JAMMU",
      "State": "JAMMU AND KASHMIR",
      "Pincode": "181202",
      "Lat": 32.87278,
      "Lng": 74.572691
    }
  ],
  "181203": [
    {
      "Name": "Khour SO",
      "District": "JAMMU",
      "State": "JAMMU AND KASHMIR",
      "Pincode": "181203",
      "Lat": 32.602517,
      "Lng": 74.808422
    },
    {
      "Name": "Hamirpur Sidhar BO",
      "District": "JAMMU",
      "State": "JAMMU AND KASHMIR",
      "Pincode": "181203",
      "Lat": 32.602517,
      "Lng": 74.808422
    },
    {
      "Name": "Nathal BO",
      "District": "JAMMU",
      "State": "JAMMU AND KASHMIR",
      "Pincode": "181203",
      "Lat": 32.928113,
      "Lng": 74.423251
    },
    {
      "Name": "Nikkian BO",
      "District": "JAMMU",
      "State": "JAMMU AND KASHMIR",
      "Pincode": "181203",
      "Lat": 32.815994,
      "Lng": 74.498719
    },
    {
      "Name": "Kaleeth BO",
      "District": "JAMMU",
      "State": "JAMMU AND KASHMIR",
      "Pincode": "181203",
      "Lat": 32.86251,
      "Lng": 74.480405
    },
    {
      "Name": "Kharah BO",
      "District": "JAMMU",
      "State": "JAMMU AND KASHMIR",
      "Pincode": "181203",
      "Lat": 32.752364,
      "Lng": 74.342815
    },
    {
      "Name": "Naryana BO",
      "District": "JAMMU",
      "State": "JAMMU AND KASHMIR",
      "Pincode": "181203",
      "Lat": 32.947043,
      "Lng": 74.947606
    },
    {
      "Name": "Sainth BO",
      "District": "JAMMU",
      "State": "JAMMU AND KASHMIR",
      "Pincode": "181203",
      "Lat": 32.727217,
      "Lng": 74.856744
    },
    {
      "Name": "Chak Malal BO",
      "District": "JAMMU",
      "State": "JAMMU AND KASHMIR",
      "Pincode": "181203",
      "Lat": 32.835471,
      "Lng": 74.54377
    },
    {
      "Name": "Danwal BO",
      "District": "JAMMU",
      "State": "JAMMU AND KASHMIR",
      "Pincode": "181203",
      "Lat": 32.822567,
      "Lng": 74.512637
    },
    {
      "Name": "Gigrial BO",
      "District": "JAMMU",
      "State": "JAMMU AND KASHMIR",
      "Pincode": "181203",
      "Lat": 32.813954,
      "Lng": 74.325132
    }
  ],
  "181204": [
    {
      "Name": "Kot Maira BO",
      "District": "JAMMU",
      "State": "JAMMU AND KASHMIR",
      "Pincode": "181204",
      "Lat": 32.841029,
      "Lng": 74.462821
    },
    {
      "Name": "Pallanwala SO",
      "District": "JAMMU",
      "State": "JAMMU AND KASHMIR",
      "Pincode": "181204",
      "Lat": 32.8403333,
      "Lng": 74.4666667
    },
    {
      "Name": "Bardoh BO",
      "District": "JAMMU",
      "State": "JAMMU AND KASHMIR",
      "Pincode": "181204",
      "Lat": 32.826924,
      "Lng": 74.352691
    }
  ],
  "181205": [
    {
      "Name": "Muthi SO",
      "District": "JAMMU",
      "State": "JAMMU AND KASHMIR",
      "Pincode": "181205",
      "Lat": 34.75832,
      "Lng": 74.814157
    }
  ],
  "181206": [
    {
      "Name": "Halqa BO",
      "District": "JAMMU",
      "State": "JAMMU AND KASHMIR",
      "Pincode": "181206",
      "Lat": 32.763148,
      "Lng": 74.705968
    },
    {
      "Name": "Kangrial BO",
      "District": "JAMMU",
      "State": "JAMMU AND KASHMIR",
      "Pincode": "181206",
      "Lat": 32.724425,
      "Lng": 74.737741
    },
    {
      "Name": "Batehra BO",
      "District": "JAMMU",
      "State": "JAMMU AND KASHMIR",
      "Pincode": "181206",
      "Lat": 32.789011,
      "Lng": 74.7827
    },
    {
      "Name": "Gajansoo BO",
      "District": "JAMMU",
      "State": "JAMMU AND KASHMIR",
      "Pincode": "181206",
      "Lat": 32.735846,
      "Lng": 74.666391
    },
    {
      "Name": "Karloop BO",
      "District": "JAMMU",
      "State": "JAMMU AND KASHMIR",
      "Pincode": "181206",
      "Lat": 32.748396,
      "Lng": 74.729174
    },
    {
      "Name": "Paryal BO",
      "District": "JAMMU",
      "State": "JAMMU AND KASHMIR",
      "Pincode": "181206",
      "Lat": 32.778894,
      "Lng": 74.691272
    },
    {
      "Name": "Garkhal BO",
      "District": "JAMMU",
      "State": "JAMMU AND KASHMIR",
      "Pincode": "181206",
      "Lat": 32.723392,
      "Lng": 74.592125
    },
    {
      "Name": "Misriwala BO",
      "District": "JAMMU",
      "State": "JAMMU AND KASHMIR",
      "Pincode": "181206",
      "Lat": 32.744053,
      "Lng": 74.804652
    },
    {
      "Name": "Dumana SO",
      "District": "JAMMU",
      "State": "JAMMU AND KASHMIR",
      "Pincode": "181206",
      "Lat": 32.726602,
      "Lng": 74.857026
    },
    {
      "Name": "Chak Shama BO",
      "District": "JAMMU",
      "State": "JAMMU AND KASHMIR",
      "Pincode": "181206",
      "Lat": 32.754832,
      "Lng": 74.632842
    },
    {
      "Name": "Kanachak BO",
      "District": "JAMMU",
      "State": "JAMMU AND KASHMIR",
      "Pincode": "181206",
      "Lat": 32.723342,
      "Lng": 74.562427
    },
    {
      "Name": "Nagbani BO",
      "District": "JAMMU",
      "State": "JAMMU AND KASHMIR",
      "Pincode": "181206",
      "Lat": 32.726602,
      "Lng": 74.857026
    }
  ],
  "181207": [
    {
      "Name": "Pargwal SO",
      "District": "JAMMU",
      "State": "JAMMU AND KASHMIR",
      "Pincode": "181207",
      "Lat": 32.7989444,
      "Lng": 74.6049167
    },
    {
      "Name": "Gura Manhasan BO",
      "District": "JAMMU",
      "State": "JAMMU AND KASHMIR",
      "Pincode": "181207",
      "Lat": 32.798208,
      "Lng": 74.603442
    }
  ],
  "181208": [
    {
      "Name": "Bawa Talab",
      "District": "JAMMU",
      "State": "JAMMU AND KASHMIR",
      "Pincode": "181208",
      "Lat": 32.830701,
      "Lng": 74.752616
    }
  ],
  "181221": [
    {
      "Name": "JKotli BO",
      "District": "JAMMU",
      "State": "JAMMU AND KASHMIR",
      "Pincode": "181221",
      "Lat": 32.796472,
      "Lng": 74.915333
    },
    {
      "Name": "Jagti BO",
      "District": "JAMMU",
      "State": "JAMMU AND KASHMIR",
      "Pincode": "181221",
      "Lat": 32.796472,
      "Lng": 74.915333
    },
    {
      "Name": "Panjgrain BO",
      "District": "JAMMU",
      "State": "JAMMU AND KASHMIR",
      "Pincode": "181221",
      "Lat": 32.796472,
      "Lng": 74.915333
    },
    {
      "Name": "Shiba BO",
      "District": "JAMMU",
      "State": "JAMMU AND KASHMIR",
      "Pincode": "181221",
      "Lat": 32.725462,
      "Lng": 74.654205
    },
    {
      "Name": "Jagti Migrant Township S.O",
      "District": "JAMMU",
      "State": "JAMMU AND KASHMIR",
      "Pincode": "181221",
      "Lat": "NA",
      "Lng": "NA"
    },
    {
      "Name": "Nadore BO",
      "District": "JAMMU",
      "State": "JAMMU AND KASHMIR",
      "Pincode": "181221",
      "Lat": 32.726602,
      "Lng": 74.857026
    },
    {
      "Name": "Kandoli Nagrota SO",
      "District": "JAMMU",
      "State": "JAMMU AND KASHMIR",
      "Pincode": "181221",
      "Lat": 32.796472,
      "Lng": 74.915333
    }
  ],
  "181224": [
    {
      "Name": "Kanyala BO",
      "District": "JAMMU",
      "State": "JAMMU AND KASHMIR",
      "Pincode": "181224",
      "Lat": 32.564825,
      "Lng": 74.752615
    },
    {
      "Name": "Tahra BO",
      "District": "JAMMU",
      "State": "JAMMU AND KASHMIR",
      "Pincode": "181224",
      "Lat": 32.836321,
      "Lng": 75.059379
    },
    {
      "Name": "Dansal SO",
      "District": "JAMMU",
      "State": "JAMMU AND KASHMIR",
      "Pincode": "181224",
      "Lat": 32.869956,
      "Lng": 74.993933
    },
    {
      "Name": "Bhatyari BO",
      "District": "JAMMU",
      "State": "JAMMU AND KASHMIR",
      "Pincode": "181224",
      "Lat": 32.625326,
      "Lng": 74.836794
    },
    {
      "Name": "Kishanpur BO",
      "District": "JAMMU",
      "State": "JAMMU AND KASHMIR",
      "Pincode": "181224",
      "Lat": 32.632541,
      "Lng": 75.8521651
    },
    {
      "Name": "Kothar BO",
      "District": "JAMMU",
      "State": "JAMMU AND KASHMIR",
      "Pincode": "181224",
      "Lat": 32.462436,
      "Lng": 75.126321
    },
    {
      "Name": "Jindrah BO",
      "District": "JAMMU",
      "State": "JAMMU AND KASHMIR",
      "Pincode": "181224",
      "Lat": 32.761398,
      "Lng": 74.91072
    },
    {
      "Name": "Badsu BO",
      "District": "JAMMU",
      "State": "JAMMU AND KASHMIR",
      "Pincode": "181224",
      "Lat": 32.869956,
      "Lng": 74.993933
    }
  ],
  "182101": [
    {
      "Name": "Salmehri BO",
      "District": "UDHAMPUR",
      "State": "JAMMU AND KASHMIR",
      "Pincode": "182101",
      "Lat": 1,
      "Lng": 1
    },
    {
      "Name": "Jakhani BO",
      "District": "UDHAMPUR",
      "State": "JAMMU AND KASHMIR",
      "Pincode": "182101",
      "Lat": 1,
      "Lng": 1
    },
    {
      "Name": "Mj Road Nd SO",
      "District": "UDHAMPUR",
      "State": "JAMMU AND KASHMIR",
      "Pincode": "182101",
      "Lat": 32.9239722,
      "Lng": 75.1334722
    },
    {
      "Name": "Omara Morh SO",
      "District": "UDHAMPUR",
      "State": "JAMMU AND KASHMIR",
      "Pincode": "182101",
      "Lat": 32.8122222,
      "Lng": 75.3808055
    },
    {
      "Name": "Shaktinagar SO Udhampur",
      "District": "UDHAMPUR",
      "State": "JAMMU AND KASHMIR",
      "Pincode": "182101",
      "Lat": 1,
      "Lng": 1
    },
    {
      "Name": "Udhampur District Court SO",
      "District": "UDHAMPUR",
      "State": "JAMMU AND KASHMIR",
      "Pincode": "182101",
      "Lat": 32.9265278,
      "Lng": 75.1569167
    },
    {
      "Name": "Udhampur HO",
      "District": "UDHAMPUR",
      "State": "JAMMU AND KASHMIR",
      "Pincode": "182101",
      "Lat": 32.9258889,
      "Lng": 75.1381389
    },
    {
      "Name": "Kawa BO",
      "District": "UDHAMPUR",
      "State": "JAMMU AND KASHMIR",
      "Pincode": "182101",
      "Lat": 1,
      "Lng": 1
    },
    {
      "Name": "Krimchi BO",
      "District": "UDHAMPUR",
      "State": "JAMMU AND KASHMIR",
      "Pincode": "182101",
      "Lat": 1,
      "Lng": 1
    },
    {
      "Name": "Rathian BO",
      "District": "UDHAMPUR",
      "State": "JAMMU AND KASHMIR",
      "Pincode": "182101",
      "Lat": 1,
      "Lng": 1
    },
    {
      "Name": "KASHIRAH BO",
      "District": "UDHAMPUR",
      "State": "JAMMU AND KASHMIR",
      "Pincode": "182101",
      "Lat": 32.867855,
      "Lng": 75.12389
    },
    {
      "Name": "Gandala BO",
      "District": "UDHAMPUR",
      "State": "JAMMU AND KASHMIR",
      "Pincode": "182101",
      "Lat": 1,
      "Lng": 1
    },
    {
      "Name": "PTS Udhampur BO",
      "District": "UDHAMPUR",
      "State": "JAMMU AND KASHMIR",
      "Pincode": "182101",
      "Lat": 1,
      "Lng": 1
    },
    {
      "Name": "Bali BO",
      "District": "UDHAMPUR",
      "State": "JAMMU AND KASHMIR",
      "Pincode": "182101",
      "Lat": 1,
      "Lng": 1
    },
    {
      "Name": "Chak Rakhwalan BO",
      "District": "UDHAMPUR",
      "State": "JAMMU AND KASHMIR",
      "Pincode": "182101",
      "Lat": 1,
      "Lng": 1
    }
  ],
  "182104": [
    {
      "Name": "PTC Udhampur SO",
      "District": "UDHAMPUR",
      "State": "JAMMU AND KASHMIR",
      "Pincode": "182104",
      "Lat": 32.9095278,
      "Lng": 75.1062222
    }
  ],
  "182121": [
    {
      "Name": "Barola BO",
      "District": "UDHAMPUR",
      "State": "JAMMU AND KASHMIR",
      "Pincode": "182121",
      "Lat": 1,
      "Lng": 1
    },
    {
      "Name": "Jangalgali BO",
      "District": "UDHAMPUR",
      "State": "JAMMU AND KASHMIR",
      "Pincode": "182121",
      "Lat": 1,
      "Lng": 1
    },
    {
      "Name": "Mand BO",
      "District": "UDHAMPUR",
      "State": "JAMMU AND KASHMIR",
      "Pincode": "182121",
      "Lat": 1,
      "Lng": 1
    },
    {
      "Name": "Charyari BO",
      "District": "UDHAMPUR",
      "State": "JAMMU AND KASHMIR",
      "Pincode": "182121",
      "Lat": 1,
      "Lng": 1
    },
    {
      "Name": "Jib BO",
      "District": "UDHAMPUR",
      "State": "JAMMU AND KASHMIR",
      "Pincode": "182121",
      "Lat": 1,
      "Lng": 1
    },
    {
      "Name": "Garhi SO Udhampur",
      "District": "UDHAMPUR",
      "State": "JAMMU AND KASHMIR",
      "Pincode": "182121",
      "Lat": 33.1105,
      "Lng": 74.4908
    },
    {
      "Name": "Malhar BO",
      "District": "UDHAMPUR",
      "State": "JAMMU AND KASHMIR",
      "Pincode": "182121",
      "Lat": 1,
      "Lng": 1
    },
    {
      "Name": "Garnai BO",
      "District": "UDHAMPUR",
      "State": "JAMMU AND KASHMIR",
      "Pincode": "182121",
      "Lat": 1,
      "Lng": 1
    },
    {
      "Name": "Panthal BO",
      "District": "REASI",
      "State": "JAMMU AND KASHMIR",
      "Pincode": "182121",
      "Lat": 1,
      "Lng": 1
    },
    {
      "Name": "Seen Bhramena BO",
      "District": "UDHAMPUR",
      "State": "JAMMU AND KASHMIR",
      "Pincode": "182121",
      "Lat": 1,
      "Lng": 1
    },
    {
      "Name": "Tikri BO",
      "District": "UDHAMPUR",
      "State": "JAMMU AND KASHMIR",
      "Pincode": "182121",
      "Lat": 1,
      "Lng": 1
    },
    {
      "Name": "Hartriyan BO",
      "District": "UDHAMPUR",
      "State": "JAMMU AND KASHMIR",
      "Pincode": "182121",
      "Lat": 1,
      "Lng": 1
    },
    {
      "Name": "Seen Thakrian BO",
      "District": "UDHAMPUR",
      "State": "JAMMU AND KASHMIR",
      "Pincode": "182121",
      "Lat": 1,
      "Lng": 1
    }
  ],
  "182122": [
    {
      "Name": "Bland BO",
      "District": "UDHAMPUR",
      "State": "JAMMU AND KASHMIR",
      "Pincode": "182122",
      "Lat": 1,
      "Lng": 1
    },
    {
      "Name": "Ghorari BO",
      "District": "UDHAMPUR",
      "State": "JAMMU AND KASHMIR",
      "Pincode": "182122",
      "Lat": 1,
      "Lng": 1
    },
    {
      "Name": "Sonetar BO",
      "District": "UDHAMPUR",
      "State": "JAMMU AND KASHMIR",
      "Pincode": "182122",
      "Lat": 1,
      "Lng": 1
    },
    {
      "Name": "BADHOLE BO",
      "District": "UDHAMPUR",
      "State": "JAMMU AND KASHMIR",
      "Pincode": "182122",
      "Lat": 1,
      "Lng": 1
    },
    {
      "Name": "Amroh BO",
      "District": "UDHAMPUR",
      "State": "JAMMU AND KASHMIR",
      "Pincode": "182122",
      "Lat": 1,
      "Lng": 1
    },
    {
      "Name": "Kotwalt BO",
      "District": "UDHAMPUR",
      "State": "JAMMU AND KASHMIR",
      "Pincode": "182122",
      "Lat": 1,
      "Lng": 1
    },
    {
      "Name": "Pattangarh BO",
      "District": "UDHAMPUR",
      "State": "JAMMU AND KASHMIR",
      "Pincode": "182122",
      "Lat": 1,
      "Lng": 1
    },
    {
      "Name": "Dhiari BO",
      "District": "UDHAMPUR",
      "State": "JAMMU AND KASHMIR",
      "Pincode": "182122",
      "Lat": 1,
      "Lng": 1
    },
    {
      "Name": "Jandrari BO",
      "District": "UDHAMPUR",
      "State": "JAMMU AND KASHMIR",
      "Pincode": "182122",
      "Lat": 1,
      "Lng": 1
    },
    {
      "Name": "Marta BO",
      "District": "UDHAMPUR",
      "State": "JAMMU AND KASHMIR",
      "Pincode": "182122",
      "Lat": 1,
      "Lng": 1
    },
    {
      "Name": "Rang BO",
      "District": "UDHAMPUR",
      "State": "JAMMU AND KASHMIR",
      "Pincode": "182122",
      "Lat": 1,
      "Lng": 1
    },
    {
      "Name": "Chowki Jandrorh BO",
      "District": "UDHAMPUR",
      "State": "JAMMU AND KASHMIR",
      "Pincode": "182122",
      "Lat": 1,
      "Lng": 1
    },
    {
      "Name": "Dalsar BO",
      "District": "UDHAMPUR",
      "State": "JAMMU AND KASHMIR",
      "Pincode": "182122",
      "Lat": 1,
      "Lng": 1
    },
    {
      "Name": "Dhanwalt BO",
      "District": "UDHAMPUR",
      "State": "JAMMU AND KASHMIR",
      "Pincode": "182122",
      "Lat": 1,
      "Lng": 1
    },
    {
      "Name": "Nagrota Panj Garain BO",
      "District": "UDHAMPUR",
      "State": "JAMMU AND KASHMIR",
      "Pincode": "182122",
      "Lat": 1,
      "Lng": 1
    },
    {
      "Name": "Bari BO",
      "District": "UDHAMPUR",
      "State": "JAMMU AND KASHMIR",
      "Pincode": "182122",
      "Lat": 1,
      "Lng": 1
    },
    {
      "Name": "Nala Ghoria BO",
      "District": "UDHAMPUR",
      "State": "JAMMU AND KASHMIR",
      "Pincode": "182122",
      "Lat": 1,
      "Lng": 1
    },
    {
      "Name": "Sattian BO",
      "District": "UDHAMPUR",
      "State": "JAMMU AND KASHMIR",
      "Pincode": "182122",
      "Lat": 1,
      "Lng": 1
    },
    {
      "Name": "Ramnagar SO Udhampur",
      "District": "UDHAMPUR",
      "State": "JAMMU AND KASHMIR",
      "Pincode": "182122",
      "Lat": 33.0882027,
      "Lng": 74.6984888
    }
  ],
  "182124": [
    {
      "Name": "Hartrian BO",
      "District": "UDHAMPUR",
      "State": "JAMMU AND KASHMIR",
      "Pincode": "182124",
      "Lat": 1,
      "Lng": 1
    },
    {
      "Name": "Jaganoo SO",
      "District": "UDHAMPUR",
      "State": "JAMMU AND KASHMIR",
      "Pincode": "182124",
      "Lat": 32.8805555,
      "Lng": 75.1761666
    },
    {
      "Name": "Johnu BO",
      "District": "UDHAMPUR",
      "State": "JAMMU AND KASHMIR",
      "Pincode": "182124",
      "Lat": 1,
      "Lng": 1
    },
    {
      "Name": "Sermanjla BO",
      "District": "UDHAMPUR",
      "State": "JAMMU AND KASHMIR",
      "Pincode": "182124",
      "Lat": 1,
      "Lng": 1
    },
    {
      "Name": "Barmeen BO",
      "District": "UDHAMPUR",
      "State": "JAMMU AND KASHMIR",
      "Pincode": "182124",
      "Lat": 1,
      "Lng": 1
    },
    {
      "Name": "Chanunta BO",
      "District": "UDHAMPUR",
      "State": "JAMMU AND KASHMIR",
      "Pincode": "182124",
      "Lat": 1,
      "Lng": 1
    },
    {
      "Name": "Dhandal BO",
      "District": "UDHAMPUR",
      "State": "JAMMU AND KASHMIR",
      "Pincode": "182124",
      "Lat": 1,
      "Lng": 1
    },
    {
      "Name": "Kaldi BO",
      "District": "UDHAMPUR",
      "State": "JAMMU AND KASHMIR",
      "Pincode": "182124",
      "Lat": 1,
      "Lng": 1
    }
  ],
  "182125": [
    {
      "Name": "Galiote BO",
      "District": "UDHAMPUR",
      "State": "JAMMU AND KASHMIR",
      "Pincode": "182125",
      "Lat": 1,
      "Lng": 1
    },
    {
      "Name": "Landhar BO",
      "District": "UDHAMPUR",
      "State": "JAMMU AND KASHMIR",
      "Pincode": "182125",
      "Lat": 1,
      "Lng": 1
    },
    {
      "Name": "Panjar BO",
      "District": "UDHAMPUR",
      "State": "JAMMU AND KASHMIR",
      "Pincode": "182125",
      "Lat": 1,
      "Lng": 1
    },
    {
      "Name": "Mir SO",
      "District": "UDHAMPUR",
      "State": "JAMMU AND KASHMIR",
      "Pincode": "182125",
      "Lat": 33.0444,
      "Lng": 75.0815
    },
    {
      "Name": "Mang BO",
      "District": "UDHAMPUR",
      "State": "JAMMU AND KASHMIR",
      "Pincode": "182125",
      "Lat": 33.305413,
      "Lng": 75.061222
    },
    {
      "Name": "Damnote BO",
      "District": "UDHAMPUR",
      "State": "JAMMU AND KASHMIR",
      "Pincode": "182125",
      "Lat": 1,
      "Lng": 1
    },
    {
      "Name": "Mongri BO",
      "District": "UDHAMPUR",
      "State": "JAMMU AND KASHMIR",
      "Pincode": "182125",
      "Lat": 1,
      "Lng": 1
    },
    {
      "Name": "Kainthgali BO",
      "District": "UDHAMPUR",
      "State": "JAMMU AND KASHMIR",
      "Pincode": "182125",
      "Lat": 1,
      "Lng": 1
    },
    {
      "Name": "Kuddal BO",
      "District": "UDHAMPUR",
      "State": "JAMMU AND KASHMIR",
      "Pincode": "182125",
      "Lat": 1,
      "Lng": 1
    },
    {
      "Name": "Ladha BO",
      "District": "UDHAMPUR",
      "State": "JAMMU AND KASHMIR",
      "Pincode": "182125",
      "Lat": 1,
      "Lng": 1
    },
    {
      "Name": "Kalsote BO",
      "District": "UDHAMPUR",
      "State": "JAMMU AND KASHMIR",
      "Pincode": "182125",
      "Lat": 1,
      "Lng": 1
    }
  ],
  "182126": [
    {
      "Name": "Bhatiari BO",
      "District": "UDHAMPUR",
      "State": "JAMMU AND KASHMIR",
      "Pincode": "182126",
      "Lat": 1,
      "Lng": 1
    },
    {
      "Name": "Kuhritti BO",
      "District": "UDHAMPUR",
      "State": "JAMMU AND KASHMIR",
      "Pincode": "182126",
      "Lat": 1,
      "Lng": 1
    },
    {
      "Name": "Chhatriari BO",
      "District": "UDHAMPUR",
      "State": "JAMMU AND KASHMIR",
      "Pincode": "182126",
      "Lat": 33.305413,
      "Lng": 75.061222
    },
    {
      "Name": "Bainsta BO",
      "District": "UDHAMPUR",
      "State": "JAMMU AND KASHMIR",
      "Pincode": "182126",
      "Lat": 1,
      "Lng": 1
    },
    {
      "Name": "Kaghote BO",
      "District": "UDHAMPUR",
      "State": "JAMMU AND KASHMIR",
      "Pincode": "182126",
      "Lat": 1,
      "Lng": 1
    },
    {
      "Name": "Barerian BO",
      "District": "UDHAMPUR",
      "State": "JAMMU AND KASHMIR",
      "Pincode": "182126",
      "Lat": 1,
      "Lng": 1
    },
    {
      "Name": "Roan SO",
      "District": "UDHAMPUR",
      "State": "JAMMU AND KASHMIR",
      "Pincode": "182126",
      "Lat": 32.7241944,
      "Lng": 75.1791111
    }
  ],
  "182127": [
    {
      "Name": "Khoon BO",
      "District": "UDHAMPUR",
      "State": "JAMMU AND KASHMIR",
      "Pincode": "182127",
      "Lat": 1,
      "Lng": 1
    },
    {
      "Name": "Saldhar BO",
      "District": "UDHAMPUR",
      "State": "JAMMU AND KASHMIR",
      "Pincode": "182127",
      "Lat": 33.305413,
      "Lng": 75.061222
    },
    {
      "Name": "Majalta SO",
      "District": "UDHAMPUR",
      "State": "JAMMU AND KASHMIR",
      "Pincode": "182127",
      "Lat": 32.7241944,
      "Lng": 75.1791111
    },
    {
      "Name": "Battal BO",
      "District": "UDHAMPUR",
      "State": "JAMMU AND KASHMIR",
      "Pincode": "182127",
      "Lat": 1,
      "Lng": 1
    },
    {
      "Name": "Peoni BO",
      "District": "UDHAMPUR",
      "State": "JAMMU AND KASHMIR",
      "Pincode": "182127",
      "Lat": 1,
      "Lng": 1
    },
    {
      "Name": "Thalora BO",
      "District": "UDHAMPUR",
      "State": "JAMMU AND KASHMIR",
      "Pincode": "182127",
      "Lat": 1,
      "Lng": 1
    }
  ],
  "182128": [
    {
      "Name": "Jakhed BO",
      "District": "UDHAMPUR",
      "State": "JAMMU AND KASHMIR",
      "Pincode": "182128",
      "Lat": 1,
      "Lng": 1
    },
    {
      "Name": "Siamehri BO",
      "District": "UDHAMPUR",
      "State": "JAMMU AND KASHMIR",
      "Pincode": "182128",
      "Lat": 1,
      "Lng": 1
    },
    {
      "Name": "Joffar BO",
      "District": "UDHAMPUR",
      "State": "JAMMU AND KASHMIR",
      "Pincode": "182128",
      "Lat": 1,
      "Lng": 1
    },
    {
      "Name": "Pachound BO",
      "District": "UDHAMPUR",
      "State": "JAMMU AND KASHMIR",
      "Pincode": "182128",
      "Lat": 1,
      "Lng": 1
    },
    {
      "Name": "Majouri SO",
      "District": "UDHAMPUR",
      "State": "JAMMU AND KASHMIR",
      "Pincode": "182128",
      "Lat": 32.4852,
      "Lng": 75.2911
    },
    {
      "Name": "Dudoo BO",
      "District": "UDHAMPUR",
      "State": "JAMMU AND KASHMIR",
      "Pincode": "182128",
      "Lat": 1,
      "Lng": 1
    },
    {
      "Name": "Khaned BO",
      "District": "UDHAMPUR",
      "State": "JAMMU AND KASHMIR",
      "Pincode": "182128",
      "Lat": 1,
      "Lng": 1
    },
    {
      "Name": "Basantgarh BO",
      "District": "UDHAMPUR",
      "State": "JAMMU AND KASHMIR",
      "Pincode": "182128",
      "Lat": 1,
      "Lng": 1
    },
    {
      "Name": "Keya BO",
      "District": "UDHAMPUR",
      "State": "JAMMU AND KASHMIR",
      "Pincode": "182128",
      "Lat": 1,
      "Lng": 1
    },
    {
      "Name": "Sangar BO",
      "District": "UDHAMPUR",
      "State": "JAMMU AND KASHMIR",
      "Pincode": "182128",
      "Lat": 33.305413,
      "Lng": 75.061222
    }
  ],
  "182129": [
    {
      "Name": "Bhart BO",
      "District": "DODA",
      "State": "JAMMU AND KASHMIR",
      "Pincode": "182129",
      "Lat": 33.305413,
      "Lng": 75.061222
    }
  ],
  "182130": [
    {
      "Name": "Sharanwan BO",
      "District": "UDHAMPUR",
      "State": "JAMMU AND KASHMIR",
      "Pincode": "182130",
      "Lat": 33.305413,
      "Lng": 75.061222
    }
  ],
  "182131": [
    {
      "Name": "Tipri BO",
      "District": "DODA",
      "State": "JAMMU AND KASHMIR",
      "Pincode": "182131",
      "Lat": 33.305413,
      "Lng": 75.061222
    }
  ],
  "182132": [
    {
      "Name": "Kither BO",
      "District": "KISHTWAR",
      "State": "JAMMU AND KASHMIR",
      "Pincode": "182132",
      "Lat": 33.305413,
      "Lng": 75.061222
    }
  ],
  "182133": [
    {
      "Name": "Sukhnai BO",
      "District": "KISHTWAR",
      "State": "JAMMU AND KASHMIR",
      "Pincode": "182133",
      "Lat": 33.305413,
      "Lng": 75.061222
    }
  ],
  "182134": [
    {
      "Name": "Gumri BO",
      "District": "KISHTWAR",
      "State": "JAMMU AND KASHMIR",
      "Pincode": "182134",
      "Lat": 33.305413,
      "Lng": 75.061222
    }
  ],
  "182135": [
    {
      "Name": "Rinaie BO",
      "District": "KISHTWAR",
      "State": "JAMMU AND KASHMIR",
      "Pincode": "182135",
      "Lat": 33.305413,
      "Lng": 75.061222
    }
  ],
  "182136": [
    {
      "Name": "Deherna BO",
      "District": "KISHTWAR",
      "State": "JAMMU AND KASHMIR",
      "Pincode": "182136",
      "Lat": 33.305413,
      "Lng": 75.061222
    }
  ],
  "182137": [
    {
      "Name": "Kadail BO",
      "District": "KISHTWAR",
      "State": "JAMMU AND KASHMIR",
      "Pincode": "182137",
      "Lat": 33.305413,
      "Lng": 75.061222
    }
  ],
  "182138": [
    {
      "Name": "Palali BO",
      "District": "KISHTWAR",
      "State": "JAMMU AND KASHMIR",
      "Pincode": "182138",
      "Lat": 33.305413,
      "Lng": 75.061222
    }
  ],
  "182139": [
    {
      "Name": "Garh Padder BO",
      "District": "KISHTWAR",
      "State": "JAMMU AND KASHMIR",
      "Pincode": "182139",
      "Lat": 33.305413,
      "Lng": 75.061222
    }
  ],
  "182140": [
    {
      "Name": "Kaban BO",
      "District": "KISHTWAR",
      "State": "JAMMU AND KASHMIR",
      "Pincode": "182140",
      "Lat": 33.305413,
      "Lng": 75.061222
    }
  ],
  "182141": [
    {
      "Name": "Bain BO",
      "District": "UDHAMPUR",
      "State": "JAMMU AND KASHMIR",
      "Pincode": "182141",
      "Lat": 1,
      "Lng": 1
    },
    {
      "Name": "Basahat BO",
      "District": "UDHAMPUR",
      "State": "JAMMU AND KASHMIR",
      "Pincode": "182141",
      "Lat": 1,
      "Lng": 1
    },
    {
      "Name": "Ladha BO",
      "District": "UDHAMPUR",
      "State": "JAMMU AND KASHMIR",
      "Pincode": "182141",
      "Lat": 1,
      "Lng": 1
    },
    {
      "Name": "Charat BO",
      "District": "UDHAMPUR",
      "State": "JAMMU AND KASHMIR",
      "Pincode": "182141",
      "Lat": 1,
      "Lng": 1
    },
    {
      "Name": "Ongayee BO",
      "District": "UDHAMPUR",
      "State": "JAMMU AND KASHMIR",
      "Pincode": "182141",
      "Lat": 33.305413,
      "Lng": 75.061222
    },
    {
      "Name": "Dhanas BO",
      "District": "UDHAMPUR",
      "State": "JAMMU AND KASHMIR",
      "Pincode": "182141",
      "Lat": 1,
      "Lng": 1
    },
    {
      "Name": "Pakhlai BO",
      "District": "UDHAMPUR",
      "State": "JAMMU AND KASHMIR",
      "Pincode": "182141",
      "Lat": 1,
      "Lng": 1
    },
    {
      "Name": "Samroli BO",
      "District": "UDHAMPUR",
      "State": "JAMMU AND KASHMIR",
      "Pincode": "182141",
      "Lat": 1,
      "Lng": 1
    },
    {
      "Name": "Chenani SO",
      "District": "UDHAMPUR",
      "State": "JAMMU AND KASHMIR",
      "Pincode": "182141",
      "Lat": 33.0389444,
      "Lng": 75.2846944
    },
    {
      "Name": "Kithar BO",
      "District": "UDHAMPUR",
      "State": "JAMMU AND KASHMIR",
      "Pincode": "182141",
      "Lat": 1,
      "Lng": 1
    },
    {
      "Name": "Nagulta BO",
      "District": "UDHAMPUR",
      "State": "JAMMU AND KASHMIR",
      "Pincode": "182141",
      "Lat": 1,
      "Lng": 1
    },
    {
      "Name": "Satuyalta BO",
      "District": "UDHAMPUR",
      "State": "JAMMU AND KASHMIR",
      "Pincode": "182141",
      "Lat": 1,
      "Lng": 1
    },
    {
      "Name": "Sudhmahadev BO",
      "District": "UDHAMPUR",
      "State": "JAMMU AND KASHMIR",
      "Pincode": "182141",
      "Lat": 1,
      "Lng": 1
    }
  ],
  "182142": [
    {
      "Name": "Ishtahari BO",
      "District": "UDHAMPUR",
      "State": "JAMMU AND KASHMIR",
      "Pincode": "182142",
      "Lat": 33.305413,
      "Lng": 75.061222
    },
    {
      "Name": "Madha BO",
      "District": "UDHAMPUR",
      "State": "JAMMU AND KASHMIR",
      "Pincode": "182142",
      "Lat": 1,
      "Lng": 1
    },
    {
      "Name": "Karlah BO",
      "District": "UDHAMPUR",
      "State": "JAMMU AND KASHMIR",
      "Pincode": "182142",
      "Lat": 1,
      "Lng": 1
    },
    {
      "Name": "Sangote BO",
      "District": "UDHAMPUR",
      "State": "JAMMU AND KASHMIR",
      "Pincode": "182142",
      "Lat": 1,
      "Lng": 1
    },
    {
      "Name": "Kud SO",
      "District": "UDHAMPUR",
      "State": "JAMMU AND KASHMIR",
      "Pincode": "182142",
      "Lat": 33.0768889,
      "Lng": 75.2934167
    }
  ],
  "182143": [
    {
      "Name": "Ranka BO",
      "District": "DODA",
      "State": "JAMMU AND KASHMIR",
      "Pincode": "182143",
      "Lat": 1,
      "Lng": 1
    },
    {
      "Name": "Samthi BO",
      "District": "DODA",
      "State": "JAMMU AND KASHMIR",
      "Pincode": "182143",
      "Lat": 1,
      "Lng": 1
    },
    {
      "Name": "Batote SO",
      "District": "RAMBAN",
      "State": "JAMMU AND KASHMIR",
      "Pincode": "182143",
      "Lat": 33.1216667,
      "Lng": 75.3233611
    },
    {
      "Name": "Thopal BO",
      "District": "RAMBAN",
      "State": "JAMMU AND KASHMIR",
      "Pincode": "182143",
      "Lat": 1,
      "Lng": 1
    },
    {
      "Name": "Tringla BO",
      "District": "RAMBAN",
      "State": "JAMMU AND KASHMIR",
      "Pincode": "182143",
      "Lat": 1,
      "Lng": 1
    },
    {
      "Name": "Kidru BO",
      "District": "DODA",
      "State": "JAMMU AND KASHMIR",
      "Pincode": "182143",
      "Lat": 33.305413,
      "Lng": 75.061222
    },
    {
      "Name": "Assar BO",
      "District": "DODA",
      "State": "JAMMU AND KASHMIR",
      "Pincode": "182143",
      "Lat": 1,
      "Lng": 1
    },
    {
      "Name": "Baggar BO",
      "District": "RAMBAN",
      "State": "JAMMU AND KASHMIR",
      "Pincode": "182143",
      "Lat": 1,
      "Lng": 1
    },
    {
      "Name": "Sanasar BO",
      "District": "RAMBAN",
      "State": "JAMMU AND KASHMIR",
      "Pincode": "182143",
      "Lat": 1,
      "Lng": 1
    },
    {
      "Name": "Trungal BO",
      "District": "DODA",
      "State": "JAMMU AND KASHMIR",
      "Pincode": "182143",
      "Lat": 1,
      "Lng": 1
    }
  ],
  "182144": [
    {
      "Name": "Dalwah BO",
      "District": "RAMBAN",
      "State": "JAMMU AND KASHMIR",
      "Pincode": "182144",
      "Lat": 1,
      "Lng": 1
    },
    {
      "Name": "Gandhari BO",
      "District": "RAMBAN",
      "State": "JAMMU AND KASHMIR",
      "Pincode": "182144",
      "Lat": 1,
      "Lng": 1
    },
    {
      "Name": "Gool BO",
      "District": "RAMBAN",
      "State": "JAMMU AND KASHMIR",
      "Pincode": "182144",
      "Lat": 1,
      "Lng": 1
    },
    {
      "Name": "Ind BO",
      "District": "RAMBAN",
      "State": "JAMMU AND KASHMIR",
      "Pincode": "182144",
      "Lat": 1,
      "Lng": 1
    },
    {
      "Name": "Kanga BO",
      "District": "RAMBAN",
      "State": "JAMMU AND KASHMIR",
      "Pincode": "182144",
      "Lat": 1,
      "Lng": 1
    },
    {
      "Name": "Maitra Bazar BO",
      "District": "RAMBAN",
      "State": "JAMMU AND KASHMIR",
      "Pincode": "182144",
      "Lat": 1,
      "Lng": 1
    },
    {
      "Name": "Sangaldhan BO",
      "District": "RAMBAN",
      "State": "JAMMU AND KASHMIR",
      "Pincode": "182144",
      "Lat": 1,
      "Lng": 1
    },
    {
      "Name": "Bhehimdasa BO",
      "District": "RAMBAN",
      "State": "JAMMU AND KASHMIR",
      "Pincode": "182144",
      "Lat": 33.305413,
      "Lng": 75.061222
    },
    {
      "Name": "Bhatni BO",
      "District": "RAMBAN",
      "State": "JAMMU AND KASHMIR",
      "Pincode": "182144",
      "Lat": 1,
      "Lng": 1
    },
    {
      "Name": "Chachwa BO",
      "District": "RAMBAN",
      "State": "JAMMU AND KASHMIR",
      "Pincode": "182144",
      "Lat": 1,
      "Lng": 1
    },
    {
      "Name": "Deedah BO",
      "District": "RAMBAN",
      "State": "JAMMU AND KASHMIR",
      "Pincode": "182144",
      "Lat": 1,
      "Lng": 1
    },
    {
      "Name": "Dharamkund BO",
      "District": "RAMBAN",
      "State": "JAMMU AND KASHMIR",
      "Pincode": "182144",
      "Lat": 1,
      "Lng": 1
    },
    {
      "Name": "Thatharka BO",
      "District": "RAMBAN",
      "State": "JAMMU AND KASHMIR",
      "Pincode": "182144",
      "Lat": 1,
      "Lng": 1
    },
    {
      "Name": "Ramban SO",
      "District": "RAMBAN",
      "State": "JAMMU AND KASHMIR",
      "Pincode": "182144",
      "Lat": 33.1429,
      "Lng": 75.1402
    }
  ],
  "182145": [
    {
      "Name": "Alambas BO",
      "District": "RAMBAN",
      "State": "JAMMU AND KASHMIR",
      "Pincode": "182145",
      "Lat": 1,
      "Lng": 1
    },
    {
      "Name": "Khorial BO",
      "District": "RAMBAN",
      "State": "JAMMU AND KASHMIR",
      "Pincode": "182145",
      "Lat": 1,
      "Lng": 1
    },
    {
      "Name": "Batroo BO",
      "District": "RAMBAN",
      "State": "JAMMU AND KASHMIR",
      "Pincode": "182145",
      "Lat": 1,
      "Lng": 1
    },
    {
      "Name": "Pogal BO",
      "District": "RAMBAN",
      "State": "JAMMU AND KASHMIR",
      "Pincode": "182145",
      "Lat": 1,
      "Lng": 1
    },
    {
      "Name": "Tarigam BO",
      "District": "RAMBAN",
      "State": "JAMMU AND KASHMIR",
      "Pincode": "182145",
      "Lat": 1,
      "Lng": 1
    },
    {
      "Name": "Ramsu SO",
      "District": "RAMBAN",
      "State": "JAMMU AND KASHMIR",
      "Pincode": "182145",
      "Lat": 32.2009,
      "Lng": 75.1133
    },
    {
      "Name": "Khari BO",
      "District": "RAMBAN",
      "State": "JAMMU AND KASHMIR",
      "Pincode": "182145",
      "Lat": 1,
      "Lng": 1
    },
    {
      "Name": "Hoochak BO",
      "District": "RAMBAN",
      "State": "JAMMU AND KASHMIR",
      "Pincode": "182145",
      "Lat": 1,
      "Lng": 1
    },
    {
      "Name": "Maligam BO",
      "District": "RAMBAN",
      "State": "JAMMU AND KASHMIR",
      "Pincode": "182145",
      "Lat": 1,
      "Lng": 1
    },
    {
      "Name": "Paristan BO",
      "District": "RAMBAN",
      "State": "JAMMU AND KASHMIR",
      "Pincode": "182145",
      "Lat": 1,
      "Lng": 1
    }
  ],
  "182146": [
    {
      "Name": "Mahu BO",
      "District": "RAMBAN",
      "State": "JAMMU AND KASHMIR",
      "Pincode": "182146",
      "Lat": 1,
      "Lng": 1
    },
    {
      "Name": "Parindhar BO",
      "District": "RAMBAN",
      "State": "JAMMU AND KASHMIR",
      "Pincode": "182146",
      "Lat": 1,
      "Lng": 1
    },
    {
      "Name": "Banihal SO",
      "District": "RAMBAN",
      "State": "JAMMU AND KASHMIR",
      "Pincode": "182146",
      "Lat": 33.2611,
      "Lng": 75.1145
    },
    {
      "Name": "Chambalwas BO",
      "District": "RAMBAN",
      "State": "JAMMU AND KASHMIR",
      "Pincode": "182146",
      "Lat": 1,
      "Lng": 1
    },
    {
      "Name": "Chareel BO",
      "District": "RAMBAN",
      "State": "JAMMU AND KASHMIR",
      "Pincode": "182146",
      "Lat": 1,
      "Lng": 1
    },
    {
      "Name": "NOWGAM BO",
      "District": "RAMBAN",
      "State": "JAMMU AND KASHMIR",
      "Pincode": "182146",
      "Lat": 33.437013,
      "Lng": 75.193935
    },
    {
      "Name": "Kaskoot BO",
      "District": "RAMBAN",
      "State": "JAMMU AND KASHMIR",
      "Pincode": "182146",
      "Lat": 1,
      "Lng": 1
    },
    {
      "Name": "Neel BO",
      "District": "RAMBAN",
      "State": "JAMMU AND KASHMIR",
      "Pincode": "182146",
      "Lat": 1,
      "Lng": 1
    },
    {
      "Name": "Thathar BO",
      "District": "RAMBAN",
      "State": "JAMMU AND KASHMIR",
      "Pincode": "182146",
      "Lat": 1,
      "Lng": 1
    },
    {
      "Name": "Duligam BO",
      "District": "RAMBAN",
      "State": "JAMMU AND KASHMIR",
      "Pincode": "182146",
      "Lat": 1,
      "Lng": 1
    },
    {
      "Name": "Mangat BO",
      "District": "RAMBAN",
      "State": "JAMMU AND KASHMIR",
      "Pincode": "182146",
      "Lat": 1,
      "Lng": 1
    }
  ],
  "182147": [
    {
      "Name": "Dhandal BO",
      "District": "DODA",
      "State": "JAMMU AND KASHMIR",
      "Pincode": "182147",
      "Lat": 1,
      "Lng": 1
    },
    {
      "Name": "Ganika BO",
      "District": "DODA",
      "State": "JAMMU AND KASHMIR",
      "Pincode": "182147",
      "Lat": 1,
      "Lng": 1
    },
    {
      "Name": "Mundhar BO",
      "District": "DODA",
      "State": "JAMMU AND KASHMIR",
      "Pincode": "182147",
      "Lat": 1,
      "Lng": 1
    },
    {
      "Name": "Kastigarh SO",
      "District": "DODA",
      "State": "JAMMU AND KASHMIR",
      "Pincode": "182147",
      "Lat": 33.093,
      "Lng": 75.27
    }
  ],
  "182148": [
    {
      "Name": "Neera BO",
      "District": "RAMBAN",
      "State": "JAMMU AND KASHMIR",
      "Pincode": "182148",
      "Lat": 1,
      "Lng": 1
    },
    {
      "Name": "Kainthi BO",
      "District": "RAMBAN",
      "State": "JAMMU AND KASHMIR",
      "Pincode": "182148",
      "Lat": 1,
      "Lng": 1
    },
    {
      "Name": "Chanderkot SO",
      "District": "RAMBAN",
      "State": "JAMMU AND KASHMIR",
      "Pincode": "182148",
      "Lat": 33.1929167,
      "Lng": 75.3024444
    },
    {
      "Name": "Bhartund BO",
      "District": "RAMBAN",
      "State": "JAMMU AND KASHMIR",
      "Pincode": "182148",
      "Lat": 1,
      "Lng": 1
    },
    {
      "Name": "Halla BO",
      "District": "RAMBAN",
      "State": "JAMMU AND KASHMIR",
      "Pincode": "182148",
      "Lat": 1,
      "Lng": 1
    },
    {
      "Name": "Sawni BO",
      "District": "RAMBAN",
      "State": "JAMMU AND KASHMIR",
      "Pincode": "182148",
      "Lat": 1,
      "Lng": 1
    },
    {
      "Name": "Chakka BO",
      "District": "RAMBAN",
      "State": "JAMMU AND KASHMIR",
      "Pincode": "182148",
      "Lat": "NA",
      "Lng": "NA"
    },
    {
      "Name": "Kundi Karol BO",
      "District": "RAMBAN",
      "State": "JAMMU AND KASHMIR",
      "Pincode": "182148",
      "Lat": "NA",
      "Lng": "NA"
    },
    {
      "Name": "Peera BO",
      "District": "RAMBAN",
      "State": "JAMMU AND KASHMIR",
      "Pincode": "182148",
      "Lat": 1,
      "Lng": 1
    },
    {
      "Name": "Topnel Chuchtar BO",
      "District": "RAMBAN",
      "State": "JAMMU AND KASHMIR",
      "Pincode": "182148",
      "Lat": "NA",
      "Lng": "NA"
    }
  ],
  "182161": [
    {
      "Name": "Bapp BO",
      "District": "UDHAMPUR",
      "State": "JAMMU AND KASHMIR",
      "Pincode": "182161",
      "Lat": 1,
      "Lng": 1
    },
    {
      "Name": "Mantalai SO",
      "District": "UDHAMPUR",
      "State": "JAMMU AND KASHMIR",
      "Pincode": "182161",
      "Lat": 33.0013,
      "Lng": 75.2133
    },
    {
      "Name": "BANDHOLE BO",
      "District": "UDHAMPUR",
      "State": "JAMMU AND KASHMIR",
      "Pincode": "182161",
      "Lat": 1,
      "Lng": 1
    }
  ],
  "182201": [
    {
      "Name": "Dhara BO",
      "District": "DODA",
      "State": "JAMMU AND KASHMIR",
      "Pincode": "182201",
      "Lat": 1,
      "Lng": 1
    },
    {
      "Name": "Mangota BO",
      "District": "DODA",
      "State": "JAMMU AND KASHMIR",
      "Pincode": "182201",
      "Lat": 1,
      "Lng": 1
    },
    {
      "Name": "Manlnai BO",
      "District": "DODA",
      "State": "JAMMU AND KASHMIR",
      "Pincode": "182201",
      "Lat": 1,
      "Lng": 1
    },
    {
      "Name": "Nai Bhalara BO",
      "District": "DODA",
      "State": "JAMMU AND KASHMIR",
      "Pincode": "182201",
      "Lat": 1,
      "Lng": 1
    },
    {
      "Name": "Rukali BO",
      "District": "DODA",
      "State": "JAMMU AND KASHMIR",
      "Pincode": "182201",
      "Lat": 1,
      "Lng": 1
    },
    {
      "Name": "Shiva BO",
      "District": "DODA",
      "State": "JAMMU AND KASHMIR",
      "Pincode": "182201",
      "Lat": 1,
      "Lng": 1
    },
    {
      "Name": "Jogote BO",
      "District": "DODA",
      "State": "JAMMU AND KASHMIR",
      "Pincode": "182201",
      "Lat": 1,
      "Lng": 1
    },
    {
      "Name": "Sindra BO",
      "District": "DODA",
      "State": "JAMMU AND KASHMIR",
      "Pincode": "182201",
      "Lat": 1,
      "Lng": 1
    },
    {
      "Name": "TrOwn BO",
      "District": "DODA",
      "State": "JAMMU AND KASHMIR",
      "Pincode": "182201",
      "Lat": 1,
      "Lng": 1
    },
    {
      "Name": "Goha BO",
      "District": "DODA",
      "State": "JAMMU AND KASHMIR",
      "Pincode": "182201",
      "Lat": 1,
      "Lng": 1
    },
    {
      "Name": "Bari BO",
      "District": "NA",
      "State": "NA",
      "Pincode": "182201",
      "Lat": "NA",
      "Lng": "NA"
    },
    {
      "Name": "Bhalla BO",
      "District": "DODA",
      "State": "JAMMU AND KASHMIR",
      "Pincode": "182201",
      "Lat": 1,
      "Lng": 1
    },
    {
      "Name": "Malhota BO",
      "District": "DODA",
      "State": "JAMMU AND KASHMIR",
      "Pincode": "182201",
      "Lat": 1,
      "Lng": 1
    },
    {
      "Name": "Matindal BO",
      "District": "DODA",
      "State": "JAMMU AND KASHMIR",
      "Pincode": "182201",
      "Lat": 1,
      "Lng": 1
    },
    {
      "Name": "Mohalla BO",
      "District": "DODA",
      "State": "JAMMU AND KASHMIR",
      "Pincode": "182201",
      "Lat": 1,
      "Lng": 1
    },
    {
      "Name": "Premnagar BO",
      "District": "DODA",
      "State": "JAMMU AND KASHMIR",
      "Pincode": "182201",
      "Lat": 1,
      "Lng": 1
    },
    {
      "Name": "Roat BO",
      "District": "DODA",
      "State": "JAMMU AND KASHMIR",
      "Pincode": "182201",
      "Lat": 1,
      "Lng": 1
    },
    {
      "Name": "Chirala BO",
      "District": "DODA",
      "State": "JAMMU AND KASHMIR",
      "Pincode": "182201",
      "Lat": 1,
      "Lng": 1
    },
    {
      "Name": "Humble BO",
      "District": "DODA",
      "State": "JAMMU AND KASHMIR",
      "Pincode": "182201",
      "Lat": 1,
      "Lng": 1
    },
    {
      "Name": "Malhori BO",
      "District": "DODA",
      "State": "JAMMU AND KASHMIR",
      "Pincode": "182201",
      "Lat": 1,
      "Lng": 1
    },
    {
      "Name": "Khellani SO",
      "District": "DODA",
      "State": "JAMMU AND KASHMIR",
      "Pincode": "182201",
      "Lat": 33.14057,
      "Lng": 75.555689
    }
  ],
  "182202": [
    {
      "Name": "Bhagwa BO",
      "District": "DODA",
      "State": "JAMMU AND KASHMIR",
      "Pincode": "182202",
      "Lat": 1,
      "Lng": 1
    },
    {
      "Name": "Jodhpur BO",
      "District": "DODA",
      "State": "JAMMU AND KASHMIR",
      "Pincode": "182202",
      "Lat": 1,
      "Lng": 1
    },
    {
      "Name": "Bajarni BO",
      "District": "DODA",
      "State": "JAMMU AND KASHMIR",
      "Pincode": "182202",
      "Lat": 1,
      "Lng": 1
    },
    {
      "Name": "Dashnan BO",
      "District": "DODA",
      "State": "JAMMU AND KASHMIR",
      "Pincode": "182202",
      "Lat": 1,
      "Lng": 1
    },
    {
      "Name": "Dessa BO",
      "District": "DODA",
      "State": "JAMMU AND KASHMIR",
      "Pincode": "182202",
      "Lat": 1,
      "Lng": 1
    },
    {
      "Name": "Beoli BO",
      "District": "DODA",
      "State": "JAMMU AND KASHMIR",
      "Pincode": "182202",
      "Lat": 1,
      "Lng": 1
    },
    {
      "Name": "Ghat BO",
      "District": "DODA",
      "State": "JAMMU AND KASHMIR",
      "Pincode": "182202",
      "Lat": 1,
      "Lng": 1
    },
    {
      "Name": "Gundna BO",
      "District": "DODA",
      "State": "JAMMU AND KASHMIR",
      "Pincode": "182202",
      "Lat": 1,
      "Lng": 1
    },
    {
      "Name": "Udyanpur BO",
      "District": "DODA",
      "State": "JAMMU AND KASHMIR",
      "Pincode": "182202",
      "Lat": 1,
      "Lng": 1
    },
    {
      "Name": "Doda SO Doda",
      "District": "DODA",
      "State": "JAMMU AND KASHMIR",
      "Pincode": "182202",
      "Lat": 33.14057,
      "Lng": 75.555689
    }
  ],
  "182203": [
    {
      "Name": "Inharrah BO",
      "District": "DODA",
      "State": "JAMMU AND KASHMIR",
      "Pincode": "182203",
      "Lat": 1,
      "Lng": 1
    },
    {
      "Name": "Kilhotran BO",
      "District": "DODA",
      "State": "JAMMU AND KASHMIR",
      "Pincode": "182203",
      "Lat": 1,
      "Lng": 1
    },
    {
      "Name": "Nodinalla BO",
      "District": "DODA",
      "State": "JAMMU AND KASHMIR",
      "Pincode": "182203",
      "Lat": 1,
      "Lng": 1
    },
    {
      "Name": "Thathri SO",
      "District": "DODA",
      "State": "JAMMU AND KASHMIR",
      "Pincode": "182203",
      "Lat": 23.08441,
      "Lng": 75.4733
    },
    {
      "Name": "Chilli BO",
      "District": "DODA",
      "State": "JAMMU AND KASHMIR",
      "Pincode": "182203",
      "Lat": 1,
      "Lng": 1
    },
    {
      "Name": "Kaljugasar BO",
      "District": "DODA",
      "State": "JAMMU AND KASHMIR",
      "Pincode": "182203",
      "Lat": 1,
      "Lng": 1
    },
    {
      "Name": "Dhosa BO",
      "District": "DODA",
      "State": "JAMMU AND KASHMIR",
      "Pincode": "182203",
      "Lat": 1,
      "Lng": 1
    },
    {
      "Name": "Jakyas BO",
      "District": "DODA",
      "State": "JAMMU AND KASHMIR",
      "Pincode": "182203",
      "Lat": 1,
      "Lng": 1
    },
    {
      "Name": "Malanoo BO",
      "District": "DODA",
      "State": "JAMMU AND KASHMIR",
      "Pincode": "182203",
      "Lat": 1,
      "Lng": 1
    },
    {
      "Name": "Banoon BO",
      "District": "KISHTWAR",
      "State": "JAMMU AND KASHMIR",
      "Pincode": "182203",
      "Lat": 1,
      "Lng": 1
    },
    {
      "Name": "Chunri BO",
      "District": "DODA",
      "State": "JAMMU AND KASHMIR",
      "Pincode": "182203",
      "Lat": 1,
      "Lng": 1
    },
    {
      "Name": "Jaura BO",
      "District": "DODA",
      "State": "JAMMU AND KASHMIR",
      "Pincode": "182203",
      "Lat": 1,
      "Lng": 1
    }
  ],
  "182204": [
    {
      "Name": "Gulabgarh BO",
      "District": "KISHTWAR",
      "State": "JAMMU AND KASHMIR",
      "Pincode": "182204",
      "Lat": 1,
      "Lng": 1
    },
    {
      "Name": "Padar BO",
      "District": "KISHTWAR",
      "State": "JAMMU AND KASHMIR",
      "Pincode": "182204",
      "Lat": 1,
      "Lng": 1
    },
    {
      "Name": "MASSU BO",
      "District": "KISHTWAR",
      "State": "JAMMU AND KASHMIR",
      "Pincode": "182204",
      "Lat": 33.268402,
      "Lng": 76.1713
    },
    {
      "Name": "Dool BO",
      "District": "KISHTWAR",
      "State": "JAMMU AND KASHMIR",
      "Pincode": "182204",
      "Lat": 1,
      "Lng": 1
    },
    {
      "Name": "Galhar BO",
      "District": "KISHTWAR",
      "State": "JAMMU AND KASHMIR",
      "Pincode": "182204",
      "Lat": 1,
      "Lng": 1
    },
    {
      "Name": "Badhat BO",
      "District": "KISHTWAR",
      "State": "JAMMU AND KASHMIR",
      "Pincode": "182204",
      "Lat": 1,
      "Lng": 1
    },
    {
      "Name": "Kandni BO",
      "District": "KISHTWAR",
      "State": "JAMMU AND KASHMIR",
      "Pincode": "182204",
      "Lat": 1,
      "Lng": 1
    },
    {
      "Name": "Kuttal BO",
      "District": "KISHTWAR",
      "State": "JAMMU AND KASHMIR",
      "Pincode": "182204",
      "Lat": 1,
      "Lng": 1
    },
    {
      "Name": "Pochhal BO",
      "District": "KISHTWAR",
      "State": "JAMMU AND KASHMIR",
      "Pincode": "182204",
      "Lat": 1,
      "Lng": 1
    },
    {
      "Name": "Kukerwas BO",
      "District": "KISHTWAR",
      "State": "JAMMU AND KASHMIR",
      "Pincode": "182204",
      "Lat": 1,
      "Lng": 1
    },
    {
      "Name": "Mandel BO",
      "District": "KISHTWAR",
      "State": "JAMMU AND KASHMIR",
      "Pincode": "182204",
      "Lat": 1,
      "Lng": 1
    },
    {
      "Name": "Sarthal BO",
      "District": "KISHTWAR",
      "State": "JAMMU AND KASHMIR",
      "Pincode": "182204",
      "Lat": 1,
      "Lng": 1
    },
    {
      "Name": "Kishtwar SO",
      "District": "KISHTWAR",
      "State": "JAMMU AND KASHMIR",
      "Pincode": "182204",
      "Lat": 32.5941,
      "Lng": 75.42
    }
  ],
  "182205": [
    {
      "Name": "Aftee BO",
      "District": "KISHTWAR",
      "State": "JAMMU AND KASHMIR",
      "Pincode": "182205",
      "Lat": 1,
      "Lng": 1
    },
    {
      "Name": "Chhatroo BO",
      "District": "KISHTWAR",
      "State": "JAMMU AND KASHMIR",
      "Pincode": "182205",
      "Lat": 1,
      "Lng": 1
    },
    {
      "Name": "Dachhan BO",
      "District": "KISHTWAR",
      "State": "JAMMU AND KASHMIR",
      "Pincode": "182205",
      "Lat": 1,
      "Lng": 1
    },
    {
      "Name": "Tagood BO",
      "District": "KISHTWAR",
      "State": "JAMMU AND KASHMIR",
      "Pincode": "182205",
      "Lat": 1,
      "Lng": 1
    },
    {
      "Name": "Mugal Maidan BO",
      "District": "KISHTWAR",
      "State": "JAMMU AND KASHMIR",
      "Pincode": "182205",
      "Lat": 1,
      "Lng": 1
    },
    {
      "Name": "Sigdi BO",
      "District": "KISHTWAR",
      "State": "JAMMU AND KASHMIR",
      "Pincode": "182205",
      "Lat": 1,
      "Lng": 1
    },
    {
      "Name": "Chingam BO",
      "District": "KISHTWAR",
      "State": "JAMMU AND KASHMIR",
      "Pincode": "182205",
      "Lat": 1,
      "Lng": 1
    },
    {
      "Name": "Inderwal BO",
      "District": "KISHTWAR",
      "State": "JAMMU AND KASHMIR",
      "Pincode": "182205",
      "Lat": 1,
      "Lng": 1
    },
    {
      "Name": "Nowpachi BO",
      "District": "KISHTWAR",
      "State": "JAMMU AND KASHMIR",
      "Pincode": "182205",
      "Lat": 1,
      "Lng": 1
    },
    {
      "Name": "Thakrai BO",
      "District": "KISHTWAR",
      "State": "JAMMU AND KASHMIR",
      "Pincode": "182205",
      "Lat": 1,
      "Lng": 1
    },
    {
      "Name": "Palmar SO",
      "District": "KISHTWAR",
      "State": "JAMMU AND KASHMIR",
      "Pincode": "182205",
      "Lat": 33.2252,
      "Lng": 75.4327
    }
  ],
  "182206": [
    {
      "Name": "Dul Hasti Project SO",
      "District": "KISHTWAR",
      "State": "JAMMU AND KASHMIR",
      "Pincode": "182206",
      "Lat": 33.1844,
      "Lng": 75.4639
    }
  ],
  "182207": [
    {
      "Name": "GANDOH SO",
      "District": "DODA",
      "State": "JAMMU AND KASHMIR",
      "Pincode": "182207",
      "Lat": 33.1352657,
      "Lng": 75.5174733
    }
  ],
  "182221": [
    {
      "Name": "Kursari BO",
      "District": "DODA",
      "State": "JAMMU AND KASHMIR",
      "Pincode": "182221",
      "Lat": 1,
      "Lng": 1
    },
    {
      "Name": "Udrana SO",
      "District": "DODA",
      "State": "JAMMU AND KASHMIR",
      "Pincode": "182221",
      "Lat": 33.14057,
      "Lng": 75.555689
    },
    {
      "Name": "Malhoti BO",
      "District": "DODA",
      "State": "JAMMU AND KASHMIR",
      "Pincode": "182221",
      "Lat": 1,
      "Lng": 1
    },
    {
      "Name": "Bhalra BO",
      "District": "DODA",
      "State": "JAMMU AND KASHMIR",
      "Pincode": "182221",
      "Lat": 1,
      "Lng": 1
    },
    {
      "Name": "GAJOTH BO",
      "District": "DODA",
      "State": "JAMMU AND KASHMIR",
      "Pincode": "182221",
      "Lat": 33.051308,
      "Lng": 75.650662
    },
    {
      "Name": "Bhalla BO",
      "District": "DODA",
      "State": "JAMMU AND KASHMIR",
      "Pincode": "182221",
      "Lat": 1,
      "Lng": 1
    },
    {
      "Name": "Chattarsori BO",
      "District": "DODA",
      "State": "JAMMU AND KASHMIR",
      "Pincode": "182221",
      "Lat": 1,
      "Lng": 1
    }
  ],
  "182222": [
    {
      "Name": "Chanichinta BO",
      "District": "DODA",
      "State": "JAMMU AND KASHMIR",
      "Pincode": "182222",
      "Lat": 1,
      "Lng": 1
    },
    {
      "Name": "Katyara BO",
      "District": "DODA",
      "State": "JAMMU AND KASHMIR",
      "Pincode": "182222",
      "Lat": 1,
      "Lng": 1
    },
    {
      "Name": "Bhaderwah SO",
      "District": "DODA",
      "State": "JAMMU AND KASHMIR",
      "Pincode": "182222",
      "Lat": 32.5848,
      "Lng": 75.4305
    },
    {
      "Name": "Sungli Sartingal BO",
      "District": "DODA",
      "State": "JAMMU AND KASHMIR",
      "Pincode": "182222",
      "Lat": 1,
      "Lng": 1
    }
  ],
  "182301": [
    {
      "Name": "Adhkawari BO",
      "District": "REASI",
      "State": "JAMMU AND KASHMIR",
      "Pincode": "182301",
      "Lat": 1,
      "Lng": 1
    },
    {
      "Name": "Dera Baba Banda BO",
      "District": "REASI",
      "State": "JAMMU AND KASHMIR",
      "Pincode": "182301",
      "Lat": 1,
      "Lng": 1
    },
    {
      "Name": "Katra SO Udhampur",
      "District": "REASI",
      "State": "JAMMU AND KASHMIR",
      "Pincode": "182301",
      "Lat": 33.1105,
      "Lng": 74.4908
    },
    {
      "Name": "Aghar Baba Jitto BO",
      "District": "REASI",
      "State": "JAMMU AND KASHMIR",
      "Pincode": "182301",
      "Lat": 1,
      "Lng": 1
    },
    {
      "Name": "Mangal BO",
      "District": "REASI",
      "State": "JAMMU AND KASHMIR",
      "Pincode": "182301",
      "Lat": 1,
      "Lng": 1
    },
    {
      "Name": "Nomain BO",
      "District": "REASI",
      "State": "JAMMU AND KASHMIR",
      "Pincode": "182301",
      "Lat": 1,
      "Lng": 1
    },
    {
      "Name": "Vaishno Devi BO",
      "District": "REASI",
      "State": "JAMMU AND KASHMIR",
      "Pincode": "182301",
      "Lat": 1,
      "Lng": 1
    }
  ],
  "182311": [
    {
      "Name": "Bagdar SERI BO",
      "District": "REASI",
      "State": "JAMMU AND KASHMIR",
      "Pincode": "182311",
      "Lat": 1,
      "Lng": 1
    },
    {
      "Name": "Bakkal BO",
      "District": "REASI",
      "State": "JAMMU AND KASHMIR",
      "Pincode": "182311",
      "Lat": 1,
      "Lng": 1
    },
    {
      "Name": "Sila BO",
      "District": "REASI",
      "State": "JAMMU AND KASHMIR",
      "Pincode": "182311",
      "Lat": 1,
      "Lng": 1
    },
    {
      "Name": "Surjan Dhar BO",
      "District": "REASI",
      "State": "JAMMU AND KASHMIR",
      "Pincode": "182311",
      "Lat": 1,
      "Lng": 1
    },
    {
      "Name": "TALWARA COLONY BO",
      "District": "REASI",
      "State": "JAMMU AND KASHMIR",
      "Pincode": "182311",
      "Lat": 33.104426,
      "Lng": 74.792952
    },
    {
      "Name": "Bhagga BO",
      "District": "REASI",
      "State": "JAMMU AND KASHMIR",
      "Pincode": "182311",
      "Lat": 1,
      "Lng": 1
    },
    {
      "Name": "Sukhalghati BO",
      "District": "REASI",
      "State": "JAMMU AND KASHMIR",
      "Pincode": "182311",
      "Lat": 1,
      "Lng": 1
    },
    {
      "Name": "Tote BO",
      "District": "REASI",
      "State": "JAMMU AND KASHMIR",
      "Pincode": "182311",
      "Lat": 1,
      "Lng": 1
    },
    {
      "Name": "District office Complex Reasi SO",
      "District": "REASI",
      "State": "JAMMU AND KASHMIR",
      "Pincode": "182311",
      "Lat": 32.9258889,
      "Lng": 75.1381389
    },
    {
      "Name": "Mari BO",
      "District": "REASI",
      "State": "JAMMU AND KASHMIR",
      "Pincode": "182311",
      "Lat": 1,
      "Lng": 1
    },
    {
      "Name": "Reasi SO",
      "District": "REASI",
      "State": "JAMMU AND KASHMIR",
      "Pincode": "182311",
      "Lat": 33.0827778,
      "Lng": 74.8333056
    },
    {
      "Name": "Kheral BO",
      "District": "REASI",
      "State": "JAMMU AND KASHMIR",
      "Pincode": "182311",
      "Lat": 1,
      "Lng": 1
    },
    {
      "Name": "Vijaypur BO",
      "District": "REASI",
      "State": "JAMMU AND KASHMIR",
      "Pincode": "182311",
      "Lat": 1,
      "Lng": 1
    }
  ],
  "182312": [
    {
      "Name": "Salal BO",
      "District": "REASI",
      "State": "JAMMU AND KASHMIR",
      "Pincode": "182312",
      "Lat": 1,
      "Lng": 1
    },
    {
      "Name": "Jyotipuram SO",
      "District": "REASI",
      "State": "JAMMU AND KASHMIR",
      "Pincode": "182312",
      "Lat": 33.10625,
      "Lng": 74.8941389
    }
  ],
  "182313": [
    {
      "Name": "Jij BO",
      "District": "REASI",
      "State": "JAMMU AND KASHMIR",
      "Pincode": "182313",
      "Lat": 1,
      "Lng": 1
    },
    {
      "Name": "Juda BO",
      "District": "REASI",
      "State": "JAMMU AND KASHMIR",
      "Pincode": "182313",
      "Lat": 1,
      "Lng": 1
    },
    {
      "Name": "Pul Kanthan BO",
      "District": "REASI",
      "State": "JAMMU AND KASHMIR",
      "Pincode": "182313",
      "Lat": 1,
      "Lng": 1
    },
    {
      "Name": "Thuru BO",
      "District": "REASI",
      "State": "JAMMU AND KASHMIR",
      "Pincode": "182313",
      "Lat": 1,
      "Lng": 1
    },
    {
      "Name": "BhudaraBhudan BO",
      "District": "REASI",
      "State": "JAMMU AND KASHMIR",
      "Pincode": "182313",
      "Lat": 1,
      "Lng": 1
    },
    {
      "Name": "Pattian BO",
      "District": "REASI",
      "State": "JAMMU AND KASHMIR",
      "Pincode": "182313",
      "Lat": 1,
      "Lng": 1
    },
    {
      "Name": "Thub BO",
      "District": "REASI",
      "State": "JAMMU AND KASHMIR",
      "Pincode": "182313",
      "Lat": 1,
      "Lng": 1
    },
    {
      "Name": "Arnas SO",
      "District": "REASI",
      "State": "JAMMU AND KASHMIR",
      "Pincode": "182313",
      "Lat": 33.1105,
      "Lng": 74.4908
    },
    {
      "Name": "Dhannore BO",
      "District": "REASI",
      "State": "JAMMU AND KASHMIR",
      "Pincode": "182313",
      "Lat": 1,
      "Lng": 1
    },
    {
      "Name": "Kainthi BO",
      "District": "REASI",
      "State": "JAMMU AND KASHMIR",
      "Pincode": "182313",
      "Lat": 1,
      "Lng": 1
    },
    {
      "Name": "Panasa BO",
      "District": "REASI",
      "State": "JAMMU AND KASHMIR",
      "Pincode": "182313",
      "Lat": 1,
      "Lng": 1
    },
    {
      "Name": "Sarthalkot BO",
      "District": "REASI",
      "State": "JAMMU AND KASHMIR",
      "Pincode": "182313",
      "Lat": 1,
      "Lng": 1
    },
    {
      "Name": "Thanpal BO",
      "District": "REASI",
      "State": "JAMMU AND KASHMIR",
      "Pincode": "182313",
      "Lat": 1,
      "Lng": 1
    },
    {
      "Name": "Darmari BO",
      "District": "REASI",
      "State": "JAMMU AND KASHMIR",
      "Pincode": "182313",
      "Lat": 1,
      "Lng": 1
    },
    {
      "Name": "Matlot BO",
      "District": "REASI",
      "State": "JAMMU AND KASHMIR",
      "Pincode": "182313",
      "Lat": 1,
      "Lng": 1
    },
    {
      "Name": "Shajroo BO",
      "District": "REASI",
      "State": "JAMMU AND KASHMIR",
      "Pincode": "182313",
      "Lat": 1,
      "Lng": 1
    },
    {
      "Name": "Thiloo BO",
      "District": "REASI",
      "State": "JAMMU AND KASHMIR",
      "Pincode": "182313",
      "Lat": 1,
      "Lng": 1
    }
  ],
  "182315": [
    {
      "Name": "Gulabgarh BO",
      "District": "REASI",
      "State": "JAMMU AND KASHMIR",
      "Pincode": "182315",
      "Lat": 1,
      "Lng": 1
    },
    {
      "Name": "Mahore SO Udhampur",
      "District": "REASI",
      "State": "JAMMU AND KASHMIR",
      "Pincode": "182315",
      "Lat": 33.1105,
      "Lng": 74.4908
    },
    {
      "Name": "Angrala BO",
      "District": "REASI",
      "State": "JAMMU AND KASHMIR",
      "Pincode": "182315",
      "Lat": 1,
      "Lng": 1
    },
    {
      "Name": "Sarh BO",
      "District": "REASI",
      "State": "JAMMU AND KASHMIR",
      "Pincode": "182315",
      "Lat": 1,
      "Lng": 1
    },
    {
      "Name": "Balamatkot BO",
      "District": "REASI",
      "State": "JAMMU AND KASHMIR",
      "Pincode": "182315",
      "Lat": 1,
      "Lng": 1
    },
    {
      "Name": "Deval BO",
      "District": "REASI",
      "State": "JAMMU AND KASHMIR",
      "Pincode": "182315",
      "Lat": 1,
      "Lng": 1
    },
    {
      "Name": "Larh BO",
      "District": "REASI",
      "State": "JAMMU AND KASHMIR",
      "Pincode": "182315",
      "Lat": 1,
      "Lng": 1
    },
    {
      "Name": "Bathoi BO",
      "District": "REASI",
      "State": "JAMMU AND KASHMIR",
      "Pincode": "182315",
      "Lat": 1,
      "Lng": 1
    }
  ],
  "182320": [
    {
      "Name": "SMVDU SO",
      "District": "REASI",
      "State": "JAMMU AND KASHMIR",
      "Pincode": "182320",
      "Lat": 32.9408888,
      "Lng": 74.9548333
    },
    {
      "Name": "Kakriyal BO",
      "District": "REASI",
      "State": "JAMMU AND KASHMIR",
      "Pincode": "182320",
      "Lat": 32.941653,
      "Lng": 74.954099
    }
  ],
  "184101": [
    {
      "Name": "Kathua HO",
      "District": "KATHUA",
      "State": "JAMMU AND KASHMIR",
      "Pincode": "184101",
      "Lat": 32.3673333,
      "Lng": 75.5223333
    }
  ],
  "184102": [
    {
      "Name": "Jarai BO",
      "District": "KATHUA",
      "State": "JAMMU AND KASHMIR",
      "Pincode": "184102",
      "Lat": 32.51452,
      "Lng": 74.25145
    },
    {
      "Name": "Krishnanagar BO",
      "District": "KATHUA",
      "State": "JAMMU AND KASHMIR",
      "Pincode": "184102",
      "Lat": 32.375925,
      "Lng": 75.525486
    },
    {
      "Name": "Parliwand BO",
      "District": "KATHUA",
      "State": "JAMMU AND KASHMIR",
      "Pincode": "184102",
      "Lat": 32.365953,
      "Lng": 75.529126
    },
    {
      "Name": "Kharote BO",
      "District": "KATHUA",
      "State": "JAMMU AND KASHMIR",
      "Pincode": "184102",
      "Lat": 32.392897,
      "Lng": 75.533848
    },
    {
      "Name": "Dilwan BO",
      "District": "KATHUA",
      "State": "JAMMU AND KASHMIR",
      "Pincode": "184102",
      "Lat": 32.429791,
      "Lng": 75.565515
    },
    {
      "Name": "Govindasr BO",
      "District": "KATHUA",
      "State": "JAMMU AND KASHMIR",
      "Pincode": "184102",
      "Lat": 32.39649,
      "Lng": 75.547321
    },
    {
      "Name": "Mehtabpur BO",
      "District": "KATHUA",
      "State": "JAMMU AND KASHMIR",
      "Pincode": "184102",
      "Lat": 31.205862,
      "Lng": 76.168954
    },
    {
      "Name": "Ie Kathua SO",
      "District": "KATHUA",
      "State": "JAMMU AND KASHMIR",
      "Pincode": "184102",
      "Lat": 32.38084,
      "Lng": 75.5271944
    }
  ],
  "184104": [
    {
      "Name": "Changran BO",
      "District": "KATHUA",
      "State": "JAMMU AND KASHMIR",
      "Pincode": "184104",
      "Lat": 32.369409,
      "Lng": 75.493456
    },
    {
      "Name": "Logate BO",
      "District": "KATHUA",
      "State": "JAMMU AND KASHMIR",
      "Pincode": "184104",
      "Lat": 42.444549,
      "Lng": 19.246521
    },
    {
      "Name": "Rakh Lachhipura BO",
      "District": "KATHUA",
      "State": "JAMMU AND KASHMIR",
      "Pincode": "184104",
      "Lat": 32.376554,
      "Lng": 75.482119
    },
    {
      "Name": "Janglote BO",
      "District": "KATHUA",
      "State": "JAMMU AND KASHMIR",
      "Pincode": "184104",
      "Lat": 32.432566,
      "Lng": 75.525639
    },
    {
      "Name": "Mini Sectt Kathua SO",
      "District": "KATHUA",
      "State": "JAMMU AND KASHMIR",
      "Pincode": "184104",
      "Lat": 32.3872222,
      "Lng": 75.5168611
    },
    {
      "Name": "Kothera BO",
      "District": "KATHUA",
      "State": "JAMMU AND KASHMIR",
      "Pincode": "184104",
      "Lat": 32.542096,
      "Lng": 75.084276
    },
    {
      "Name": "Jakhbar BO",
      "District": "KATHUA",
      "State": "JAMMU AND KASHMIR",
      "Pincode": "184104",
      "Lat": 32.381975,
      "Lng": 75.456555
    }
  ],
  "184120": [
    {
      "Name": "Sanjwan BO",
      "District": "SAMBA",
      "State": "JAMMU AND KASHMIR",
      "Pincode": "184120",
      "Lat": 32.572103,
      "Lng": 75.021308
    },
    {
      "Name": "Vijaypur SO",
      "District": "SAMBA",
      "State": "JAMMU AND KASHMIR",
      "Pincode": "184120",
      "Lat": 32.56452,
      "Lng": 74.023146
    },
    {
      "Name": "Chak Salaria BO",
      "District": "SAMBA",
      "State": "JAMMU AND KASHMIR",
      "Pincode": "184120",
      "Lat": 32.509234,
      "Lng": 74.966175
    },
    {
      "Name": "Koulpur BO",
      "District": "SAMBA",
      "State": "JAMMU AND KASHMIR",
      "Pincode": "184120",
      "Lat": 32.53173,
      "Lng": 75.017669
    },
    {
      "Name": "Guo Brahmna BO",
      "District": "SAMBA",
      "State": "JAMMU AND KASHMIR",
      "Pincode": "184120",
      "Lat": 32.554431,
      "Lng": 74.951565
    },
    {
      "Name": "Jakh BO",
      "District": "SAMBA",
      "State": "JAMMU AND KASHMIR",
      "Pincode": "184120",
      "Lat": 32.592122,
      "Lng": 74.966175
    },
    {
      "Name": "Raika BO",
      "District": "SAMBA",
      "State": "JAMMU AND KASHMIR",
      "Pincode": "184120",
      "Lat": 32.668291,
      "Lng": 74.866795
    },
    {
      "Name": "Swankha BO",
      "District": "SAMBA",
      "State": "JAMMU AND KASHMIR",
      "Pincode": "184120",
      "Lat": 32.535358,
      "Lng": 74.931107
    },
    {
      "Name": "Badali B.O",
      "District": "NA",
      "State": "NA",
      "Pincode": "184120",
      "Lat": 32.5752,
      "Lng": 75.02351
    }
  ],
  "184121": [
    {
      "Name": "Goran BO",
      "District": "SAMBA",
      "State": "JAMMU AND KASHMIR",
      "Pincode": "184121",
      "Lat": 33.652736,
      "Lng": 75.851103
    },
    {
      "Name": "JNV Nud BO",
      "District": "SAMBA",
      "State": "JAMMU AND KASHMIR",
      "Pincode": "184121",
      "Lat": 32.63525,
      "Lng": 75.153085
    },
    {
      "Name": "Kakrai BO",
      "District": "UDHAMPUR",
      "State": "JAMMU AND KASHMIR",
      "Pincode": "184121",
      "Lat": 28.057821,
      "Lng": 75.930356
    },
    {
      "Name": "Sarna BO",
      "District": "SAMBA",
      "State": "JAMMU AND KASHMIR",
      "Pincode": "184121",
      "Lat": 32.614385,
      "Lng": 75.069875
    },
    {
      "Name": "Taloor BO",
      "District": "SAMBA",
      "State": "JAMMU AND KASHMIR",
      "Pincode": "184121",
      "Lat": 32.668291,
      "Lng": 74.866795
    },
    {
      "Name": "Samba Adda SO",
      "District": "SAMBA",
      "State": "JAMMU AND KASHMIR",
      "Pincode": "184121",
      "Lat": 32.553009,
      "Lng": 75.110753
    },
    {
      "Name": "Nanak Chak BO",
      "District": "SAMBA",
      "State": "JAMMU AND KASHMIR",
      "Pincode": "184121",
      "Lat": 32.01546,
      "Lng": 74.021542
    },
    {
      "Name": "Sumb BO",
      "District": "SAMBA",
      "State": "JAMMU AND KASHMIR",
      "Pincode": "184121",
      "Lat": 32.052147,
      "Lng": 75.32981
    },
    {
      "Name": "Mandi Sangwali BO",
      "District": "SAMBA",
      "State": "JAMMU AND KASHMIR",
      "Pincode": "184121",
      "Lat": 32.54154,
      "Lng": 74.265145
    },
    {
      "Name": "Nai Kali BO",
      "District": "SAMBA",
      "State": "JAMMU AND KASHMIR",
      "Pincode": "184121",
      "Lat": 32.560498,
      "Lng": 75.11958
    },
    {
      "Name": "Pangdour BO",
      "District": "SAMBA",
      "State": "JAMMU AND KASHMIR",
      "Pincode": "184121",
      "Lat": 32.50482,
      "Lng": 75.078469
    },
    {
      "Name": "Barigarh BO",
      "District": "UDHAMPUR",
      "State": "JAMMU AND KASHMIR",
      "Pincode": "184121",
      "Lat": 32.233502,
      "Lng": 75.033931
    },
    {
      "Name": "Dhiani BO",
      "District": "SAMBA",
      "State": "JAMMU AND KASHMIR",
      "Pincode": "184121",
      "Lat": 32.526124,
      "Lng": 72.356142
    },
    {
      "Name": "Kalibari BO",
      "District": "SAMBA",
      "State": "JAMMU AND KASHMIR",
      "Pincode": "184121",
      "Lat": 32.397785,
      "Lng": 75.510928
    },
    {
      "Name": "Mansar BO",
      "District": "UDHAMPUR",
      "State": "JAMMU AND KASHMIR",
      "Pincode": "184121",
      "Lat": 32.696556,
      "Lng": 75.144323
    },
    {
      "Name": "Mawa BO",
      "District": "SAMBA",
      "State": "JAMMU AND KASHMIR",
      "Pincode": "184121",
      "Lat": 32.553009,
      "Lng": 75.110753
    },
    {
      "Name": "Rehiyan BO",
      "District": "SAMBA",
      "State": "JAMMU AND KASHMIR",
      "Pincode": "184121",
      "Lat": 32.405698,
      "Lng": 72.926513
    },
    {
      "Name": "Samba SO",
      "District": "SAMBA",
      "State": "JAMMU AND KASHMIR",
      "Pincode": "184121",
      "Lat": 32.553009,
      "Lng": 75.110753
    }
  ],
  "184141": [
    {
      "Name": "Naran BO",
      "District": "KATHUA",
      "State": "JAMMU AND KASHMIR",
      "Pincode": "184141",
      "Lat": 33.698332,
      "Lng": 75.020198
    },
    {
      "Name": "Sanoora BO",
      "District": "KATHUA",
      "State": "JAMMU AND KASHMIR",
      "Pincode": "184141",
      "Lat": 32.446687,
      "Lng": 75.149001
    },
    {
      "Name": "Raikoota BO",
      "District": "KATHUA",
      "State": "JAMMU AND KASHMIR",
      "Pincode": "184141",
      "Lat": 33.903582,
      "Lng": 72.476877
    },