{
  "190001": [
    {
      "Name": "SK Secretariat SO",
      "District": "SRINAGAR",
      "State": "JAMMU AND KASHMIR",
      "Pincode": "190001",
      "Lat": 34.0744167,
      "Lng": 74.8048056
    },
    {
      "Name": "Srinagar GPO",
      "District": "SRINAGAR",
      "State": "JAMMU AND KASHMIR",
      "Pincode": "190001",
      "Lat": 34.0720833,
      "Lng": 74.8206667
    },
    {
      "Name": "Badyar Bala SO",
      "District": "SRINAGAR",
      "State": "JAMMU AND KASHMIR",
      "Pincode": "190001",
      "Lat": 34.0733055,
      "Lng": 74.8165555
    },
    {
      "Name": "Lal Chowk SO",
      "District": "SRINAGAR",
      "State": "JAMMU AND KASHMIR",
      "Pincode": "190001",
      "Lat": 34.0716944,
      "Lng": 74.8106111
    },
    {
      "Name": "Sathu SO",
      "District": "SRINAGAR",
      "State": "JAMMU AND KASHMIR",
      "Pincode": "190001",
      "Lat": 34.0793889,
      "Lng": 74.8136389
    },
    {
      "Name": "Nehru Park SO",
      "District": "SRINAGAR",
      "State": "JAMMU AND KASHMIR",
      "Pincode": "190001",
      "Lat": 34.0893056,
      "Lng": 74.8445833
    }
  ],
  "190002": [
    {
      "Name": "Fateh Kadal SO",
      "District": "SRINAGAR",
      "State": "JAMMU AND KASHMIR",
      "Pincode": "190002",
      "Lat": 34.0893611,
      "Lng": 74.8056388
    },
    {
      "Name": "SR Gunj SO",
      "District": "SRINAGAR",
      "State": "JAMMU AND KASHMIR",
      "Pincode": "190002",
      "Lat": 34.097,
      "Lng": 74.80475
    },
    {
      "Name": "Safa Kadal SO",
      "District": "SRINAGAR",
      "State": "JAMMU AND KASHMIR",
      "Pincode": "190002",
      "Lat": 2.5,
      "Lng": 3.6
    },
    {
      "Name": "Jamia Masjid SO",
      "District": "SRINAGAR",
      "State": "JAMMU AND KASHMIR",
      "Pincode": "190002",
      "Lat": 34.0833611,
      "Lng": 74.8080556
    }
  ],
  "190003": [
    {
      "Name": "Khanyar SO",
      "District": "SRINAGAR",
      "State": "JAMMU AND KASHMIR",
      "Pincode": "190003",
      "Lat": 34.0733056,
      "Lng": 74.8165556
    },
    {
      "Name": "Rainawari SO",
      "District": "SRINAGAR",
      "State": "JAMMU AND KASHMIR",
      "Pincode": "190003",
      "Lat": 34.0980833,
      "Lng": 74.8289444
    },
    {
      "Name": "Nandpora BO",
      "District": "SRINAGAR",
      "State": "JAMMU AND KASHMIR",
      "Pincode": "190003",
      "Lat": 34.126103,
      "Lng": 74.673205
    }
  ],
  "190004": [
    {
      "Name": "Batwara SO",
      "District": "SRINAGAR",
      "State": "JAMMU AND KASHMIR",
      "Pincode": "190004",
      "Lat": 34.0639722,
      "Lng": 74.8484166
    }
  ],
  "190005": [
    {
      "Name": "Sanat Nagar SO",
      "District": "SRINAGAR",
      "State": "JAMMU AND KASHMIR",
      "Pincode": "190005",
      "Lat": 34.0343333,
      "Lng": 74.8004722
    }
  ],
  "190006": [
    {
      "Name": "Pandech BO",
      "District": "SRINAGAR",
      "State": "JAMMU AND KASHMIR",
      "Pincode": "190006",
      "Lat": 34.19629,
      "Lng": 74.806902
    },
    {
      "Name": "Saidpora Hamchi BO",
      "District": "SRINAGAR",
      "State": "JAMMU AND KASHMIR",
      "Pincode": "190006",
      "Lat": 34.17367,
      "Lng": 74.840478
    },
    {
      "Name": "Telbal BO",
      "District": "SRINAGAR",
      "State": "JAMMU AND KASHMIR",
      "Pincode": "190006",
      "Lat": 34.162838,
      "Lng": 74.863486
    },
    {
      "Name": "Basurbagh BO",
      "District": "SRINAGAR",
      "State": "JAMMU AND KASHMIR",
      "Pincode": "190006",
      "Lat": 34.121514,
      "Lng": 74.886698
    },
    {
      "Name": "Chatterhama BO",
      "District": "SRINAGAR",
      "State": "JAMMU AND KASHMIR",
      "Pincode": "190006",
      "Lat": 34.184546,
      "Lng": 74.868699
    },
    {
      "Name": "Gulab Bagh BO",
      "District": "SRINAGAR",
      "State": "JAMMU AND KASHMIR",
      "Pincode": "190006",
      "Lat": 34.177697,
      "Lng": 74.818545
    },
    {
      "Name": "Shuhama BO",
      "District": "SRINAGAR",
      "State": "JAMMU AND KASHMIR",
      "Pincode": "190006",
      "Lat": 34.188607,
      "Lng": 74.828565
    },
    {
      "Name": "Malbagh BO",
      "District": "SRINAGAR",
      "State": "JAMMU AND KASHMIR",
      "Pincode": "190006",
      "Lat": 34.14815,
      "Lng": 74.826587
    },
    {
      "Name": "Kashmir University",
      "District": "SRINAGAR",
      "State": "JAMMU AND KASHMIR",
      "Pincode": "190006",
      "Lat": 34.1348889,
      "Lng": 74.8371111
    }
  ],
  "190007": [
    {
      "Name": "Sk Airport SO",
      "District": "Budgam",
      "State": "JAMMU AND KASHMIR",
      "Pincode": "190007",
      "Lat": 33.9998889,
      "Lng": 74.7688889
    }
  ],
  "190008": [
    {
      "Name": "Jawahar Nagar",
      "District": "SRINAGAR",
      "State": "JAMMU AND KASHMIR",
      "Pincode": "190008",
      "Lat": 34.0579,
      "Lng": 74.8167
    },
    {
      "Name": "Rajbagh SO",
      "District": "SRINAGAR",
      "State": "JAMMU AND KASHMIR",
      "Pincode": "190008",
      "Lat": 34.0633611,
      "Lng": 74.8227222
    }
  ],
  "190009": [
    {
      "Name": "Central Market SO",
      "District": "SRINAGAR",
      "State": "JAMMU AND KASHMIR",
      "Pincode": "190009",
      "Lat": 34.0709444,
      "Lng": 74.8016111
    },
    {
      "Name": "Rambagh SO Srinagar",
      "District": "SRINAGAR",
      "State": "JAMMU AND KASHMIR",
      "Pincode": "190009",
      "Lat": 36.9,
      "Lng": 25.9
    },
    {
      "Name": "New Secretariat Srinagar SO",
      "District": "SRINAGAR",
      "State": "JAMMU AND KASHMIR",
      "Pincode": "190009",
      "Lat": 34.0746388,
      "Lng": 74.8010833
    }
  ],
  "190010": [
    {
      "Name": "Court Road",
      "District": "SRINAGAR",
      "State": "JAMMU AND KASHMIR",
      "Pincode": "190010",
      "Lat": 34.0699167,
      "Lng": 74.8098333
    },
    {
      "Name": "Karan Nagar SO Srinagar",
      "District": "SRINAGAR",
      "State": "JAMMU AND KASHMIR",
      "Pincode": "190010",
      "Lat": 34.061257,
      "Lng": 74.817321
    },
    {
      "Name": "Batmaloo",
      "District": "SRINAGAR",
      "State": "JAMMU AND KASHMIR",
      "Pincode": "190010",
      "Lat": 34.0725861,
      "Lng": 74.7948888
    }
  ],
  "190011": [
    {
      "Name": "Noushara SO",
      "District": "SRINAGAR",
      "State": "JAMMU AND KASHMIR",
      "Pincode": "190011",
      "Lat": 34.0733056,
      "Lng": 74.8165556
    },
    {
      "Name": "Anchar BO",
      "District": "SRINAGAR",
      "State": "JAMMU AND KASHMIR",
      "Pincode": "190011",
      "Lat": 34.126103,
      "Lng": 74.673205
    }
  ],
  "190012": [
    {
      "Name": "Zainakote SO",
      "District": "SRINAGAR",
      "State": "JAMMU AND KASHMIR",
      "Pincode": "190012",
      "Lat": 34.1009722,
      "Lng": 74.7345556
    }
  ],
  "190014": [
    {
      "Name": "Hyderpora SO",
      "District": "Budgam",
      "State": "JAMMU AND KASHMIR",
      "Pincode": "190014",
      "Lat": 34.0376694,
      "Lng": 74.7871666
    }
  ],
  "190015": [
    {
      "Name": "Nowgam SO",
      "District": "SRINAGAR",
      "State": "JAMMU AND KASHMIR",
      "Pincode": "190015",
      "Lat": 34.0299167,
      "Lng": 74.8225278
    },
    {
      "Name": "A K Pora B.O",
      "District": "Budgam",
      "State": "JAMMU AND KASHMIR",
      "Pincode": "190015",
      "Lat": "NA",
      "Lng": "NA"
    },
    {
      "Name": "Kenihama BO",
      "District": "Budgam",
      "State": "JAMMU AND KASHMIR",
      "Pincode": "190015",
      "Lat": 34.126103,
      "Lng": 74.60939
    },
    {
      "Name": "Natipora SO",
      "District": "SRINAGAR",
      "State": "JAMMU AND KASHMIR",
      "Pincode": "190015",
      "Lat": 34.0439167,
      "Lng": 74.8097222
    }
  ],
  "190017": [
    {
      "Name": "Paipora BO",
      "District": "SRINAGAR",
      "State": "JAMMU AND KASHMIR",
      "Pincode": "190017",
      "Lat": 34.104983,
      "Lng": 74.673205
    },
    {
      "Name": "Gund Hassibhat BO",
      "District": "SRINAGAR",
      "State": "JAMMU AND KASHMIR",
      "Pincode": "190017",
      "Lat": 34.111853,
      "Lng": 74.692949
    },
    {
      "Name": "Parimpora SO",
      "District": "SRINAGAR",
      "State": "JAMMU AND KASHMIR",
      "Pincode": "190017",
      "Lat": 34.105,
      "Lng": 74.7579444
    },
    {
      "Name": "Bashipora BO",
      "District": "SRINAGAR",
      "State": "JAMMU AND KASHMIR",
      "Pincode": "190017",
      "Lat": 34.076749,
      "Lng": 74.628679
    }
  ],
  "190018": [
    {
      "Name": "Sebdan BO",
      "District": "Budgam",
      "State": "JAMMU AND KASHMIR",
      "Pincode": "190018",
      "Lat": 34.044837,
      "Lng": 74.731965
    },
    {
      "Name": "Bemina SO",
      "District": "SRINAGAR",
      "State": "JAMMU AND KASHMIR",
      "Pincode": "190018",
      "Lat": 34.0766111,
      "Lng": 74.7689166
    },
    {
      "Name": "Bemina Chowk BO",
      "District": "Budgam",
      "State": "JAMMU AND KASHMIR",
      "Pincode": "190018",
      "Lat": 129.6,
      "Lng": 72.36
    }
  ],
  "190019": [
    {
      "Name": "Kralpora BO",
      "District": "Budgam",
      "State": "JAMMU AND KASHMIR",
      "Pincode": "190019",
      "Lat": 113.3,
      "Lng": 96.33
    },
    {
      "Name": "Bagh Mehtab SO",
      "District": "SRINAGAR",
      "State": "JAMMU AND KASHMIR",
      "Pincode": "190019",
      "Lat": 34.0165,
      "Lng": 74.8125278
    }
  ],
  "190020": [
    {
      "Name": "Buchpora SO",
      "District": "SRINAGAR",
      "State": "JAMMU AND KASHMIR",
      "Pincode": "190020",
      "Lat": 34.1529167,
      "Lng": 74.8017222
    }
  ],
  "190021": [
    {
      "Name": "Humhama SO",
      "District": "Budgam",
      "State": "JAMMU AND KASHMIR",
      "Pincode": "190021",
      "Lat": 34.0213056,
      "Lng": 74.7696944
    }
  ],
  "190023": [
    {
      "Name": "Lal Bazar SO",
      "District": "SRINAGAR",
      "State": "JAMMU AND KASHMIR",
      "Pincode": "190023",
      "Lat": 34.061257,
      "Lng": 74.817321
    }
  ],
  "190024": [
    {
      "Name": "Zakoora",
      "District": "SRINAGAR",
      "State": "JAMMU AND KASHMIR",
      "Pincode": "190024",
      "Lat": 34.1642778,
      "Lng": 74.8303611
    }
  ],
  "190025": [
    {
      "Name": "Skuast SO",
      "District": "SRINAGAR",
      "State": "JAMMU AND KASHMIR",
      "Pincode": "190025",
      "Lat": 34.1425901,
      "Lng": 74.8607518
    }
  ],
  "190099": [
    {
      "Name": "Nodal Delivery Center Srinagar",
      "District": "SRINAGAR",
      "State": "JAMMU AND KASHMIR",
      "Pincode": "190099",
      "Lat": 34.071643,
      "Lng": 74.823587
    }
  ],
  "191101": [
    {
      "Name": "Khanmouh BO",
      "District": "SRINAGAR",
      "State": "JAMMU AND KASHMIR",
      "Pincode": "191101",
      "Lat": 34.056735,
      "Lng": 74.948642
    },
    {
      "Name": "Pantha Chowk SO",
      "District": "SRINAGAR",
      "State": "JAMMU AND KASHMIR",
      "Pincode": "191101",
      "Lat": 34.0428889,
      "Lng": 74.8928889
    },
    {
      "Name": "Balhama BO",
      "District": "SRINAGAR",
      "State": "JAMMU AND KASHMIR",
      "Pincode": "191101",
      "Lat": 34.126103,
      "Lng": 74.60939
    },
    {
      "Name": "Pandrathan BO",
      "District": "SRINAGAR",
      "State": "JAMMU AND KASHMIR",
      "Pincode": "191101",
      "Lat": 34.104983,
      "Lng": 74.673205
    },
    {
      "Name": "Lasjan BO",
      "District": "SRINAGAR",
      "State": "JAMMU AND KASHMIR",
      "Pincode": "191101",
      "Lat": 34.126103,
      "Lng": 74.60939
    },
    {
      "Name": "Zawan BO",
      "District": "SRINAGAR",
      "State": "JAMMU AND KASHMIR",
      "Pincode": "191101",
      "Lat": 34.126103,
      "Lng": 74.673205
    }
  ],
  "191102": [
    {
      "Name": "Wuyan SO",
      "District": "PULWAMA",
      "State": "JAMMU AND KASHMIR",
      "Pincode": "191102",
      "Lat": 34.0263611,
      "Lng": 74.96675
    }
  ],
  "191103": [
    {
      "Name": "Khrew SO",
      "District": "PULWAMA",
      "State": "JAMMU AND KASHMIR",
      "Pincode": "191103",
      "Lat": 34.0733056,
      "Lng": 74.8165556
    },
    {
      "Name": "Ludhoo BO",
      "District": "PULWAMA",
      "State": "JAMMU AND KASHMIR",
      "Pincode": "191103",
      "Lat": 33.653266,
      "Lng": 84.55999
    },
    {
      "Name": "Zantrag BO",
      "District": "PULWAMA",
      "State": "JAMMU AND KASHMIR",
      "Pincode": "191103",
      "Lat": 32.5,
      "Lng": 23.6
    },
    {
      "Name": "Mandakpal BO",
      "District": "PULWAMA",
      "State": "JAMMU AND KASHMIR",
      "Pincode": "191103",
      "Lat": 89.44444,
      "Lng": 97.8888
    }
  ],
  "191111": [
    {
      "Name": "Budgam SO",
      "District": "Budgam",
      "State": "JAMMU AND KASHMIR",
      "Pincode": "191111",
      "Lat": 34.01525,
      "Lng": 74.7239722
    },
    {
      "Name": "Arath BO",
      "District": "Budgam",
      "State": "JAMMU AND KASHMIR",
      "Pincode": "191111",
      "Lat": 129.6,
      "Lng": 92.3
    },
    {
      "Name": "Bandgam BO",
      "District": "Budgam",
      "State": "JAMMU AND KASHMIR",
      "Pincode": "191111",
      "Lat": 129.6,
      "Lng": 72.36
    },
    {
      "Name": "Krim Shore BO",
      "District": "Budgam",
      "State": "JAMMU AND KASHMIR",
      "Pincode": "191111",
      "Lat": 129.6,
      "Lng": 72.4
    },
    {
      "Name": "Sholipora BO",
      "District": "Budgam",
      "State": "JAMMU AND KASHMIR",
      "Pincode": "191111",
      "Lat": 235.6,
      "Lng": 112.6
    },
    {
      "Name": "Watterhail BO",
      "District": "Budgam",
      "State": "JAMMU AND KASHMIR",
      "Pincode": "191111",
      "Lat": 32.5,
      "Lng": 36.5
    },
    {
      "Name": "Arigam BO",
      "District": "Budgam",
      "State": "JAMMU AND KASHMIR",
      "Pincode": "191111",
      "Lat": 129.6,
      "Lng": 112.6
    },
    {
      "Name": "Jawalapora BO",
      "District": "Budgam",
      "State": "JAMMU AND KASHMIR",
      "Pincode": "191111",
      "Lat": 129.6,
      "Lng": 72.36
    },
    {
      "Name": "Gariend BO",
      "District": "Budgam",
      "State": "JAMMU AND KASHMIR",
      "Pincode": "191111",
      "Lat": 129.6,
      "Lng": 115.2
    },
    {
      "Name": "Kachwari BO",
      "District": "Budgam",
      "State": "JAMMU AND KASHMIR",
      "Pincode": "191111",
      "Lat": 129.6,
      "Lng": 72.36
    },
    {
      "Name": "Khan Shaib BO",
      "District": "Budgam",
      "State": "JAMMU AND KASHMIR",
      "Pincode": "191111",
      "Lat": 129.6,
      "Lng": 72.36
    },
    {
      "Name": "Ompora BO",
      "District": "Budgam",
      "State": "JAMMU AND KASHMIR",
      "Pincode": "191111",
      "Lat": 235.6,
      "Lng": 112.6
    },
    {
      "Name": "Raithan BO",
      "District": "Budgam",
      "State": "JAMMU AND KASHMIR",
      "Pincode": "191111",
      "Lat": 235.6,
      "Lng": 112.6
    },
    {
      "Name": "Soibugh BO",
      "District": "Budgam",
      "State": "JAMMU AND KASHMIR",
      "Pincode": "191111",
      "Lat": 36.5,
      "Lng": 23.5
    },
    {
      "Name": "Ichgam BO",
      "District": "Budgam",
      "State": "JAMMU AND KASHMIR",
      "Pincode": "191111",
      "Lat": 129.6,
      "Lng": 72.4
    },
    {
      "Name": "Later Chadoora BO",
      "District": "Budgam",
      "State": "JAMMU AND KASHMIR",
      "Pincode": "191111",
      "Lat": 235.6,
      "Lng": 112.6
    },
    {
      "Name": "Shogapora BO",
      "District": "Budgam",
      "State": "JAMMU AND KASHMIR",
      "Pincode": "191111",
      "Lat": 32.5,
      "Lng": 12.5
    }
  ],
  "191112": [
    {
      "Name": "Chrar-i-Sharief SO",
      "District": "Budgam",
      "State": "JAMMU AND KASHMIR",
      "Pincode": "191112",
      "Lat": 33.8614722,
      "Lng": 74.7669444
    },
    {
      "Name": "Keller Mastpora BO",
      "District": "SHOPIAN",
      "State": "JAMMU AND KASHMIR",
      "Pincode": "191112",
      "Lat": 80.5,
      "Lng": 97.1
    },
    {
      "Name": "Hardudalwan BO",
      "District": "Budgam",
      "State": "JAMMU AND KASHMIR",
      "Pincode": "191112",
      "Lat": 87.6,
      "Lng": 98.5
    },
    {
      "Name": "Abhama BO",
      "District": "PULWAMA",
      "State": "JAMMU AND KASHMIR",
      "Pincode": "191112",
      "Lat": 60.5,
      "Lng": 53.2
    },
    {
      "Name": "Darwan Nawgam BO",
      "District": "Budgam",
      "State": "JAMMU AND KASHMIR",
      "Pincode": "191112",
      "Lat": 88.6,
      "Lng": 99.1
    },
    {
      "Name": "Kenidajan BO",
      "District": "Budgam",
      "State": "JAMMU AND KASHMIR",
      "Pincode": "191112",
      "Lat": 69.111,
      "Lng": 54.999
    },
    {
      "Name": "Pakherpora BO",
      "District": "Budgam",
      "State": "JAMMU AND KASHMIR",
      "Pincode": "191112",
      "Lat": 63.111,
      "Lng": 44.8888
    }
  ],
  "191113": [
    {
      "Name": "Bogam Batapora BO",
      "District": "Budgam",
      "State": "JAMMU AND KASHMIR",
      "Pincode": "191113",
      "Lat": 36.5,
      "Lng": 25.6
    },
    {
      "Name": "Gogjipathri BO",
      "District": "Budgam",
      "State": "JAMMU AND KASHMIR",
      "Pincode": "191113",
      "Lat": 32.5,
      "Lng": 36.5
    },
    {
      "Name": "Rangar BO",
      "District": "Budgam",
      "State": "JAMMU AND KASHMIR",
      "Pincode": "191113",
      "Lat": 2154.2,
      "Lng": 3256.1
    },
    {
      "Name": "Wanpora BO",
      "District": "Budgam",
      "State": "JAMMU AND KASHMIR",
      "Pincode": "191113",
      "Lat": 90.7,
      "Lng": 100.5
    },
    {
      "Name": "Brinjan BO",
      "District": "Budgam",
      "State": "JAMMU AND KASHMIR",
      "Pincode": "191113",
      "Lat": 235.6,
      "Lng": 112.6
    },
    {
      "Name": "Hanjura BO",
      "District": "Budgam",
      "State": "JAMMU AND KASHMIR",
      "Pincode": "191113",
      "Lat": 236.6,
      "Lng": 112.6
    },
    {
      "Name": "Watakala BO",
      "District": "Budgam",
      "State": "JAMMU AND KASHMIR",
      "Pincode": "191113",
      "Lat": 90.8,
      "Lng": 86.9
    },
    {
      "Name": "Bandipora B.O",
      "District": "Budgam",
      "State": "JAMMU AND KASHMIR",
      "Pincode": "191113",
      "Lat": "NA",
      "Lng": "NA"
    },
    {
      "Name": "Chattergam BO",
      "District": "Budgam",
      "State": "JAMMU AND KASHMIR",
      "Pincode": "191113",
      "Lat": 236.6,
      "Lng": 72.36
    },
    {
      "Name": "Hayatpora BO",
      "District": "Budgam",
      "State": "JAMMU AND KASHMIR",
      "Pincode": "191113",
      "Lat": 236.6,
      "Lng": 115.2
    },
    {
      "Name": "Nagam BO",
      "District": "Budgam",
      "State": "JAMMU AND KASHMIR",
      "Pincode": "191113",
      "Lat": 235.6,
      "Lng": 112.6
    },
    {
      "Name": "R N Hall BO",
      "District": "Budgam",
      "State": "JAMMU AND KASHMIR",
      "Pincode": "191113",
      "Lat": 236.6,
      "Lng": 112.6
    },
    {
      "Name": "Wathura BO",
      "District": "Budgam",
      "State": "JAMMU AND KASHMIR",
      "Pincode": "191113",
      "Lat": 190.5,
      "Lng": 151.9
    },
    {
      "Name": "Lalgam BO",
      "District": "Budgam",
      "State": "JAMMU AND KASHMIR",
      "Pincode": "191113",
      "Lat": 236.6,
      "Lng": 115.2
    },
    {
      "Name": "Kanir BO",
      "District": "Budgam",
      "State": "JAMMU AND KASHMIR",
      "Pincode": "191113",
      "Lat": 33.943351,
      "Lng": 74.798564
    },
    {
      "Name": "Chadoora SO",
      "District": "Budgam",
      "State": "JAMMU AND KASHMIR",
      "Pincode": "191113",
      "Lat": 34.0733056,
      "Lng": 74.8165556
    },
    {
      "Name": "Sogam B.O",
      "District": "Budgam",
      "State": "JAMMU AND KASHMIR",
      "Pincode": "191113",
      "Lat": 89.3,
      "Lng": 73.4
    },
    {
      "Name": "Suraryan BO",
      "District": "Budgam",
      "State": "JAMMU AND KASHMIR",
      "Pincode": "191113",
      "Lat": 65.3,
      "Lng": 75.5
    }
  ],
  "191121": [
    {
      "Name": "New Theed BO",
      "District": "SRINAGAR",
      "State": "JAMMU AND KASHMIR",
      "Pincode": "191121",
      "Lat": 34.166345,
      "Lng": 74.909643
    },
    {
      "Name": "Harwan BO",
      "District": "SRINAGAR",
      "State": "JAMMU AND KASHMIR",
      "Pincode": "191121",
      "Lat": 34.159457,
      "Lng": 74.904099
    },
    {
      "Name": "Brein",
      "District": "SRINAGAR",
      "State": "JAMMU AND KASHMIR",
      "Pincode": "191121",
      "Lat": 34.08,
      "Lng": 74.82
    }
  ],
  "191131": [
    {
      "Name": "Qasbalar BO",
      "District": "GANDERBAL",
      "State": "JAMMU AND KASHMIR",
      "Pincode": "191131",
      "Lat": 33.89,
      "Lng": 74.24
    },
    {
      "Name": "Saloora BO",
      "District": "GANDERBAL",
      "State": "JAMMU AND KASHMIR",
      "Pincode": "191131",
      "Lat": 254.2,
      "Lng": 26.3
    },
    {
      "Name": "Wakura BO",
      "District": "GANDERBAL",
      "State": "JAMMU AND KASHMIR",
      "Pincode": "191131",
      "Lat": 34.209459,
      "Lng": 74.694199
    },
    {
      "Name": "Sehpora BO",
      "District": "GANDERBAL",
      "State": "JAMMU AND KASHMIR",
      "Pincode": "191131",
      "Lat": 33.89,
      "Lng": 74.24
    },
    {
      "Name": "Shallabugh BO",
      "District": "GANDERBAL",
      "State": "JAMMU AND KASHMIR",
      "Pincode": "191131",
      "Lat": 132.5,
      "Lng": 256.3
    },
    {
      "Name": "Theru BO",
      "District": "GANDERBAL",
      "State": "JAMMU AND KASHMIR",
      "Pincode": "191131",
      "Lat": 34.234306,
      "Lng": 74.748163
    },
    {
      "Name": "Yangoora BO",
      "District": "GANDERBAL",
      "State": "JAMMU AND KASHMIR",
      "Pincode": "191131",
      "Lat": 34.220894,
      "Lng": 74.730781
    },
    {
      "Name": "Tulmulla SO",
      "District": "GANDERBAL",
      "State": "JAMMU AND KASHMIR",
      "Pincode": "191131",
      "Lat": 34.2204722,
      "Lng": 74.7326666
    },
    {
      "Name": "Haran BO",
      "District": "GANDERBAL",
      "State": "JAMMU AND KASHMIR",
      "Pincode": "191131",
      "Lat": 33.89,
      "Lng": 74.24
    },
    {
      "Name": "Karhama BO",
      "District": "GANDERBAL",
      "State": "JAMMU AND KASHMIR",
      "Pincode": "191131",
      "Lat": 33.89,
      "Lng": 74.24
    }
  ],
  "191132": [
    {
      "Name": "Rangreth SO",
      "District": "Budgam",
      "State": "JAMMU AND KASHMIR",
      "Pincode": "191132",
      "Lat": 34.0045833,
      "Lng": 74.7947778
    }
  ],
  "191201": [
    {
      "Name": "Haripora BO",
      "District": "GANDERBAL",
      "State": "JAMMU AND KASHMIR",
      "Pincode": "191201",
      "Lat": 34.289616,
      "Lng": 74.836014
    },
    {
      "Name": "Manigam BO",
      "District": "GANDERBAL",
      "State": "JAMMU AND KASHMIR",
      "Pincode": "191201",
      "Lat": 34.28359,
      "Lng": 74.807155
    },
    {
      "Name": "Ganderbal",
      "District": "GANDERBAL",
      "State": "JAMMU AND KASHMIR",
      "Pincode": "191201",
      "Lat": 34.2165,
      "Lng": 74.7719
    },
    {
      "Name": "Wayil BO",
      "District": "GANDERBAL",
      "State": "JAMMU AND KASHMIR",
      "Pincode": "191201",
      "Lat": 34.275102,
      "Lng": 74.80786
    },
    {
      "Name": "Nuner BO",
      "District": "GANDERBAL",
      "State": "JAMMU AND KASHMIR",
      "Pincode": "191201",
      "Lat": 34.251093,
      "Lng": 74.805581
    },
    {
      "Name": "Benihama BO",
      "District": "GANDERBAL",
      "State": "JAMMU AND KASHMIR",
      "Pincode": "191201",
      "Lat": 34.217924,
      "Lng": 74.779274
    },
    {
      "Name": "Chattergul BO",
      "District": "GANDERBAL",
      "State": "JAMMU AND KASHMIR",
      "Pincode": "191201",
      "Lat": 34.301233,
      "Lng": 74.868736
    },
    {
      "Name": "Daderhama BO",
      "District": "GANDERBAL",
      "State": "JAMMU AND KASHMIR",
      "Pincode": "191201",
      "Lat": 34.216496,
      "Lng": 74.771943
    },
    {
      "Name": "Wussan BO",
      "District": "GANDERBAL",
      "State": "JAMMU AND KASHMIR",
      "Pincode": "191201",
      "Lat": 34.29065,
      "Lng": 74.844107
    }
  ],
  "191202": [
    {
      "Name": "Gund BO",
      "District": "GANDERBAL",
      "State": "JAMMU AND KASHMIR",
      "Pincode": "191202",
      "Lat": 32.5,
      "Lng": 23.5
    },
    {
      "Name": "Hari Gaiwan BO",
      "District": "GANDERBAL",
      "State": "JAMMU AND KASHMIR",
      "Pincode": "191202",
      "Lat": 32.5,
      "Lng": 25.9
    },
    {
      "Name": "Gagangir",
      "District": "GANDERBAL",
      "State": "JAMMU AND KASHMIR",
      "Pincode": "191202",
      "Lat": 34.273798,
      "Lng": 75.179858
    },
    {
      "Name": "Akhal BO",
      "District": "GANDERBAL",
      "State": "JAMMU AND KASHMIR",
      "Pincode": "191202",
      "Lat": 33.653266,
      "Lng": 75.158101
    },
    {
      "Name": "Kulan BO",
      "District": "GANDERBAL",
      "State": "JAMMU AND KASHMIR",
      "Pincode": "191202",
      "Lat": 32.5,
      "Lng": 62.5
    },
    {
      "Name": "Wangat BO",
      "District": "GANDERBAL",
      "State": "JAMMU AND KASHMIR",
      "Pincode": "191202",
      "Lat": 34.301233,
      "Lng": 75.158101
    },
    {
      "Name": "Mamer BO",
      "District": "GANDERBAL",
      "State": "JAMMU AND KASHMIR",
      "Pincode": "191202",
      "Lat": 34.217924,
      "Lng": 75.158101
    },
    {
      "Name": "S Bala BO",
      "District": "GANDERBAL",
      "State": "JAMMU AND KASHMIR",
      "Pincode": "191202",
      "Lat": 34.301233,
      "Lng": 75.158101
    },
    {
      "Name": "Kangan SO",
      "District": "GANDERBAL",
      "State": "JAMMU AND KASHMIR",
      "Pincode": "191202",
      "Lat": 34.2599167,
      "Lng": 74.9823611
    }
  ],
  "192101": [
    {
      "Name": "Khanabal SO",
      "District": "ANANTNAG",
      "State": "JAMMU AND KASHMIR",
      "Pincode": "192101",
      "Lat": 33.7399722,
      "Lng": 75.1323611
    },
    {
      "Name": "Sarnal SO",
      "District": "ANANTNAG",
      "State": "JAMMU AND KASHMIR",
      "Pincode": "192101",
      "Lat": 33.73975,
      "Lng": 75.1664444
    },
    {
      "Name": "Anantnag HO",
      "District": "ANANTNAG",
      "State": "JAMMU AND KASHMIR",
      "Pincode": "192101",
      "Lat": 33.7308611,
      "Lng": 75.1501944
    },
    {
      "Name": "Janglat Mandi SO",
      "District": "ANANTNAG",
      "State": "JAMMU AND KASHMIR",
      "Pincode": "192101",
      "Lat": 34.06775,
      "Lng": 74.8165556
    }
  ],
  "192121": [
    {
      "Name": "Konibal BO",
      "District": "PULWAMA",
      "State": "JAMMU AND KASHMIR",
      "Pincode": "192121",
      "Lat": 34.126103,
      "Lng": 74.673205
    },
    {
      "Name": "Pampore SO",
      "District": "PULWAMA",
      "State": "JAMMU AND KASHMIR",
      "Pincode": "192121",
      "Lat": 34.0421944,
      "Lng": 74.8953333
    },
    {
      "Name": "Khanda BO",
      "District": "Budgam",
      "State": "JAMMU AND KASHMIR",
      "Pincode": "192121",
      "Lat": 34.104983,
      "Lng": 74.673205
    },
    {
      "Name": "Nehama BO",
      "District": "PULWAMA",
      "State": "JAMMU AND KASHMIR",
      "Pincode": "192121",
      "Lat": 34.126103,
      "Lng": 74.673205
    },
    {
      "Name": "Honipora BO",
      "District": "PULWAMA",
      "State": "JAMMU AND KASHMIR",
      "Pincode": "192121",
      "Lat": 34.104983,
      "Lng": 74.60939
    },
    {
      "Name": "Pahroo BO",
      "District": "PULWAMA",
      "State": "JAMMU AND KASHMIR",
      "Pincode": "192121",
      "Lat": 34.076749,
      "Lng": 74.628679
    }
  ],
  "192122": [
    {
      "Name": "Lathpora BO",
      "District": "PULWAMA",
      "State": "JAMMU AND KASHMIR",
      "Pincode": "192122",
      "Lat": 32.5,
      "Lng": 26.5
    },
    {
      "Name": "Anantnag City SO",
      "District": "ANANTNAG",
      "State": "JAMMU AND KASHMIR",
      "Pincode": "192122",
      "Lat": 30.0733056,
      "Lng": 74.8165556
    },
    {
      "Name": "Awantipora SO",
      "District": "PULWAMA",
      "State": "JAMMU AND KASHMIR",
      "Pincode": "192122",
      "Lat": 33.9175,
      "Lng": 75.0164444
    },
    {
      "Name": "Barsoo BO",
      "District": "PULWAMA",
      "State": "JAMMU AND KASHMIR",
      "Pincode": "192122",
      "Lat": 235.6,
      "Lng": 112.6
    },
    {
      "Name": "Chandhara BO",
      "District": "PULWAMA",
      "State": "JAMMU AND KASHMIR",
      "Pincode": "192122",
      "Lat": 235.6,
      "Lng": 112.6
    },
    {
      "Name": "Gairoo BO",
      "District": "PULWAMA",
      "State": "JAMMU AND KASHMIR",
      "Pincode": "192122",
      "Lat": 235.6,
      "Lng": 72.36
    },
    {
      "Name": "Gouripora BO",
      "District": "PULWAMA",
      "State": "JAMMU AND KASHMIR",
      "Pincode": "192122",
      "Lat": 2.5,
      "Lng": 32.5
    },
    {
      "Name": "Cheersoo BO",
      "District": "PULWAMA",
      "State": "JAMMU AND KASHMIR",
      "Pincode": "192122",
      "Lat": 235.6,
      "Lng": 72.36
    }
  ],
  "192123": [
    {
      "Name": "Aripal BO",
      "District": "PULWAMA",
      "State": "JAMMU AND KASHMIR",
      "Pincode": "192123",
      "Lat": 32.5,
      "Lng": 32.6
    },
    {
      "Name": "Dadsar BO",
      "District": "PULWAMA",
      "State": "JAMMU AND KASHMIR",
      "Pincode": "192123",
      "Lat": 225.3,
      "Lng": 137.5
    },
    {
      "Name": "Lurgam BO",
      "District": "PULWAMA",
      "State": "JAMMU AND KASHMIR",
      "Pincode": "192123",
      "Lat": 134.6,
      "Lng": 74.5
    },
    {
      "Name": "Saimoh BO",
      "District": "PULWAMA",
      "State": "JAMMU AND KASHMIR",
      "Pincode": "192123",
      "Lat": 124.5,
      "Lng": 74.6
    },
    {
      "Name": "Bargam BO",
      "District": "PULWAMA",
      "State": "JAMMU AND KASHMIR",
      "Pincode": "192123",
      "Lat": 235.3,
      "Lng": 2536.2
    },
    {
      "Name": "Batagund BO",
      "District": "PULWAMA",
      "State": "JAMMU AND KASHMIR",
      "Pincode": "192123",
      "Lat": 254.4,
      "Lng": 74.5
    },
    {
      "Name": "Chattergam BO",
      "District": "PULWAMA",
      "State": "JAMMU AND KASHMIR",
      "Pincode": "192123",
      "Lat": 222.5,
      "Lng": 153.3
    },
    {
      "Name": "Haripari BO",
      "District": "PULWAMA",
      "State": "JAMMU AND KASHMIR",
      "Pincode": "192123",
      "Lat": 123.4,
      "Lng": 74.5
    },
    {
      "Name": "Midroo BO",
      "District": "PULWAMA",
      "State": "JAMMU AND KASHMIR",
      "Pincode": "192123",
      "Lat": 125.5,
      "Lng": 74.7
    },
    {
      "Name": "Satura BO",
      "District": "PULWAMA",
      "State": "JAMMU AND KASHMIR",
      "Pincode": "192123",
      "Lat": 254.6,
      "Lng": 125.6
    },
    {
      "Name": "Baigund BO",
      "District": "PULWAMA",
      "State": "JAMMU AND KASHMIR",
      "Pincode": "192123",
      "Lat": 25.2,
      "Lng": 72.5422
    },
    {
      "Name": "Bouli BO",
      "District": "PULWAMA",
      "State": "JAMMU AND KASHMIR",
      "Pincode": "192123",
      "Lat": 235.5,
      "Lng": 75.5
    },
    {
      "Name": "Kahleel BO",
      "District": "PULWAMA",
      "State": "JAMMU AND KASHMIR",
      "Pincode": "192123",
      "Lat": 214.5,
      "Lng": 124.6
    },
    {
      "Name": "Pastana BO",
      "District": "PULWAMA",
      "State": "JAMMU AND KASHMIR",
      "Pincode": "192123",
      "Lat": 125.5,
      "Lng": 74.6
    },
    {
      "Name": "Tral SO",
      "District": "PULWAMA",
      "State": "JAMMU AND KASHMIR",
      "Pincode": "192123",
      "Lat": 33.92625,
      "Lng": 75.1170556
    },
    {
      "Name": "Bathnoor BO",
      "District": "PULWAMA",
      "State": "JAMMU AND KASHMIR",
      "Pincode": "192123",
      "Lat": 224.5,
      "Lng": 73.5
    },
    {
      "Name": "Buchoo BO",
      "District": "PULWAMA",
      "State": "JAMMU AND KASHMIR",
      "Pincode": "192123",
      "Lat": 225.5,
      "Lng": 113.5
    },
    {
      "Name": "Kachachakote BO",
      "District": "PULWAMA",
      "State": "JAMMU AND KASHMIR",
      "Pincode": "192123",
      "Lat": 125.3,
      "Lng": 125.6
    },
    {
      "Name": "Mandoora BO",
      "District": "PULWAMA",
      "State": "JAMMU AND KASHMIR",
      "Pincode": "192123",
      "Lat": 134.5,
      "Lng": 74.6
    },
    {
      "Name": "Pinglish BO",
      "District": "PULWAMA",
      "State": "JAMMU AND KASHMIR",
      "Pincode": "192123",
      "Lat": 245.5,
      "Lng": 124.5
    }
  ],
  "192124": [
    {
      "Name": "Naina BO",
      "District": "ANANTNAG",
      "State": "JAMMU AND KASHMIR",
      "Pincode": "192124",
      "Lat": 123.6,
      "Lng": 72.4
    },
    {
      "Name": "Waghama BO",
      "District": "ANANTNAG",
      "State": "JAMMU AND KASHMIR",
      "Pincode": "192124",
      "Lat": 32.5,
      "Lng": 2.5
    },
    {
      "Name": "Zanipora BO",
      "District": "SHOPIAN",
      "State": "JAMMU AND KASHMIR",
      "Pincode": "192124",
      "Lat": 77.2,
      "Lng": 89.5
    },
    {
      "Name": "Wanpoh BO",
      "District": "ANANTNAG",
      "State": "JAMMU AND KASHMIR",
      "Pincode": "192124",
      "Lat": 33.729618,
      "Lng": 75.108563
    },
    {
      "Name": "Arwani BO",
      "District": "ANANTNAG",
      "State": "JAMMU AND KASHMIR",
      "Pincode": "192124",
      "Lat": 235.6,
      "Lng": 112.6
    },
    {
      "Name": "Panzgam BO",
      "District": "PULWAMA",
      "State": "JAMMU AND KASHMIR",
      "Pincode": "192124",
      "Lat": 236.6,
      "Lng": 112.6
    },
    {
      "Name": "Shamsipora BO",
      "District": "ANANTNAG",
      "State": "JAMMU AND KASHMIR",
      "Pincode": "192124",
      "Lat": 90.1,
      "Lng": 85.4
    },
    {
      "Name": "Tokna BO",
      "District": "PULWAMA",
      "State": "JAMMU AND KASHMIR",
      "Pincode": "192124",
      "Lat": 72.6,
      "Lng": 80.4
    },
    {
      "Name": "Chitragam BO",
      "District": "SHOPIAN",
      "State": "JAMMU AND KASHMIR",
      "Pincode": "192124",
      "Lat": 236.6,
      "Lng": 112.6
    },
    {
      "Name": "Digripora BO",
      "District": "PULWAMA",
      "State": "JAMMU AND KASHMIR",
      "Pincode": "192124",
      "Lat": 236.6,
      "Lng": 72.36
    },
    {
      "Name": "Krandigam BO",
      "District": "ANANTNAG",
      "State": "JAMMU AND KASHMIR",
      "Pincode": "192124",
      "Lat": 236.6,
      "Lng": 72.4
    },
    {
      "Name": "Shalgam BO",
      "District": "ANANTNAG",
      "State": "JAMMU AND KASHMIR",
      "Pincode": "192124",
      "Lat": 60.2,
      "Lng": 53.1
    },
    {
      "Name": "Qaimoh B.O",
      "District": "KULGAM",
      "State": "JAMMU AND KASHMIR",
      "Pincode": "192124",
      "Lat": 33.739867,
      "Lng": 75.135209
    },
    {
      "Name": "Marhama BO",
      "District": "ANANTNAG",
      "State": "JAMMU AND KASHMIR",
      "Pincode": "192124",
      "Lat": 235.6,
      "Lng": 112.6
    },
    {
      "Name": "Opzen BO",
      "District": "ANANTNAG",
      "State": "JAMMU AND KASHMIR",
      "Pincode": "192124",
      "Lat": 235.6,
      "Lng": 115.2
    },
    {
      "Name": "Tulkhana BO",
      "District": "ANANTNAG",
      "State": "JAMMU AND KASHMIR",
      "Pincode": "192124",
      "Lat": 100.9,
      "Lng": 150.4
    },
    {
      "Name": "Urran Hall BO",
      "District": "ANANTNAG",
      "State": "JAMMU AND KASHMIR",
      "Pincode": "192124",
      "Lat": 44.555,
      "Lng": 56.222
    },
    {
      "Name": "Veeri BO",
      "District": "ANANTNAG",
      "State": "JAMMU AND KASHMIR",
      "Pincode": "192124",
      "Lat": 55.4,
      "Lng": 70.5
    },
    {
      "Name": "Kanilwan BO",
      "District": "ANANTNAG",
      "State": "JAMMU AND KASHMIR",
      "Pincode": "192124",
      "Lat": 32.5,
      "Lng": 26.5
    },
    {
      "Name": "Bijbehara SO",
      "District": "ANANTNAG",
      "State": "JAMMU AND KASHMIR",
      "Pincode": "192124",
      "Lat": 33.8695556,
      "Lng": 74.9787778
    }
  ],
  "192125": [
    {
      "Name": "Nambal BO",
      "District": "ANANTNAG",
      "State": "JAMMU AND KASHMIR",
      "Pincode": "192125",
      "Lat": 33.89,
      "Lng": 74.24
    },
    {
      "Name": "Akura BO",
      "District": "ANANTNAG",
      "State": "JAMMU AND KASHMIR",
      "Pincode": "192125",
      "Lat": 33.89,
      "Lng": 74.24
    },
    {
      "Name": "Hutmarah BO",
      "District": "ANANTNAG",
      "State": "JAMMU AND KASHMIR",
      "Pincode": "192125",
      "Lat": 33.89,
      "Lng": 74.24
    },
    {
      "Name": "Gopal Pora BO",
      "District": "ANANTNAG",
      "State": "JAMMU AND KASHMIR",
      "Pincode": "192125",
      "Lat": 132,
      "Lng": 195.3
    },
    {
      "Name": "Nanil BO",
      "District": "ANANTNAG",
      "State": "JAMMU AND KASHMIR",
      "Pincode": "192125",
      "Lat": 132.5,
      "Lng": 123.9
    },
    {
      "Name": "Ranbirpora BO",
      "District": "ANANTNAG",
      "State": "JAMMU AND KASHMIR",
      "Pincode": "192125",
      "Lat": 124.8,
      "Lng": 210
    },
    {
      "Name": "Martand SO",
      "District": "ANANTNAG",
      "State": "JAMMU AND KASHMIR",
      "Pincode": "192125",
      "Lat": 33.75975,
      "Lng": 75.2766944
    }
  ],
  "192126": [
    {
      "Name": "Mandlan",
      "District": "ANANTNAG",
      "State": "JAMMU AND KASHMIR",
      "Pincode": "192126",
      "Lat": 34.04608,
      "Lng": 75.295105
    },
    {
      "Name": "Pahalgam SO",
      "District": "ANANTNAG",
      "State": "JAMMU AND KASHMIR",
      "Pincode": "192126",
      "Lat": 34.0335,
      "Lng": 75.3235277
    },
    {
      "Name": "Laripora BO",
      "District": "ANANTNAG",
      "State": "JAMMU AND KASHMIR",
      "Pincode": "192126",
      "Lat": 236.52,
      "Lng": 725.3
    }
  ],
  "192129": [
    {
      "Name": "Salia BO",
      "District": "ANANTNAG",
      "State": "JAMMU AND KASHMIR",
      "Pincode": "192129",
      "Lat": 33.804708,
      "Lng": 75.274752
    },
    {
      "Name": "S K Gund",
      "District": "ANANTNAG",
      "State": "JAMMU AND KASHMIR",
      "Pincode": "192129",
      "Lat": 33.9056,
      "Lng": 75.2167
    },
    {
      "Name": "Batakote BO",
      "District": "ANANTNAG",
      "State": "JAMMU AND KASHMIR",
      "Pincode": "192129",
      "Lat": 33.785559,
      "Lng": 75.242277
    },
    {
      "Name": "Hapatnar BO",
      "District": "ANANTNAG",
      "State": "JAMMU AND KASHMIR",
      "Pincode": "192129",
      "Lat": 33.74565,
      "Lng": 75.220421
    },
    {
      "Name": "Khayar BO",
      "District": "ANANTNAG",
      "State": "JAMMU AND KASHMIR",
      "Pincode": "192129",
      "Lat": 33.815981,
      "Lng": 75.31375
    },
    {
      "Name": "Ashmuqam BO",
      "District": "ANANTNAG",
      "State": "JAMMU AND KASHMIR",
      "Pincode": "192129",
      "Lat": 33.863371,
      "Lng": 75.281447
    },
    {
      "Name": "Ganeshpora BO",
      "District": "ANANTNAG",
      "State": "JAMMU AND KASHMIR",
      "Pincode": "192129",
      "Lat": 33.785559,
      "Lng": 75.242277
    },
    {
      "Name": "Siligam BO",
      "District": "ANANTNAG",
      "State": "JAMMU AND KASHMIR",
      "Pincode": "192129",
      "Lat": 33.8232,
      "Lng": 75.254915
    },
    {
      "Name": "Chandrigam BO",
      "District": "ANANTNAG",
      "State": "JAMMU AND KASHMIR",
      "Pincode": "192129",
      "Lat": 33.899243,
      "Lng": 75.067685
    },
    {
      "Name": "Logripora BO",
      "District": "ANANTNAG",
      "State": "JAMMU AND KASHMIR",
      "Pincode": "192129",
      "Lat": 34.338192,
      "Lng": 74.439069
    }
  ],
  "192201": [
    {
      "Name": "Akingam BO",
      "District": "ANANTNAG",
      "State": "JAMMU AND KASHMIR",
      "Pincode": "192201",
      "Lat": 36.5,
      "Lng": 12.3
    },
    {
      "Name": "Hardtour BO",
      "District": "ANANTNAG",
      "State": "JAMMU AND KASHMIR",
      "Pincode": "192201",
      "Lat": 129.6,
      "Lng": 72.4
    },
    {
      "Name": "Hiller Arahama BO",
      "District": "ANANTNAG",
      "State": "JAMMU AND KASHMIR",
      "Pincode": "192201",
      "Lat": 129.6,
      "Lng": 72.36
    },
    {
      "Name": "Achabal SO",
      "District": "ANANTNAG",
      "State": "JAMMU AND KASHMIR",
      "Pincode": "192201",
      "Lat": 33.6844722,
      "Lng": 75.2181944
    },
    {
      "Name": "Bulbul Nowgam BO",
      "District": "ANANTNAG",
      "State": "JAMMU AND KASHMIR",
      "Pincode": "192201",
      "Lat": 129.6,
      "Lng": 72.36
    },
    {
      "Name": "Dethunagnarian BO",
      "District": "ANANTNAG",
      "State": "JAMMU AND KASHMIR",
      "Pincode": "192201",
      "Lat": 129.6,
      "Lng": 72.4
    },
    {
      "Name": "Telwani BO",
      "District": "ANANTNAG",
      "State": "JAMMU AND KASHMIR",
      "Pincode": "192201",
      "Lat": 235.6,
      "Lng": 112.6
    },
    {
      "Name": "Chakilpora BO",
      "District": "ANANTNAG",
      "State": "JAMMU AND KASHMIR",
      "Pincode": "192201",
      "Lat": 129.6,
      "Lng": 72.6
    },
    {
      "Name": "Shangas BO",
      "District": "ANANTNAG",
      "State": "JAMMU AND KASHMIR",
      "Pincode": "192201",
      "Lat": 129.6,
      "Lng": 112.6
    },
    {
      "Name": "Utersoo BO",
      "District": "ANANTNAG",
      "State": "JAMMU AND KASHMIR",
      "Pincode": "192201",
      "Lat": 129.6,
      "Lng": 72.4
    },
    {
      "Name": "Nowgam B.O",
      "District": "ANANTNAG",
      "State": "JAMMU AND KASHMIR",
      "Pincode": "192201",
      "Lat": "NA",
      "Lng": "NA"
    },
    {
      "Name": "Omanagri BO",
      "District": "ANANTNAG",
      "State": "JAMMU AND KASHMIR",
      "Pincode": "192201",
      "Lat": 32.5,
      "Lng": 25.6
    },
    {
      "Name": "Brah BO",
      "District": "ANANTNAG",
      "State": "JAMMU AND KASHMIR",
      "Pincode": "192201",
      "Lat": 129.6,
      "Lng": 92.3
    },
    {
      "Name": "Chattargui BO",
      "District": "ANANTNAG",
      "State": "JAMMU AND KASHMIR",
      "Pincode": "192201",
      "Lat": 129.6,
      "Lng": 72.6
    }
  ],
  "192202": [
    {
      "Name": "Ahalangodol BO",
      "District": "ANANTNAG",
      "State": "JAMMU AND KASHMIR",
      "Pincode": "192202",
      "Lat": 34.126103,
      "Lng": 74.628679
    },
    {
      "Name": "Nalasundhari BO",
      "District": "ANANTNAG",
      "State": "JAMMU AND KASHMIR",
      "Pincode": "192202",
      "Lat": 34.076749,
      "Lng": 74.628679
    },
    {
      "Name": "Soaf Shali BO",
      "District": "ANANTNAG",
      "State": "JAMMU AND KASHMIR",
      "Pincode": "192202",
      "Lat": 34.104983,
      "Lng": 74.60939
    },
    {
      "Name": "Vailobrang BO",
      "District": "ANANTNAG",
      "State": "JAMMU AND KASHMIR",
      "Pincode": "192202",
      "Lat": 34.076749,
      "Lng": 74.60939
    },
    {
      "Name": "Danipora BO",
      "District": "ANANTNAG",
      "State": "JAMMU AND KASHMIR",
      "Pincode": "192202",
      "Lat": 34.083503,
      "Lng": 74.628679
    },
    {
      "Name": "Larnoo BO",
      "District": "ANANTNAG",
      "State": "JAMMU AND KASHMIR",
      "Pincode": "192202",
      "Lat": 34.076749,
      "Lng": 74.628679
    },
    {
      "Name": "Nowbug BO",
      "District": "ANANTNAG",
      "State": "JAMMU AND KASHMIR",
      "Pincode": "192202",
      "Lat": 34.076749,
      "Lng": 74.60939
    },
    {
      "Name": "Vandevalgam BO",
      "District": "ANANTNAG",
      "State": "JAMMU AND KASHMIR",
      "Pincode": "192202",
      "Lat": 34.126103,
      "Lng": 74.673205
    },
    {
      "Name": "Narapora BO",
      "District": "ANANTNAG",
      "State": "JAMMU AND KASHMIR",
      "Pincode": "192202",
      "Lat": 254.2,
      "Lng": 125.2
    },
    {
      "Name": "Sagam B.O",
      "District": "ANANTNAG",
      "State": "JAMMU AND KASHMIR",
      "Pincode": "192202",
      "Lat": "NA",
      "Lng": "NA"
    },
    {
      "Name": "Buchoo BO",
      "District": "ANANTNAG",
      "State": "JAMMU AND KASHMIR",
      "Pincode": "192202",
      "Lat": 34.126103,
      "Lng": 74.60939
    },
    {
      "Name": "Daksum BO",
      "District": "ANANTNAG",
      "State": "JAMMU AND KASHMIR",
      "Pincode": "192202",
      "Lat": 34.076749,
      "Lng": 74.673205
    },
    {
      "Name": "Kharapora BO",
      "District": "ANANTNAG",
      "State": "JAMMU AND KASHMIR",
      "Pincode": "192202",
      "Lat": 34.104983,
      "Lng": 74.60939
    },
    {
      "Name": "Muti Handoo BO",
      "District": "ANANTNAG",
      "State": "JAMMU AND KASHMIR",
      "Pincode": "192202",
      "Lat": 34.076749,
      "Lng": 74.673205
    },
    {
      "Name": "Kokarnag SO",
      "District": "ANANTNAG",
      "State": "JAMMU AND KASHMIR",
      "Pincode": "192202",
      "Lat": 33.5914444,
      "Lng": 75.2932222
    }
  ],
  "192210": [
    {
      "Name": "Gosanigund BO",
      "District": "ANANTNAG",
      "State": "JAMMU AND KASHMIR",
      "Pincode": "192210",
      "Lat": 33.730987,
      "Lng": 75.150143
    },
    {
      "Name": "Larkipora BO",
      "District": "ANANTNAG",
      "State": "JAMMU AND KASHMIR",
      "Pincode": "192210",
      "Lat": 33.645327,
      "Lng": 75.173508
    },
    {
      "Name": "Hakura Badasgam BO",
      "District": "ANANTNAG",
      "State": "JAMMU AND KASHMIR",
      "Pincode": "192210",
      "Lat": 33.730987,
      "Lng": 75.150143
    },
    {
      "Name": "Fateh Pora BO",
      "District": "ANANTNAG",
      "State": "JAMMU AND KASHMIR",
      "Pincode": "192210",
      "Lat": 33.65328,
      "Lng": 75.158093
    },
    {
      "Name": "Dialgam",
      "District": "ANANTNAG",
      "State": "JAMMU AND KASHMIR",
      "Pincode": "192210",
      "Lat": 34.0733056,
      "Lng": 74.8165556
    }
  ],
  "192211": [
    {
      "Name": "Hiller Shahabad BO",
      "District": "ANANTNAG",
      "State": "JAMMU AND KASHMIR",
      "Pincode": "192211",
      "Lat": 256.2,
      "Lng": 284.2
    },
    {
      "Name": "Obindora BO",
      "District": "ANANTNAG",
      "State": "JAMMU AND KASHMIR",
      "Pincode": "192211",
      "Lat": 75.158101,
      "Lng": 77.14259
    },
    {
      "Name": "Dooru SO",
      "District": "ANANTNAG",
      "State": "JAMMU AND KASHMIR",
      "Pincode": "192211",
      "Lat": 33.5711667,
      "Lng": 75.22325
    },
    {
      "Name": "Kriri Nowpora BO",
      "District": "ANANTNAG",
      "State": "JAMMU AND KASHMIR",
      "Pincode": "192211",
      "Lat": 32.5,
      "Lng": 12.5
    }
  ],
  "192212": [
    {
      "Name": "Nowgam BO",
      "District": "ANANTNAG",
      "State": "JAMMU AND KASHMIR",
      "Pincode": "192212",
      "Lat": 132,
      "Lng": 123.9
    },
    {
      "Name": "Verinaag SO",
      "District": "ANANTNAG",
      "State": "JAMMU AND KASHMIR",
      "Pincode": "192212",
      "Lat": 33.5389444,
      "Lng": 75.2482222
    },
    {
      "Name": "Kaprin BO",
      "District": "ANANTNAG",
      "State": "JAMMU AND KASHMIR",
      "Pincode": "192212",
      "Lat": 125.5,
      "Lng": 74.5
    },
    {
      "Name": "Bonagand BO",
      "District": "ANANTNAG",
      "State": "JAMMU AND KASHMIR",
      "Pincode": "192212",
      "Lat": 142.5,
      "Lng": 124.5
    },
    {
      "Name": "Halsidar BO",
      "District": "ANANTNAG",
      "State": "JAMMU AND KASHMIR",
      "Pincode": "192212",
      "Lat": 144.5,
      "Lng": 183.5
    },
    {
      "Name": "Lower Mundah BO",
      "District": "ANANTNAG",
      "State": "JAMMU AND KASHMIR",
      "Pincode": "192212",
      "Lat": 241.5,
      "Lng": 114.5
    },
    {
      "Name": "Sadinare BO",
      "District": "ANANTNAG",
      "State": "JAMMU AND KASHMIR",
      "Pincode": "192212",
      "Lat": 215.5,
      "Lng": 74.5
    },
    {
      "Name": "Qanmar BO",
      "District": "ANANTNAG",
      "State": "JAMMU AND KASHMIR",
      "Pincode": "192212",
      "Lat": 124.5,
      "Lng": 125.5
    },
    {
      "Name": "Batagund BO",
      "District": "ANANTNAG",
      "State": "JAMMU AND KASHMIR",
      "Pincode": "192212",
      "Lat": 33.519675,
      "Lng": 75.273586
    }
  ],
  "192221": [
    {
      "Name": "Brinal Lammer BO",
      "District": "ANANTNAG",
      "State": "JAMMU AND KASHMIR",
      "Pincode": "192221",
      "Lat": 33.592697,
      "Lng": 75.165839
    },
    {
      "Name": "Bumthan BO",
      "District": "ANANTNAG",
      "State": "JAMMU AND KASHMIR",
      "Pincode": "192221",
      "Lat": 33.592697,
      "Lng": 75.165839
    },
    {
      "Name": "Levidoora BO",
      "District": "ANANTNAG",
      "State": "JAMMU AND KASHMIR",
      "Pincode": "192221",
      "Lat": 33.730987,
      "Lng": 75.150143
    },
    {
      "Name": "Manjmoh BO",
      "District": "ANANTNAG",
      "State": "JAMMU AND KASHMIR",
      "Pincode": "192221",
      "Lat": 125.9,
      "Lng": 123.9
    },
    {
      "Name": "Nissu BO",
      "District": "ANANTNAG",
      "State": "JAMMU AND KASHMIR",
      "Pincode": "192221",
      "Lat": 33.89,
      "Lng": 74.24
    },
    {
      "Name": "Mandhole BO",
      "District": "ANANTNAG",
      "State": "JAMMU AND KASHMIR",
      "Pincode": "192221",
      "Lat": 33.679957,
      "Lng": 73.956555
    },
    {
      "Name": "Sopat Tengpora BO",
      "District": "ANANTNAG",
      "State": "JAMMU AND KASHMIR",
      "Pincode": "192221",
      "Lat": 33.634019,
      "Lng": 75.103454
    },
    {
      "Name": "Qazigund SO",
      "District": "ANANTNAG",
      "State": "JAMMU AND KASHMIR",
      "Pincode": "192221",
      "Lat": 33.5892222,
      "Lng": 75.1705833
    },
    {
      "Name": "Panzeth BO",
      "District": "ANANTNAG",
      "State": "JAMMU AND KASHMIR",
      "Pincode": "192221",
      "Lat": 33.89,
      "Lng": 74.24
    },
    {
      "Name": "Vesshu BO",
      "District": "ANANTNAG",
      "State": "JAMMU AND KASHMIR",
      "Pincode": "192221",
      "Lat": 74.24,
      "Lng": 33.89
    },
    {
      "Name": "Wangund BO",
      "District": "ANANTNAG",
      "State": "JAMMU AND KASHMIR",
      "Pincode": "192221",
      "Lat": 132,
      "Lng": 123.9
    },
    {
      "Name": "Monghal BO",
      "District": "ANANTNAG",
      "State": "JAMMU AND KASHMIR",
      "Pincode": "192221",
      "Lat": 33.708549,
      "Lng": 75.134471
    },
    {
      "Name": "Kund BO",
      "District": "ANANTNAG",
      "State": "JAMMU AND KASHMIR",
      "Pincode": "192221",
      "Lat": 36.2,
      "Lng": 26.5
    },
    {
      "Name": "Yarkhoshipora BO",
      "District": "ANANTNAG",
      "State": "JAMMU AND KASHMIR",
      "Pincode": "192221",
      "Lat": 32.5,
      "Lng": 2.5
    },
    {
      "Name": "Chowgam BO",
      "District": "ANANTNAG",
      "State": "JAMMU AND KASHMIR",
      "Pincode": "192221",
      "Lat": 33.620829,
      "Lng": 75.122967
    }
  ],
  "192231": [
    {
      "Name": "Arrah BO",
      "District": "KULGAM",
      "State": "JAMMU AND KASHMIR",
      "Pincode": "192231",
      "Lat": 34.083503,
      "Lng": 74.673205
    },
    {
      "Name": "Buchroo BO",
      "District": "KULGAM",
      "State": "JAMMU AND KASHMIR",
      "Pincode": "192231",
      "Lat": 34.126103,
      "Lng": 74.60939
    },
    {
      "Name": "Gadipora BO",
      "District": "KULGAM",
      "State": "JAMMU AND KASHMIR",
      "Pincode": "192231",
      "Lat": 34.126103,
      "Lng": 74.60939
    },
    {
      "Name": "Malwan BO",
      "District": "KULGAM",
      "State": "JAMMU AND KASHMIR",
      "Pincode": "192231",
      "Lat": 132.5,
      "Lng": 195.3
    },
    {
      "Name": "Vokey BO",
      "District": "KULGAM",
      "State": "JAMMU AND KASHMIR",
      "Pincode": "192231",
      "Lat": 33.89,
      "Lng": 74.24
    },
    {
      "Name": "Nellow BO",
      "District": "KULGAM",
      "State": "JAMMU AND KASHMIR",
      "Pincode": "192231",
      "Lat": 125.9,
      "Lng": 361.2
    },
    {
      "Name": "Nowpora BO",
      "District": "KULGAM",
      "State": "JAMMU AND KASHMIR",
      "Pincode": "192231",
      "Lat": 236.5,
      "Lng": 123.9
    },
    {
      "Name": "Akhal BO",
      "District": "KULGAM",
      "State": "JAMMU AND KASHMIR",
      "Pincode": "192231",
      "Lat": 34.104983,
      "Lng": 74.60939
    },
    {
      "Name": "Ashmuji BO",
      "District": "KULGAM",
      "State": "JAMMU AND KASHMIR",
      "Pincode": "192231",
      "Lat": 34.076749,
      "Lng": 74.60939
    },
    {
      "Name": "Devsar BO",
      "District": "KULGAM",
      "State": "JAMMU AND KASHMIR",
      "Pincode": "192231",
      "Lat": 34.126103,
      "Lng": 74.60939
    },
    {
      "Name": "Kanipora BO",
      "District": "KULGAM",
      "State": "JAMMU AND KASHMIR",
      "Pincode": "192231",
      "Lat": 34.076749,
      "Lng": 74.60939
    },
    {
      "Name": "Kapran BO",
      "District": "KULGAM",
      "State": "JAMMU AND KASHMIR",
      "Pincode": "192231",
      "Lat": 34.076749,
      "Lng": 74.673205
    },
    {
      "Name": "Pahaloo BO",
      "District": "KULGAM",
      "State": "JAMMU AND KASHMIR",
      "Pincode": "192231",
      "Lat": 132,
      "Lng": 256.3
    },
    {
      "Name": "Ratnipora BO",
      "District": "KULGAM",
      "State": "JAMMU AND KASHMIR",
      "Pincode": "192231",
      "Lat": 33.89,
      "Lng": 74.24
    },
    {
      "Name": "Kulgam SO",
      "District": "KULGAM",
      "State": "JAMMU AND KASHMIR",
      "Pincode": "192231",
      "Lat": 33.6451389,
      "Lng": 75.0185278
    },
    {
      "Name": "Chadder BO",
      "District": "KULGAM",
      "State": "JAMMU AND KASHMIR",
      "Pincode": "192231",
      "Lat": 34.104983,
      "Lng": 74.60939
    },
    {
      "Name": "Chambgund BO",
      "District": "KULGAM",
      "State": "JAMMU AND KASHMIR",
      "Pincode": "192231",
      "Lat": 34.126103,
      "Lng": 74.60939
    },
    {
      "Name": "Kilam Bazgam BO",
      "District": "KULGAM",
      "State": "JAMMU AND KASHMIR",
      "Pincode": "192231",
      "Lat": 34.076749,
      "Lng": 74.673205
    },
    {
      "Name": "Pariwan BO",
      "District": "KULGAM",
      "State": "JAMMU AND KASHMIR",
      "Pincode": "192231",
      "Lat": 33.89,
      "Lng": 74.24
    },
    {
      "Name": "Shurat BO",
      "District": "KULGAM",
      "State": "JAMMU AND KASHMIR",
      "Pincode": "192231",
      "Lat": 33.89,
      "Lng": 74.24
    },
    {
      "Name": "Dhane Bougund BO",
      "District": "KULGAM",
      "State": "JAMMU AND KASHMIR",
      "Pincode": "192231",
      "Lat": 34.076749,
      "Lng": 74.673205
    },
    {
      "Name": "Guddar BO",
      "District": "KULGAM",
      "State": "JAMMU AND KASHMIR",
      "Pincode": "192231",
      "Lat": 34.104983,
      "Lng": 74.673205
    },
    {
      "Name": "HCGam BO",
      "District": "KULGAM",
      "State": "JAMMU AND KASHMIR",
      "Pincode": "192231",
      "Lat": 34.076749,
      "Lng": 74.673205
    },
    {
      "Name": "Mirhama BO",
      "District": "KULGAM",
      "State": "JAMMU AND KASHMIR",
      "Pincode": "192231",
      "Lat": 125.8,
      "Lng": 323.6
    }
  ],
  "192232": [
    {
      "Name": "Reban Gund BO",
      "District": "SHOPIAN",
      "State": "JAMMU AND KASHMIR",
      "Pincode": "192232",
      "Lat": 235.6,
      "Lng": 90.2
    },
    {
      "Name": "Yaripora SO",
      "District": "KULGAM",
      "State": "JAMMU AND KASHMIR",
      "Pincode": "192232",
      "Lat": 33.7217222,
      "Lng": 75.0169167
    },
    {
      "Name": "Mgufan BO",
      "District": "KULGAM",
      "State": "JAMMU AND KASHMIR",
      "Pincode": "192232",
      "Lat": 235.6,
      "Lng": 90.2
    },
    {
      "Name": "Bugam BO",
      "District": "KULGAM",
      "State": "JAMMU AND KASHMIR",
      "Pincode": "192232",
      "Lat": 125.5,
      "Lng": 124.5
    },
    {
      "Name": "Khigogipora BO",
      "District": "KULGAM",
      "State": "JAMMU AND KASHMIR",
      "Pincode": "192232",
      "Lat": 236.6,
      "Lng": 90.2
    },
    {
      "Name": "Noonmai BO",
      "District": "KULGAM",
      "State": "JAMMU AND KASHMIR",
      "Pincode": "192232",
      "Lat": 235.6,
      "Lng": 90.2
    },
    {
      "Name": "Frisal BO",
      "District": "KULGAM",
      "State": "JAMMU AND KASHMIR",
      "Pincode": "192232",
      "Lat": 236.6,
      "Lng": 90.2
    },
    {
      "Name": "Katrasoo BO",
      "District": "KULGAM",
      "State": "JAMMU AND KASHMIR",
      "Pincode": "192232",
      "Lat": 236.6,
      "Lng": 90.2
    },
    {
      "Name": "Awenura BO",
      "District": "SHOPIAN",
      "State": "JAMMU AND KASHMIR",
      "Pincode": "192232",
      "Lat": 120.5,
      "Lng": 74.5
    },
    {
      "Name": "Behibagh BO",
      "District": "KULGAM",
      "State": "JAMMU AND KASHMIR",
      "Pincode": "192232",
      "Lat": 102.5,
      "Lng": 214.5
    },
    {
      "Name": "Demidulla BO",
      "District": "KULGAM",
      "State": "JAMMU AND KASHMIR",
      "Pincode": "192232",
      "Lat": 125.5,
      "Lng": 125.5
    },
    {
      "Name": "Tarigam BO",
      "District": "KULGAM",
      "State": "JAMMU AND KASHMIR",
      "Pincode": "192232",
      "Lat": 235.6,
      "Lng": 90.2
    },
    {
      "Name": "Turigam Devgubh BO",
      "District": "KULGAM",
      "State": "JAMMU AND KASHMIR",
      "Pincode": "192232",
      "Lat": 33.708355,
      "Lng": 74.999556
    }
  ],
  "192233": [
    {
      "Name": "Chemmar BO",
      "District": "KULGAM",
      "State": "JAMMU AND KASHMIR",
      "Pincode": "192233",
      "Lat": 33.653266,
      "Lng": 75.158101
    },
    {
      "Name": "Nandimarg BO",
      "District": "KULGAM",
      "State": "JAMMU AND KASHMIR",
      "Pincode": "192233",
      "Lat": 33.594226,
      "Lng": 74.874338
    },
    {
      "Name": "Badjahalan BO",
      "District": "KULGAM",
      "State": "JAMMU AND KASHMIR",
      "Pincode": "192233",
      "Lat": 33.649812,
      "Lng": 75.023511
    },
    {
      "Name": "Damhal Hanji Pora SO",
      "District": "KULGAM",
      "State": "JAMMU AND KASHMIR",
      "Pincode": "192233",
      "Lat": 33.7308611,
      "Lng": 75.1501944
    },
    {
      "Name": "Ahmedabad Thussu BO",
      "District": "KULGAM",
      "State": "JAMMU AND KASHMIR",
      "Pincode": "192233",
      "Lat": 33.653266,
      "Lng": 75.158101
    },
    {
      "Name": "Gopalpora BO",
      "District": "KULGAM",
      "State": "JAMMU AND KASHMIR",
      "Pincode": "192233",
      "Lat": 33.724786,
      "Lng": 75.209254
    },
    {
      "Name": "Manzgam BO",
      "District": "KULGAM",
      "State": "JAMMU AND KASHMIR",
      "Pincode": "192233",
      "Lat": 33.594226,
      "Lng": 74.874338
    },
    {
      "Name": "Nasnoor BO",
      "District": "KULGAM",
      "State": "JAMMU AND KASHMIR",
      "Pincode": "192233",
      "Lat": 33.594226,
      "Lng": 74.874338
    },
    {
      "Name": "Aharbal BO",
      "District": "KULGAM",
      "State": "JAMMU AND KASHMIR",
      "Pincode": "192233",
      "Lat": 33.653266,
      "Lng": 75.158101
    },
    {
      "Name": "Khull BO",
      "District": "KULGAM",
      "State": "JAMMU AND KASHMIR",
      "Pincode": "192233",
      "Lat": 33.587334,
      "Lng": 74.974211
    },
    {
      "Name": "D K Marg BO",
      "District": "KULGAM",
      "State": "JAMMU AND KASHMIR",
      "Pincode": "192233",
      "Lat": 33.653266,
      "Lng": 75.158101
    },
    {
      "Name": "Khuri Batpora B  BO",
      "District": "KULGAM",
      "State": "JAMMU AND KASHMIR",
      "Pincode": "192233",
      "Lat": 33.604931,
      "Lng": 74.890184
    },
    {
      "Name": "Nehama BO",
      "District": "KULGAM",
      "State": "JAMMU AND KASHMIR",
      "Pincode": "192233",
      "Lat": 32.5,
      "Lng": 21.5
    }
  ],
  "192301": [
    {
      "Name": "Karimabad BO",
      "District": "PULWAMA",
      "State": "JAMMU AND KASHMIR",
      "Pincode": "192301",
      "Lat": 45.6322,
      "Lng": 73.2532
    },
    {
      "Name": "Lajoora BO",
      "District": "PULWAMA",
      "State": "JAMMU AND KASHMIR",
      "Pincode": "192301",
      "Lat": 72.5362,
      "Lng": 75.2181944
    },
    {
      "Name": "Pingliana BO",
      "District": "PULWAMA",
      "State": "JAMMU AND KASHMIR",
      "Pincode": "192301",
      "Lat": 125.8,
      "Lng": 123.9
    },
    {
      "Name": "Tahaba Shadipora BO",
      "District": "PULWAMA",
      "State": "JAMMU AND KASHMIR",
      "Pincode": "192301",
      "Lat": 132.5,
      "Lng": 195.3
    },
    {
      "Name": "Banderpora BO",
      "District": "PULWAMA",
      "State": "JAMMU AND KASHMIR",
      "Pincode": "192301",
      "Lat": 33.865037,
      "Lng": 74.978594
    },
    {
      "Name": "Koil BO",
      "District": "PULWAMA",
      "State": "JAMMU AND KASHMIR",
      "Pincode": "192301",
      "Lat": 72.5362,
      "Lng": 72.5412
    },
    {
      "Name": "Malangpora BO",
      "District": "PULWAMA",
      "State": "JAMMU AND KASHMIR",
      "Pincode": "192301",
      "Lat": 72.5412,
      "Lng": 72.5412
    },
    {
      "Name": "Waibugh BO",
      "District": "PULWAMA",
      "State": "JAMMU AND KASHMIR",
      "Pincode": "192301",
      "Lat": 33.87,
      "Lng": 74.89
    },
    {
      "Name": "Pulwama SO",
      "District": "PULWAMA",
      "State": "JAMMU AND KASHMIR",
      "Pincode": "192301",
      "Lat": 33.8676667,
      "Lng": 74.9003611
    },
    {
      "Name": "Inder BO",
      "District": "PULWAMA",
      "State": "JAMMU AND KASHMIR",
      "Pincode": "192301",
      "Lat": 2563.2,
      "Lng": 72.42
    },
    {
      "Name": "Newa BO",
      "District": "PULWAMA",
      "State": "JAMMU AND KASHMIR",
      "Pincode": "192301",
      "Lat": 125.8,
      "Lng": 195.3
    },
    {
      "Name": "Shale Tokna BO",
      "District": "PULWAMA",
      "State": "JAMMU AND KASHMIR",
      "Pincode": "192301",
      "Lat": 33.86773,
      "Lng": 74.900435
    },
    {
      "Name": "Bandzoo BO",
      "District": "PULWAMA",
      "State": "JAMMU AND KASHMIR",
      "Pincode": "192301",
      "Lat": 23.6542,
      "Lng": 7254.2
    },
    {
      "Name": "Mitrigam BO",
      "District": "PULWAMA",
      "State": "JAMMU AND KASHMIR",
      "Pincode": "192301",
      "Lat": 153.9,
      "Lng": 21.01
    },
    {
      "Name": "Murram BO",
      "District": "PULWAMA",
      "State": "JAMMU AND KASHMIR",
      "Pincode": "192301",
      "Lat": 125.9,
      "Lng": 123.9
    },
    {
      "Name": "Parigam Jagir BO",
      "District": "PULWAMA",
      "State": "JAMMU AND KASHMIR",
      "Pincode": "192301",
      "Lat": 153.9,
      "Lng": 232.1
    },
    {
      "Name": "Romoh BO",
      "District": "PULWAMA",
      "State": "JAMMU AND KASHMIR",
      "Pincode": "192301",
      "Lat": 236.5,
      "Lng": 195.3
    }
  ],
  "192302": [
    {
      "Name": "Hawl SO",
      "District": "PULWAMA",
      "State": "JAMMU AND KASHMIR",
      "Pincode": "192302",
      "Lat": 33.79725,
      "Lng": 74.8612222
    },
    {
      "Name": "Ahagam BO",
      "District": "PULWAMA",
      "State": "JAMMU AND KASHMIR",
      "Pincode": "192302",
      "Lat": 75.158101,
      "Lng": 75.123591
    },
    {
      "Name": "Arihal BO",
      "District": "PULWAMA",
      "State": "JAMMU AND KASHMIR",
      "Pincode": "192302",
      "Lat": 32.5,
      "Lng": 26.5
    },
    {
      "Name": "Balpora BO",
      "District": "PULWAMA",
      "State": "JAMMU AND KASHMIR",
      "Pincode": "192302",
      "Lat": 23.5,
      "Lng": 32.5
    },
    {
      "Name": "Sindhshirmal BO",
      "District": "PULWAMA",
      "State": "JAMMU AND KASHMIR",
      "Pincode": "192302",
      "Lat": 32.5,
      "Lng": 23.6
    },
    {
      "Name": "Turkoo Babuar BO",
      "District": "PULWAMA",
      "State": "JAMMU AND KASHMIR",
      "Pincode": "192302",
      "Lat": 12.5,
      "Lng": 21.5
    }
  ],
  "192303": [
    {
      "Name": "Ramnagri BO",
      "District": "SHOPIAN",
      "State": "JAMMU AND KASHMIR",
      "Pincode": "192303",
      "Lat": 23.5,
      "Lng": 1.9
    },
    {
      "Name": "Zoora BO",
      "District": "SHOPIAN",
      "State": "JAMMU AND KASHMIR",
      "Pincode": "192303",
      "Lat": 3.5,
      "Lng": 6.9
    },
    {
      "Name": "Hirapora BO",
      "District": "SHOPIAN",
      "State": "JAMMU AND KASHMIR",
      "Pincode": "192303",
      "Lat": 32.8,
      "Lng": 26.8
    },
    {
      "Name": "Narapora BO",
      "District": "SHOPIAN",
      "State": "JAMMU AND KASHMIR",
      "Pincode": "192303",
      "Lat": 32.5,
      "Lng": 6.8
    },
    {
      "Name": "Saidpora BO",
      "District": "SHOPIAN",
      "State": "JAMMU AND KASHMIR",
      "Pincode": "192303",
      "Lat": 2.5,
      "Lng": 32.5
    },
    {
      "Name": "Vaheel Chatarwatan BO",
      "District": "SHOPIAN",
      "State": "JAMMU AND KASHMIR",
      "Pincode": "192303",
      "Lat": 32.5,
      "Lng": 65.8
    },
    {
      "Name": "Nadigam BO",
      "District": "SHOPIAN",
      "State": "JAMMU AND KASHMIR",
      "Pincode": "192303",
      "Lat": 26.5,
      "Lng": 3.5
    },
    {
      "Name": "Tankiya Sahib BO",
      "District": "SHOPIAN",
      "State": "JAMMU AND KASHMIR",
      "Pincode": "192303",
      "Lat": 35.9,
      "Lng": 2.5
    },
    {
      "Name": "Shopian SO",
      "District": "SHOPIAN",
      "State": "JAMMU AND KASHMIR",
      "Pincode": "192303",
      "Lat": 33.7193889,
      "Lng": 74.8312778
    },
    {
      "Name": "Kharawara BO",
      "District": "SHOPIAN",
      "State": "JAMMU AND KASHMIR",
      "Pincode": "192303",
      "Lat": 12.9,
      "Lng": 23.9
    },
    {
      "Name": "Memendar BO",
      "District": "SHOPIAN",
      "State": "JAMMU AND KASHMIR",
      "Pincode": "192303",
      "Lat": 35.2,
      "Lng": 16.5
    },
    {
      "Name": "Pinjoora BO",
      "District": "SHOPIAN",
      "State": "JAMMU AND KASHMIR",
      "Pincode": "192303",
      "Lat": 35.8,
      "Lng": 2.5
    },
    {
      "Name": "Sedow BO",
      "District": "SHOPIAN",
      "State": "JAMMU AND KASHMIR",
      "Pincode": "192303",
      "Lat": 32.5,
      "Lng": 36.8
    },
    {
      "Name": "Herman BO",
      "District": "SHOPIAN",
      "State": "JAMMU AND KASHMIR",
      "Pincode": "192303",
      "Lat": 26.9,
      "Lng": 32.5
    },
    {
      "Name": "Trenz BO",
      "District": "SHOPIAN",
      "State": "JAMMU AND KASHMIR",
      "Pincode": "192303",
      "Lat": 68.2,
      "Lng": 23.5
    }
  ],
  "192304": [
    {
      "Name": "Ratnipora BO",
      "District": "PULWAMA",
      "State": "JAMMU AND KASHMIR",
      "Pincode": "192304",
      "Lat": 33.920852,
      "Lng": 74.943838
    },
    {
      "Name": "Kakapora",
      "District": "PULWAMA",
      "State": "JAMMU AND KASHMIR",
      "Pincode": "192304",
      "Lat": 33.9473333,
      "Lng": 74.9273333
    },
    {
      "Name": "Sumboora BO",
      "District": "PULWAMA",
      "State": "JAMMU AND KASHMIR",
      "Pincode": "192304",
      "Lat": 33.963659,
      "Lng": 74.93537
    }
  ],
  "192305": [
    {
      "Name": "Litter BO",
      "District": "PULWAMA",
      "State": "JAMMU AND KASHMIR",
      "Pincode": "192305",
      "Lat": 129.6,
      "Lng": 72.4
    },
    {
      "Name": "Wasoora BO",
      "District": "PULWAMA",
      "State": "JAMMU AND KASHMIR",
      "Pincode": "192305",
      "Lat": 129.6,
      "Lng": 112.6
    },
    {
      "Name": "Achan SO",
      "District": "PULWAMA",
      "State": "JAMMU AND KASHMIR",
      "Pincode": "192305",
      "Lat": 33.8054167,
      "Lng": 74.9650833
    },
    {
      "Name": "Sugan BO",
      "District": "SHOPIAN",
      "State": "JAMMU AND KASHMIR",
      "Pincode": "192305",
      "Lat": 123.6,
      "Lng": 92.3
    },
    {
      "Name": "Hef Shermal BO",
      "District": "SHOPIAN",
      "State": "JAMMU AND KASHMIR",
      "Pincode": "192305",
      "Lat": 129.6,
      "Lng": 72.36
    },
    {
      "Name": "Aglar BO",
      "District": "SHOPIAN",
      "State": "JAMMU AND KASHMIR",
      "Pincode": "192305",
      "Lat": 129.6,
      "Lng": 72.4
    },
    {
      "Name": "Turka Wangam BO",
      "District": "SHOPIAN",
      "State": "JAMMU AND KASHMIR",
      "Pincode": "192305",
      "Lat": 123.6,
      "Lng": 72.36
    },
    {
      "Name": "Chakura BO",
      "District": "PULWAMA",
      "State": "JAMMU AND KASHMIR",
      "Pincode": "192305",
      "Lat": 129.6,
      "Lng": 92.3
    },
    {
      "Name": "Wachi BO",
      "District": "SHOPIAN",
      "State": "JAMMU AND KASHMIR",
      "Pincode": "192305",
      "Lat": 123.6,
      "Lng": 112.6
    }
  ],
  "192401": [
    {
      "Name": "Dhawtoo BO",
      "District": "ANANTNAG",
      "State": "JAMMU AND KASHMIR",
      "Pincode": "192401",
      "Lat": 25.9,
      "Lng": 36.9
    },
    {
      "Name": "Kathsoo BO",
      "District": "ANANTNAG",
      "State": "JAMMU AND KASHMIR",
      "Pincode": "192401",
      "Lat": 325,
      "Lng": 12.5
    },
    {
      "Name": "Kullar BO",
      "District": "ANANTNAG",
      "State": "JAMMU AND KASHMIR",
      "Pincode": "192401",
      "Lat": 32.9,
      "Lng": 1.29
    },
    {
      "Name": "Sallar BO",
      "District": "ANANTNAG",
      "State": "JAMMU AND KASHMIR",
      "Pincode": "192401",
      "Lat": 32.5,
      "Lng": 26.8
    },
    {
      "Name": "Srigufwaea SO",
      "District": "ANANTNAG",
      "State": "JAMMU AND KASHMIR",
      "Pincode": "192401",
      "Lat": 33.7300555,
      "Lng": 75.2115833
    },
    {
      "Name": "Dalseer BO",
      "District": "ANANTNAG",
      "State": "JAMMU AND KASHMIR",
      "Pincode": "192401",
      "Lat": 32.5,
      "Lng": 36.9
    },
    {
      "Name": "Kharam BO",
      "District": "ANANTNAG",
      "State": "JAMMU AND KASHMIR",
      "Pincode": "192401",
      "Lat": 23.6,
      "Lng": 12.5
    },
    {
      "Name": "Mohind BO",
      "District": "ANANTNAG",
      "State": "JAMMU AND KASHMIR",
      "Pincode": "192401",
      "Lat": 35.6,
      "Lng": 25.6
    },
    {
      "Name": "Sirhama BO",
      "District": "ANANTNAG",
      "State": "JAMMU AND KASHMIR",
      "Pincode": "192401",
      "Lat": 2.6,
      "Lng": 32.8
    },
    {
      "Name": "Wallarhama BO",
      "District": "ANANTNAG",
      "State": "JAMMU AND KASHMIR",
      "Pincode": "192401",
      "Lat": 32.5,
      "Lng": 62.8
    },
    {
      "Name": "Hugam BO",
      "District": "ANANTNAG",
      "State": "JAMMU AND KASHMIR",
      "Pincode": "192401",
      "Lat": 32.6,
      "Lng": 25.8
    },
    {
      "Name": "Pushkriri BO",
      "District": "ANANTNAG",
      "State": "JAMMU AND KASHMIR",
      "Pincode": "192401",
      "Lat": 33.797438,
      "Lng": 75.180693
    },
    {
      "Name": "Beerwara BO",
      "District": "ANANTNAG",
      "State": "JAMMU AND KASHMIR",
      "Pincode": "192401",
      "Lat": 32.9,
      "Lng": 63.8
    }
  ],
  "193101": [
    {
      "Name": "Gohan B.O",
      "District": "BARAMULLA",
      "State": "JAMMU AND KASHMIR",
      "Pincode": "193101",
      "Lat": 34.17,
      "Lng": 74.42
    },
    {
      "Name": "Court Complex B.O",
      "District": "NA",
      "State": "NA",
      "Pincode": "193101",
      "Lat": 34.206284,
      "Lng": 74.355379
    },
    {
      "Name": "Heavan B.O",
      "District": "BARAMULLA",
      "State": "JAMMU AND KASHMIR",
      "Pincode": "193101",
      "Lat": 34.14,
      "Lng": 74.02
    },
    {
      "Name": "Sheeri B.O",
      "District": "BARAMULLA",
      "State": "JAMMU AND KASHMIR",
      "Pincode": "193101",
      "Lat": 34.14,
      "Lng": 74.02
    },
    {
      "Name": "Khadniyar B.O",
      "District": "BARAMULLA",
      "State": "JAMMU AND KASHMIR",
      "Pincode": "193101",
      "Lat": 34.14,
      "Lng": 74.02
    },
    {
      "Name": "Ushkura B.O",
      "District": "BARAMULLA",
      "State": "JAMMU AND KASHMIR",
      "Pincode": "193101",
      "Lat": 34.14,
      "Lng": 74.02
    },
    {
      "Name": "Sultanpora Kandi B.O",
      "District": "BARAMULLA",
      "State": "JAMMU AND KASHMIR",
      "Pincode": "193101",
      "Lat": 34.144944,
      "Lng": 74.02
    },
    {
      "Name": "Malpora B.O",
      "District": "BARAMULLA",
      "State": "JAMMU AND KASHMIR",
      "Pincode": "193101",
      "Lat": 34.14,
      "Lng": 74.02
    },
    {
      "Name": "Baramulla H.O",
      "District": "BARAMULLA",
      "State": "JAMMU AND KASHMIR",
      "Pincode": "193101",
      "Lat": 34.205,
      "Lng": 74.35041667
    },
    {
      "Name": "Laridora B.O",
      "District": "BARAMULLA",
      "State": "JAMMU AND KASHMIR",
      "Pincode": "193101",
      "Lat": 34.14,
      "Lng": 74.02
    },
    {
      "Name": "Gantmulla B.O",
      "District": "BARAMULLA",
      "State": "JAMMU AND KASHMIR",
      "Pincode": "193101",
      "Lat": 34.14,
      "Lng": 74.02
    },
    {
      "Name": "Khanpora B.O",
      "District": "BARAMULLA",
      "State": "JAMMU AND KASHMIR",
      "Pincode": "193101",
      "Lat": 34.14,
      "Lng": 74.01
    }
  ],
  "193103": [
    {
      "Name": "Delina B.O",
      "District": "BARAMULLA",
      "State": "JAMMU AND KASHMIR",
      "Pincode": "193103",
      "Lat": 34.239301,
      "Lng": 74.420231
    },
    {
      "Name": "Khawaja Bagh S.O",
      "District": "BARAMULLA",
      "State": "JAMMU AND KASHMIR",
      "Pincode": "193103",
      "Lat": 34.21380556,
      "Lng": 74.37202778
    },
    {
      "Name": "Singhpora Kalan B.O",
      "District": "BARAMULLA",
      "State": "JAMMU AND KASHMIR",
      "Pincode": "193103",
      "Lat": 34.228735,
      "Lng": 74.419219
    },
    {
      "Name": "Kanispora B.O",
      "District": "BARAMULLA",
      "State": "JAMMU AND KASHMIR",
      "Pincode": "193103",
      "Lat": 34.218876,
      "Lng": 74.390676
    }
  ],
  "193108": [
    {
      "Name": "Athoora B.O",
      "District": "BARAMULLA",
      "State": "JAMMU AND KASHMIR",
      "Pincode": "193108",
      "Lat": 34.212517,
      "Lng": 74.468761
    },
    {
      "Name": "Tilgam B.O",
      "District": "BARAMULLA",
      "State": "JAMMU AND KASHMIR",
      "Pincode": "193108",
      "Lat": 34.152188,
      "Lng": 74.484673
    },
    {
      "Name": "Saloosa B.O",
      "District": "BARAMULLA",
      "State": "JAMMU AND KASHMIR",
      "Pincode": "193108",
      "Lat": 34.182863,
      "Lng": 74.455114
    },
    {
      "Name": "Kreeri S.O",
      "District": "BARAMULLA",
      "State": "JAMMU AND KASHMIR",
      "Pincode": "193108",
      "Lat": 34.205,
      "Lng": 74.3504167
    },
    {
      "Name": "Wanigam B.O",
      "District": "BARAMULLA",
      "State": "JAMMU AND KASHMIR",
      "Pincode": "193108",
      "Lat": 34.184757,
      "Lng": 74.480793
    }
  ],
  "193109": [
    {
      "Name": "NOWPORA JAGIR B.O",
      "District": "BARAMULLA",
      "State": "JAMMU AND KASHMIR",
      "Pincode": "193109",
      "Lat": 34.211231,
      "Lng": 74.44377
    },
    {
      "Name": "CHANDOOSA B.O",
      "District": "BARAMULLA",
      "State": "JAMMU AND KASHMIR",
      "Pincode": "193109",
      "Lat": 34.17,
      "Lng": 74.42
    },
    {
      "Name": "Kachawa Muqam B.O",
      "District": "BARAMULLA",
      "State": "JAMMU AND KASHMIR",
      "Pincode": "193109",
      "Lat": 34.173747,
      "Lng": 74.432528
    },
    {
      "Name": "WAGOORA S.O",
      "District": "BARAMULLA",
      "State": "JAMMU AND KASHMIR",
      "Pincode": "193109",
      "Lat": 34.173747,
      "Lng": 74.432528
    },
    {
      "Name": "Khaitangan B.O",
      "District": "BARAMULLA",
      "State": "JAMMU AND KASHMIR",
      "Pincode": "193109",
      "Lat": 34.156004,
      "Lng": 74.420282
    },
    {
      "Name": "Kalantra B.O",
      "District": "BARAMULLA",
      "State": "JAMMU AND KASHMIR",
      "Pincode": "193109",
      "Lat": 34.173747,
      "Lng": 74.432528
    }
  ],
  "193121": [
    {
      "Name": "Hanjiwera B.O",
      "District": "BARAMULLA",
      "State": "JAMMU AND KASHMIR",
      "Pincode": "193121",
      "Lat": 34.140459,
      "Lng": 74.596821
    },
    {
      "Name": "Khanpeth B.O",
      "District": "BARAMULLA",
      "State": "JAMMU AND KASHMIR",
      "Pincode": "193121",
      "Lat": 34.137086,
      "Lng": 74.670685
    },
    {
      "Name": "Mamoosa B.O",
      "District": "BARAMULLA",
      "State": "JAMMU AND KASHMIR",
      "Pincode": "193121",
      "Lat": 34.121979,
      "Lng": 74.543915
    },
    {
      "Name": "Check Sariwarpora B.O",
      "District": "BARAMULLA",
      "State": "JAMMU AND KASHMIR",
      "Pincode": "193121",
      "Lat": 34.138365,
      "Lng": 74.528573
    },
    {
      "Name": "Ganasthan B.O",
      "District": "BANDIPORA",
      "State": "JAMMU AND KASHMIR",
      "Pincode": "193121",
      "Lat": 34.184466,
      "Lng": 74.622025
    },
    {
      "Name": "Goshbugh B.O",
      "District": "BARAMULLA",
      "State": "JAMMU AND KASHMIR",
      "Pincode": "193121",
      "Lat": 34.205017,
      "Lng": 74.574644
    },
    {
      "Name": "Shirpora Bangil B.O",
      "District": "BARAMULLA",
      "State": "JAMMU AND KASHMIR",
      "Pincode": "193121",
      "Lat": 34.133744,
      "Lng": 74.56023
    },
    {
      "Name": "Pattan S.O",
      "District": "BARAMULLA",
      "State": "JAMMU AND KASHMIR",
      "Pincode": "193121",
      "Lat": 34.15822222,
      "Lng": 74.55583333
    },
    {
      "Name": "Andergam B.O",
      "District": "BARAMULLA",
      "State": "JAMMU AND KASHMIR",
      "Pincode": "193121",
      "Lat": 34.208481,
      "Lng": 74.528705
    },
    {
      "Name": "Lalpora Bangil B.O",
      "District": "BARAMULLA",
      "State": "JAMMU AND KASHMIR",
      "Pincode": "193121",
      "Lat": 34.103231,
      "Lng": 74.544751
    },
    {
      "Name": "Matipora B.O",
      "District": "BARAMULLA",
      "State": "JAMMU AND KASHMIR",
      "Pincode": "193121",
      "Lat": 34.022981,
      "Lng": 74.617017
    },
    {
      "Name": "Mirgund B.O",
      "District": "BARAMULLA",
      "State": "JAMMU AND KASHMIR",
      "Pincode": "193121",
      "Lat": 34.103693,
      "Lng": 74.506181
    },
    {
      "Name": "Tapper Waripora B.O",
      "District": "BARAMULLA",
      "State": "JAMMU AND KASHMIR",
      "Pincode": "193121",
      "Lat": 34.188752,
      "Lng": 74.53361
    },
    {
      "Name": "Yal B.O",
      "District": "BARAMULLA",
      "State": "JAMMU AND KASHMIR",
      "Pincode": "193121",
      "Lat": 34.119379,
      "Lng": 74.518684
    },
    {
      "Name": "Gund Ibrahim B.O",
      "District": "BARAMULLA",
      "State": "JAMMU AND KASHMIR",
      "Pincode": "193121",
      "Lat": 34.162156,
      "Lng": 74.623507
    },
    {
      "Name": "Khore B.O",
      "District": "BARAMULLA",
      "State": "JAMMU AND KASHMIR",
      "Pincode": "193121",
      "Lat": 34.136574,
      "Lng": 74.572574
    },
    {
      "Name": "Nehalpora B.O",
      "District": "BARAMULLA",
      "State": "JAMMU AND KASHMIR",
      "Pincode": "193121",
      "Lat": 34.158174,
      "Lng": 74.548359
    },
    {
      "Name": "Palhallan B.O",
      "District": "BARAMULLA",
      "State": "JAMMU AND KASHMIR",
      "Pincode": "193121",
      "Lat": 34.167168,
      "Lng": 74.546198
    },
    {
      "Name": "Seru Dangerpora B.O",
      "District": "BARAMULLA",
      "State": "JAMMU AND KASHMIR",
      "Pincode": "193121",
      "Lat": 34.110845,
      "Lng": 74.373674
    },
    {
      "Name": "Singhpora B.O",
      "District": "BARAMULLA",
      "State": "JAMMU AND KASHMIR",
      "Pincode": "193121",
      "Lat": 34.152658,
      "Lng": 74.61654
    }
  ],
  "193122": [
    {
      "Name": "Chandanwari B.O",
      "District": "BARAMULLA",
      "State": "JAMMU AND KASHMIR",
      "Pincode": "193122",
      "Lat": 34.140443,
      "Lng": 74.118064
    },
    {
      "Name": "Dhanisaidan B.O",
      "District": "BARAMULLA",
      "State": "JAMMU AND KASHMIR",
      "Pincode": "193122",
      "Lat": 34.129041,
      "Lng": 74.084954
    },
    {
      "Name": "Gingle B.O",
      "District": "BARAMULLA",
      "State": "JAMMU AND KASHMIR",
      "Pincode": "193122",
      "Lat": 34.115519,
      "Lng": 74.177653
    },
    {
      "Name": "Lachipora B.O",
      "District": "BARAMULLA",
      "State": "JAMMU AND KASHMIR",
      "Pincode": "193122",
      "Lat": 34.351383,
      "Lng": 74.171937
    },
    {
      "Name": "Nowshera B.O",
      "District": "BARAMULLA",
      "State": "JAMMU AND KASHMIR",
      "Pincode": "193122",
      "Lat": 34.009492,
      "Lng": 71.992637
    },
    {
      "Name": "Trikanjan B.O",
      "District": "BARAMULLA",
      "State": "JAMMU AND KASHMIR",
      "Pincode": "193122",
      "Lat": 34.153035,
      "Lng": 74.171575
    },
    {
      "Name": "Bijhama B.O",
      "District": "BARAMULLA",
      "State": "JAMMU AND KASHMIR",
      "Pincode": "193122",
      "Lat": 34.151727,
      "Lng": 74.196869
    },
    {
      "Name": "MOHARA B.O",
      "District": "BARAMULLA",
      "State": "JAMMU AND KASHMIR",
      "Pincode": "193122",
      "Lat": 34.100845,
      "Lng": 74.107846
    },
    {
      "Name": "Pringal B.O",
      "District": "BARAMULLA",
      "State": "JAMMU AND KASHMIR",
      "Pincode": "193122",
      "Lat": 34.140925,
      "Lng": 74.227622
    },
    {
      "Name": "Salamabad Dachina B.O",
      "District": "BARAMULLA",
      "State": "JAMMU AND KASHMIR",
      "Pincode": "193122",
      "Lat": 34.151,
      "Lng": 74.163
    },
    {
      "Name": "Ijara B.O",
      "District": "BARAMULLA",
      "State": "JAMMU AND KASHMIR",
      "Pincode": "193122",
      "Lat": 34.159606,
      "Lng": 74.250732
    },
    {
      "Name": "Boniyar S.O",
      "District": "BARAMULLA",
      "State": "JAMMU AND KASHMIR",
      "Pincode": "193122",
      "Lat": 34.135905,
      "Lng": 74.179983
    }
  ],
  "193123": [
    {
      "Name": "Parampilla B.O",
      "District": "BARAMULLA",
      "State": "JAMMU AND KASHMIR",
      "Pincode": "193123",
      "Lat": 34.08,
      "Lng": 74.01
    },
    {
      "Name": "Uri S.O",
      "District": "BARAMULLA",
      "State": "JAMMU AND KASHMIR",
      "Pincode": "193123",
      "Lat": 34.205,
      "Lng": 74.3504167
    },
    {
      "Name": "Balkote B.O",
      "District": "BARAMULLA",
      "State": "JAMMU AND KASHMIR",
      "Pincode": "193123",
      "Lat": 34.08,
      "Lng": 74.01
    },
    {
      "Name": "Salamabad B.O",
      "District": "BARAMULLA",
      "State": "JAMMU AND KASHMIR",
      "Pincode": "193123",
      "Lat": 34.08,
      "Lng": 74.01
    },
    {
      "Name": "Garkote B.O",
      "District": "BARAMULLA",
      "State": "JAMMU AND KASHMIR",
      "Pincode": "193123",
      "Lat": 34.08,
      "Lng": 74.01
    },
    {
      "Name": "Kamalkote B.O",
      "District": "BARAMULLA",
      "State": "JAMMU AND KASHMIR",
      "Pincode": "193123",
      "Lat": 34.08,
      "Lng": 74.01
    },
    {
      "Name": "Isham B.O",
      "District": "BARAMULLA",
      "State": "JAMMU AND KASHMIR",
      "Pincode": "193123",
      "Lat": 34.079357,
      "Lng": 73.962347
    },
    {
      "Name": "Jabla B.O",
      "District": "BARAMULLA",
      "State": "JAMMU AND KASHMIR",
      "Pincode": "193123",
      "Lat": 34.08,
      "Lng": 74.01
    },
    {
      "Name": "Sultan Daki B.O",
      "District": "BARAMULLA",
      "State": "JAMMU AND KASHMIR",
      "Pincode": "193123",
      "Lat": 34.08,
      "Lng": 74.01
    },
    {
      "Name": "Dachi B.O",
      "District": "BARAMULLA",
      "State": "JAMMU AND KASHMIR",
      "Pincode": "193123",
      "Lat": 34.074157,
      "Lng": 74.0444825
    },
    {
      "Name": "Nambla B.O",
      "District": "BARAMULLA",
      "State": "JAMMU AND KASHMIR",
      "Pincode": "193123",
      "Lat": 34.08,
      "Lng": 74.01
    }
  ],
  "193201": [
    {
      "Name": "Harwan B.O",
      "District": "BARAMULLA",
      "State": "JAMMU AND KASHMIR",
      "Pincode": "193201",
      "Lat": 34.383849,
      "Lng": 74.432706
    },
    {
      "Name": "Nowpora Kalan B.O",
      "District": "BARAMULLA",
      "State": "JAMMU AND KASHMIR",
      "Pincode": "193201",
      "Lat": 34.294912,
      "Lng": 74.435775
    },
    {
      "Name": "Wadoora B.O",
      "District": "BARAMULLA",
      "State": "JAMMU AND KASHMIR",
      "Pincode": "193201",
      "Lat": 34.344094,
      "Lng": 74.401268
    },
    {
      "Name": "Bomai B.O",
      "District": "BARAMULLA",
      "State": "JAMMU AND KASHMIR",
      "Pincode": "193201",
      "Lat": 34.365984,
      "Lng": 74.389786
    },
    {
      "Name": "Ladoora B.O",
      "District": "BARAMULLA",
      "State": "JAMMU AND KASHMIR",
      "Pincode": "193201",
      "Lat": 34.26967,
      "Lng": 74.399772
    },
    {
      "Name": "Mundji B.O",
      "District": "BARAMULLA",
      "State": "JAMMU AND KASHMIR",
      "Pincode": "193201",
      "Lat": 34.360946,
      "Lng": 74.474068
    },
    {
      "Name": "Sagipora B.O",
      "District": "BARAMULLA",
      "State": "JAMMU AND KASHMIR",
      "Pincode": "193201",
      "Lat": 34.366062,
      "Lng": 74.411507
    },
    {
      "Name": "M.E.T B.O",
      "District": "BARAMULLA",
      "State": "JAMMU AND KASHMIR",
      "Pincode": "193201",
      "Lat": 34.2765306,
      "Lng": 74.4510486
    },
    {
      "Name": "Hardushiva B.O",
      "District": "BARAMULLA",
      "State": "JAMMU AND KASHMIR",
      "Pincode": "193201",
      "Lat": 34.374397,
      "Lng": 74.450899
    },
    {
      "Name": "Hathlangoo B.O",
      "District": "BARAMULLA",
      "State": "JAMMU AND KASHMIR",
      "Pincode": "193201",
      "Lat": 34.346848,
      "Lng": 74.505922
    },
    {
      "Name": "Seelu B.O",
      "District": "BARAMULLA",
      "State": "JAMMU AND KASHMIR",
      "Pincode": "193201",
      "Lat": 34.333037,
      "Lng": 74.423798
    },
    {
      "Name": "Tujar B.O",
      "District": "BARAMULLA",
      "State": "JAMMU AND KASHMIR",
      "Pincode": "193201",
      "Lat": 34.378192,
      "Lng": 74.401863
    },
    {
      "Name": "Watlab B.O",
      "District": "BARAMULLA",
      "State": "JAMMU AND KASHMIR",
      "Pincode": "193201",
      "Lat": 34.369367,
      "Lng": 74.561777
    },
    {
      "Name": "Zaloora B.O",
      "District": "BARAMULLA",
      "State": "JAMMU AND KASHMIR",
      "Pincode": "193201",
      "Lat": 34.411971,
      "Lng": 74.373734
    },
    {
      "Name": "Seer B.O",
      "District": "BARAMULLA",
      "State": "JAMMU AND KASHMIR",
      "Pincode": "193201",
      "Lat": 34.260973,
      "Lng": 74.439776
    },
    {
      "Name": "Sangrama B.O",
      "District": "BARAMULLA",
      "State": "JAMMU AND KASHMIR",
      "Pincode": "193201",
      "Lat": 34.227031,
      "Lng": 74.466071
    },
    {
      "Name": "Sopore S.O",
      "District": "BARAMULLA",
      "State": "JAMMU AND KASHMIR",
      "Pincode": "193201",
      "Lat": 34.28355556,
      "Lng": 74.46219444
    },
    {
      "Name": "Dangerpora B.O",
      "District": "BARAMULLA",
      "State": "JAMMU AND KASHMIR",
      "Pincode": "193201",
      "Lat": 34.331218,
      "Lng": 74.465901
    },
    {
      "Name": "Warpora B.O",
      "District": "BARAMULLA",
      "State": "JAMMU AND KASHMIR",
      "Pincode": "193201",
      "Lat": 34.336801,
      "Lng": 74.48398
    },
    {
      "Name": "Haigam B.O",
      "District": "BARAMULLA",
      "State": "JAMMU AND KASHMIR",
      "Pincode": "193201",
      "Lat": 34.242234,
      "Lng": 74.499016
    },
    {
      "Name": "Botingoo B.O",
      "District": "BARAMULLA",
      "State": "JAMMU AND KASHMIR",
      "Pincode": "193201",
      "Lat": 34.365494,
      "Lng": 74.50204
    },
    {
      "Name": "Doabgah B.O",
      "District": "BARAMULLA",
      "State": "JAMMU AND KASHMIR",
      "Pincode": "193201",
      "Lat": 34.266819,
      "Lng": 74.413651
    },
    {
      "Name": "Dooru B.O",
      "District": "BARAMULLA",
      "State": "JAMMU AND KASHMIR",
      "Pincode": "193201",
      "Lat": 34.045978,
      "Lng": 74.733024
    },
    {
      "Name": "Tarzoo B.O",
      "District": "BARAMULLA",
      "State": "JAMMU AND KASHMIR",
      "Pincode": "193201",
      "Lat": 34.271891,
      "Lng": 74.497451
    },
    {
      "Name": "Krankshivam B.O",
      "District": "BARAMULLA",
      "State": "JAMMU AND KASHMIR",
      "Pincode": "193201",
      "Lat": 34.233114,
      "Lng": 74.502479
    },
    {
      "Name": "Bulgam B.O",
      "District": "BARAMULLA",
      "State": "JAMMU AND KASHMIR",
      "Pincode": "193201",
      "Lat": 34.20894,
      "Lng": 74.51064
    },
    {
      "Name": "Jamia Qadim B.O",
      "District": "BARAMULLA",
      "State": "JAMMU AND KASHMIR",
      "Pincode": "193201",
      "Lat": 34.268543,
      "Lng": 74.436398
    }
  ],
  "193221": [
    {
      "Name": "Kandi Khaas B.O",
      "District": "KUPWARA",
      "State": "JAMMU AND KASHMIR",
      "Pincode": "193221",
      "Lat": 34.4,
      "Lng": 74.28
    },
    {
      "Name": "Magam B.O",
      "District": "KUPWARA",
      "State": "JAMMU AND KASHMIR",
      "Pincode": "193221",
      "Lat": 34.4,
      "Lng": 74.28
    },
    {
      "Name": "Wadder Nichama B.O",
      "District": "KUPWARA",
      "State": "JAMMU AND KASHMIR",
      "Pincode": "193221",
      "Lat": 34.4,
      "Lng": 74.72
    },
    {
      "Name": "Wadipora B.O",
      "District": "KUPWARA",
      "State": "JAMMU AND KASHMIR",
      "Pincode": "193221",
      "Lat": 34.4,
      "Lng": 74.72
    },
    {
      "Name": "Zachaldara B.O",
      "District": "KUPWARA",
      "State": "JAMMU AND KASHMIR",
      "Pincode": "193221",
      "Lat": 34.4,
      "Lng": 74.28
    },
    {
      "Name": "Turkapora B.O",
      "District": "KUPWARA",
      "State": "JAMMU AND KASHMIR",
      "Pincode": "193221",
      "Lat": 34.4,
      "Lng": 74.72
    },
    {
      "Name": "Maidan Chogal B.O",
      "District": "KUPWARA",
      "State": "JAMMU AND KASHMIR",
      "Pincode": "193221",
      "Lat": 34.4,
      "Lng": 74.28
    },
    {
      "Name": "Wagat B.O",
      "District": "KUPWARA",
      "State": "JAMMU AND KASHMIR",
      "Pincode": "193221",
      "Lat": 34.4,
      "Lng": 74.72
    },
    {
      "Name": "Natnusa B.O",
      "District": "KUPWARA",
      "State": "JAMMU AND KASHMIR",
      "Pincode": "193221",
      "Lat": 34.4,
      "Lng": 74.72
    },
    {
      "Name": "Satkuji B.O",
      "District": "KUPWARA",
      "State": "JAMMU AND KASHMIR",
      "Pincode": "193221",
      "Lat": 34.4,
      "Lng": 74.72
    },
    {
      "Name": "Shilhal B.O",
      "District": "KUPWARA",
      "State": "JAMMU AND KASHMIR",
      "Pincode": "193221",
      "Lat": 34.4,
      "Lng": 74.72
    },
    {
      "Name": "Handwara S.O",
      "District": "KUPWARA",
      "State": "JAMMU AND KASHMIR",
      "Pincode": "193221",
      "Lat": 34.40380556,
      "Lng": 74.28080556
    }
  ],
  "193222": [
    {
      "Name": "Batpora B.O",
      "District": "KUPWARA",
      "State": "JAMMU AND KASHMIR",
      "Pincode": "193222",
      "Lat": 34.55021,
      "Lng": 74.250527
    },
    {
      "Name": "Halmatpora B.O",
      "District": "KUPWARA",
      "State": "JAMMU AND KASHMIR",
      "Pincode": "193222",
      "Lat": 34.568556,
      "Lng": 74.232885
    },
    {
      "Name": "Jaggerpora B.O",
      "District": "KUPWARA",
      "State": "JAMMU AND KASHMIR",
      "Pincode": "193222",
      "Lat": 34.454617,
      "Lng": 74.285019
    },
    {
      "Name": "Karihama B.O",
      "District": "KUPWARA",
      "State": "JAMMU AND KASHMIR",
      "Pincode": "193222",
      "Lat": 34.501166,
      "Lng": 74.218867
    },
    {
      "Name": "Khumriyal B.O",
      "District": "KUPWARA",
      "State": "JAMMU AND KASHMIR",
      "Pincode": "193222",
      "Lat": 34.473331,
      "Lng": 74.265585
    },
    {
      "Name": "Pazipora B.O",
      "District": "KUPWARA",
      "State": "JAMMU AND KASHMIR",
      "Pincode": "193222",
      "Lat": 34.432671,
      "Lng": 74.193138
    },
    {
      "Name": "Sarkuli B.O",
      "District": "KUPWARA",
      "State": "JAMMU AND KASHMIR",
      "Pincode": "193222",
      "Lat": 34.530074,
      "Lng": 74.249476
    },
    {
      "Name": "Gulgam B.O",
      "District": "KUPWARA",
      "State": "JAMMU AND KASHMIR",
      "Pincode": "193222",
      "Lat": 34.472667,
      "Lng": 74.138369
    },
    {
      "Name": "Haihama B.O",
      "District": "KUPWARA",
      "State": "JAMMU AND KASHMIR",
      "Pincode": "193222",
      "Lat": 34.707341,
      "Lng": 74.37329
    },
    {
      "Name": "Kalaroose B.O",
      "District": "KUPWARA",
      "State": "JAMMU AND KASHMIR",
      "Pincode": "193222",
      "Lat": 34.580597,
      "Lng": 74.321247
    },
    {
      "Name": "Batergam B.O",
      "District": "KUPWARA",
      "State": "JAMMU AND KASHMIR",
      "Pincode": "193222",
      "Lat": 34.530707,
      "Lng": 74.222506
    },
    {
      "Name": "Drugmulla B.O",
      "District": "KUPWARA",
      "State": "JAMMU AND KASHMIR",
      "Pincode": "193222",
      "Lat": 34.488372,
      "Lng": 74.287511
    },
    {
      "Name": "Nagrimalpora B.O",
      "District": "KUPWARA",
      "State": "JAMMU AND KASHMIR",
      "Pincode": "193222",
      "Lat": 34.497905,
      "Lng": 74.133766
    },
    {
      "Name": "Kupwara S.O",
      "District": "KUPWARA",
      "State": "JAMMU AND KASHMIR",
      "Pincode": "193222",
      "Lat": 34.10113889,
      "Lng": 74.77138889
    },
    {
      "Name": "Dudi Machil B.O",
      "District": "KUPWARA",
      "State": "JAMMU AND KASHMIR",
      "Pincode": "193222",
      "Lat": 34.568919,
      "Lng": 74.309789
    }
  ],
  "193223": [
    {
      "Name": "Maidanpora B.O",
      "District": "KUPWARA",
      "State": "JAMMU AND KASHMIR",
      "Pincode": "193223",
      "Lat": 34.07,
      "Lng": 74.72
    },
    {
      "Name": "WAVOORA B.O",
      "District": "KUPWARA",
      "State": "JAMMU AND KASHMIR",
      "Pincode": "193223",
      "Lat": 34.538472,
      "Lng": 74.379274
    },
    {
      "Name": "Chandigam B.O",
      "District": "KUPWARA",
      "State": "JAMMU AND KASHMIR",
      "Pincode": "193223",
      "Lat": 34.07,
      "Lng": 74.72
    },
    {
      "Name": "Cheerkoot B.O",
      "District": "KUPWARA",
      "State": "JAMMU AND KASHMIR",
      "Pincode": "193223",
      "Lat": 34.08,
      "Lng": 74.3
    },
    {
      "Name": "Gogal B.O",
      "District": "KUPWARA",
      "State": "JAMMU AND KASHMIR",
      "Pincode": "193223",
      "Lat": 34.07,
      "Lng": 74.72
    },
    {
      "Name": "Tekipora B.O",
      "District": "KUPWARA",
      "State": "JAMMU AND KASHMIR",
      "Pincode": "193223",
      "Lat": 34.07,
      "Lng": 74.72
    },
    {
      "Name": "Dever Inderbugh B.O",
      "District": "KUPWARA",
      "State": "JAMMU AND KASHMIR",
      "Pincode": "193223",
      "Lat": 34.07,
      "Lng": 74.72
    },
    {
      "Name": "Sogam S.O",
      "District": "KUPWARA",
      "State": "JAMMU AND KASHMIR",
      "Pincode": "193223",
      "Lat": 34.2955,
      "Lng": 74.2236
    },
    {
      "Name": "Dardpora B.O",
      "District": "KUPWARA",
      "State": "JAMMU AND KASHMIR",
      "Pincode": "193223",
      "Lat": 34.07,
      "Lng": 74.72
    },
    {
      "Name": "Lalpora B.O",
      "District": "KUPWARA",
      "State": "JAMMU AND KASHMIR",
      "Pincode": "193223",
      "Lat": 34.07,
      "Lng": 74.72
    },
    {
      "Name": "Krusan B.O",
      "District": "KUPWARA",
      "State": "JAMMU AND KASHMIR",
      "Pincode": "193223",
      "Lat": 34.07,
      "Lng": 74.72
    },
    {
      "Name": "Kuligam B.O",
      "District": "KUPWARA",
      "State": "JAMMU AND KASHMIR",
      "Pincode": "193223",
      "Lat": 34.07,
      "Lng": 74.27
    },
    {
      "Name": "Putushy B.O",
      "District": "KUPWARA",
      "State": "JAMMU AND KASHMIR",
      "Pincode": "193223",
      "Lat": 34.07,
      "Lng": 74.72
    },
    {
      "Name": "Vernow B.O",
      "District": "KUPWARA",
      "State": "JAMMU AND KASHMIR",
      "Pincode": "193223",
      "Lat": 34.513854,
      "Lng": 74.462392
    }
  ],
  "193224": [
    {
      "Name": "Budnambal B.O",
      "District": "KUPWARA",
      "State": "JAMMU AND KASHMIR",
      "Pincode": "193224",
      "Lat": 34.619195,
      "Lng": 74.050575
    },
    {
      "Name": "Kachhama B.O",
      "District": "KUPWARA",
      "State": "JAMMU AND KASHMIR",
      "Pincode": "193224",
      "Lat": 34.619195,
      "Lng": 74.050575
    },
    {
      "Name": "Keran B.O",
      "District": "KUPWARA",
      "State": "JAMMU AND KASHMIR",
      "Pincode": "193224",
      "Lat": 34.665125,
      "Lng": 73.960963
    },
    {
      "Name": "Hayan B.O",
      "District": "KUPWARA",
      "State": "JAMMU AND KASHMIR",
      "Pincode": "193224",
      "Lat": 34.457008,
      "Lng": 74.119592
    },
    {
      "Name": "Zurhama B.O",
      "District": "KUPWARA",
      "State": "JAMMU AND KASHMIR",
      "Pincode": "193224",
      "Lat": 34.514753,
      "Lng": 74.173172
    },
    {
      "Name": "Gugloosa B.O",
      "District": "KUPWARA",
      "State": "JAMMU AND KASHMIR",
      "Pincode": "193224",
      "Lat": 34.444795,
      "Lng": 74.09866
    },
    {
      "Name": "Kakroosa B.O",
      "District": "KUPWARA",
      "State": "JAMMU AND KASHMIR",
      "Pincode": "193224",
      "Lat": 34.619195,
      "Lng": 74.050575
    },
    {
      "Name": "Panzgam B.O",
      "District": "KUPWARA",
      "State": "JAMMU AND KASHMIR",
      "Pincode": "193224",
      "Lat": 34.514753,
      "Lng": 74.173172
    },
    {
      "Name": "Aloosa B.O",
      "District": "KUPWARA",
      "State": "JAMMU AND KASHMIR",
      "Pincode": "193224",
      "Lat": 34.423297,
      "Lng": 74.038825
    },
    {
      "Name": "Chowkibal Reddy B.O",
      "District": "KUPWARA",
      "State": "JAMMU AND KASHMIR",
      "Pincode": "193224",
      "Lat": 34.411142,
      "Lng": 73.958025
    },
    {
      "Name": "Gazriyal B.O",
      "District": "KUPWARA",
      "State": "JAMMU AND KASHMIR",
      "Pincode": "193224",
      "Lat": 34.514753,
      "Lng": 74.173172
    },
    {
      "Name": "Manzgam B.O",
      "District": "KUPWARA",
      "State": "JAMMU AND KASHMIR",
      "Pincode": "193224",
      "Lat": 34.514753,
      "Lng": 74.173172
    },
    {
      "Name": "Meelyal B.O",
      "District": "KUPWARA",
      "State": "JAMMU AND KASHMIR",
      "Pincode": "193224",
      "Lat": 34.514753,
      "Lng": 74.173172
    },
    {
      "Name": "Owoora B.O",
      "District": "KUPWARA",
      "State": "JAMMU AND KASHMIR",
      "Pincode": "193224",
      "Lat": 34.514753,
      "Lng": 74.173172
    },
    {
      "Name": "Villgam B.O",
      "District": "KUPWARA",
      "State": "JAMMU AND KASHMIR",
      "Pincode": "193224",
      "Lat": 34.471192,
      "Lng": 74.137908
    },
    {
      "Name": "Warsun B.O",
      "District": "KUPWARA",
      "State": "JAMMU AND KASHMIR",
      "Pincode": "193224",
      "Lat": 34.514753,
      "Lng": 74.173172
    },
    {
      "Name": "TREHGAM S.O",
      "District": "KUPWARA",
      "State": "JAMMU AND KASHMIR",
      "Pincode": "193224",
      "Lat": 34.423411,
      "Lng": 74.544864
    },
    {
      "Name": "Kralpora B.O",
      "District": "KUPWARA",
      "State": "JAMMU AND KASHMIR",
      "Pincode": "193224",
      "Lat": 34.499566,
      "Lng": 74.117847
    },
    {
      "Name": "Tarathpora B.O",
      "District": "KUPWARA",
      "State": "JAMMU AND KASHMIR",
      "Pincode": "193224",
      "Lat": 34.465587,
      "Lng": 74.112973
    }
  ],
  "193225": [
    {
      "Name": "Nachian B.O",
      "District": "KUPWARA",
      "State": "JAMMU AND KASHMIR",
      "Pincode": "193225",
      "Lat": 34.3996,
      "Lng": 73.8624
    },
    {
      "Name": "Chamkote B.O",
      "District": "KUPWARA",
      "State": "JAMMU AND KASHMIR",
      "Pincode": "193225",
      "Lat": 34.3996,
      "Lng": 73.8624
    },
    {
      "Name": "Hajitarah B.O",
      "District": "KUPWARA",
      "State": "JAMMU AND KASHMIR",
      "Pincode": "193225",
      "Lat": 34.3996,
      "Lng": 73.8624
    },