{
  "110001": [
    {
      "Name": "Baroda House SO",
      "District": "NEW DELHI",
      "State": "DELHI",
      "Pincode": "110001",
      "Lat": 28.6174167,
      "Lng": 77.2129167
    },
    {
      "Name": "Supreme Court SO",
      "District": "NEW DELHI",
      "State": "DELHI",
      "Pincode": "110001",
      "Lat": 28.6212222,
      "Lng": 77.2380278
    },
    {
      "Name": "CAT EXTENSION COUNTER",
      "District": "NEW DELHI",
      "State": "DELHI",
      "Pincode": "110001",
      "Lat": 28.6174166,
      "Lng": 77.2129166
    },
    {
      "Name": "Bengali Market SO",
      "District": "NEW DELHI",
      "State": "DELHI",
      "Pincode": "110001",
      "Lat": 28.6286944,
      "Lng": 77.2338611
    },
    {
      "Name": "Secretariat North SO",
      "District": "NEW DELHI",
      "State": "DELHI",
      "Pincode": "110001",
      "Lat": 28.6178889,
      "Lng": 77.2019167
    },
    {
      "Name": "Bhagat Singh Market SO",
      "District": "NEW DELHI",
      "State": "DELHI",
      "Pincode": "110001",
      "Lat": 28.6330556,
      "Lng": 77.2077222
    },
    {
      "Name": "Connaught Place SO",
      "District": "NEW DELHI",
      "State": "DELHI",
      "Pincode": "110001",
      "Lat": 28.6331389,
      "Lng": 77.2179444
    },
    {
      "Name": "Krishi Bhawan SO",
      "District": "NEW DELHI",
      "State": "DELHI",
      "Pincode": "110001",
      "Lat": 28.6159444,
      "Lng": 77.213
    },
    {
      "Name": "Rail Bhawan SO",
      "District": "NEW DELHI",
      "State": "DELHI",
      "Pincode": "110001",
      "Lat": 28.6158611,
      "Lng": 77.2113889
    },
    {
      "Name": "South Avenue SO",
      "District": "NEW DELHI",
      "State": "DELHI",
      "Pincode": "110001",
      "Lat": 28.6105833,
      "Lng": 77.1986944
    },
    {
      "Name": "Patiala House SO",
      "District": "NEW DELHI",
      "State": "DELHI",
      "Pincode": "110001",
      "Lat": 28.2348611,
      "Lng": 77.2348611
    },
    {
      "Name": "Lady Harding Medical College SO",
      "District": "NEW DELHI",
      "State": "DELHI",
      "Pincode": "110001",
      "Lat": 28.6348889,
      "Lng": 77.2145556
    },
    {
      "Name": "Sansadiya Soudh SO",
      "District": "NEW DELHI",
      "State": "DELHI",
      "Pincode": "110001",
      "Lat": 28.6198611,
      "Lng": 77.2078333
    },
    {
      "Name": "New Delhi GPO",
      "District": "NEW DELHI",
      "State": "DELHI",
      "Pincode": "110001",
      "Lat": 28.626806,
      "Lng": 77.20663
    },
    {
      "Name": "Sansad Marg HO",
      "District": "NEW DELHI",
      "State": "DELHI",
      "Pincode": "110001",
      "Lat": 28.6225833,
      "Lng": 77.2127222
    },
    {
      "Name": "Election Commission SO",
      "District": "NEW DELHI",
      "State": "DELHI",
      "Pincode": "110001",
      "Lat": 28.6237778,
      "Lng": 77.2108611
    },
    {
      "Name": "Janpath SO",
      "District": "NEW DELHI",
      "State": "DELHI",
      "Pincode": "110001",
      "Lat": 28.6433611,
      "Lng": 77.2009167
    },
    {
      "Name": "Parliament House SO",
      "District": "NEW DELHI",
      "State": "DELHI",
      "Pincode": "110001",
      "Lat": 28.6165,
      "Lng": 77.2009722
    },
    {
      "Name": "Shastri Bhawan SO",
      "District": "NEW DELHI",
      "State": "DELHI",
      "Pincode": "110001",
      "Lat": 28.6164444,
      "Lng": 77.2154167
    },
    {
      "Name": "Pragati Maidan SO",
      "District": "NEW DELHI",
      "State": "DELHI",
      "Pincode": "110001",
      "Lat": 28.61675,
      "Lng": 77.2934444
    },
    {
      "Name": "NGT EXTENSION COUNTER",
      "District": "NEW DELHI",
      "State": "DELHI",
      "Pincode": "110001",
      "Lat": 28.61,
      "Lng": 77.29
    },
    {
      "Name": "North Avenue SO",
      "District": "NEW DELHI",
      "State": "DELHI",
      "Pincode": "110001",
      "Lat": 28.631,
      "Lng": 77.2214722
    },
    {
      "Name": "RML EXTN COUNTER NDHO",
      "District": "NEW DELHI",
      "State": "DELHI",
      "Pincode": "110001",
      "Lat": 28.626806,
      "Lng": 77.20663
    }
  ],
  "110002": [
    {
      "Name": "AGCR SO",
      "District": "CENTRAL",
      "State": "DELHI",
      "Pincode": "110002",
      "Lat": 28.6284722,
      "Lng": 77.2445556
    },
    {
      "Name": "Ajmeri Gate Extn SO",
      "District": "CENTRAL",
      "State": "DELHI",
      "Pincode": "110002",
      "Lat": 28.6445,
      "Lng": 77.2231389
    },
    {
      "Name": "Rouse Avenue Extension Counter SO",
      "District": "CENTRAL",
      "State": "DELHI",
      "Pincode": "110002",
      "Lat": 28.6352,
      "Lng": 77.2469
    },
    {
      "Name": "Indraprastha HO",
      "District": "CENTRAL",
      "State": "DELHI",
      "Pincode": "110002",
      "Lat": 28.6317778,
      "Lng": 77.24025
    },
    {
      "Name": "Civic Centre PO",
      "District": "CENTRAL",
      "State": "DELHI",
      "Pincode": "110002",
      "Lat": 28.6411,
      "Lng": 77.2272
    },
    {
      "Name": "IPEstate SO",
      "District": "CENTRAL",
      "State": "DELHI",
      "Pincode": "110002",
      "Lat": 28.6274167,
      "Lng": 77.2435833
    },
    {
      "Name": "Darya Ganj SO",
      "District": "CENTRAL",
      "State": "DELHI",
      "Pincode": "110002",
      "Lat": 28.6471667,
      "Lng": 77.2399444
    },
    {
      "Name": "Minto Road SO",
      "District": "CENTRAL",
      "State": "DELHI",
      "Pincode": "110002",
      "Lat": 28.6339722,
      "Lng": 77.2175556
    },
    {
      "Name": "Gandhi Smarak Nidhi SO",
      "District": "CENTRAL",
      "State": "DELHI",
      "Pincode": "110002",
      "Lat": 28.6338611,
      "Lng": 77.2462222
    }
  ],
  "110003": [
    {
      "Name": "Delhi High Court Extension Counter SO",
      "District": "NEW DELHI",
      "State": "DELHI",
      "Pincode": "110003",
      "Lat": 28.6317778,
      "Lng": 77.24025
    },
    {
      "Name": "C G O Complex SO",
      "District": "South East",
      "State": "DELHI",
      "Pincode": "110003",
      "Lat": 28.5889167,
      "Lng": 77.2442778
    },
    {
      "Name": "Pragati Vihar SO",
      "District": "South East",
      "State": "DELHI",
      "Pincode": "110003",
      "Lat": 28.5868333,
      "Lng": 77.2309444
    },
    {
      "Name": "Safdarjung Air Port SO",
      "District": "South East",
      "State": "DELHI",
      "Pincode": "110003",
      "Lat": 28.5859167,
      "Lng": 77.2095556
    },
    {
      "Name": "Lodi Road HO",
      "District": "SOUTH",
      "State": "DELHI",
      "Pincode": "110003",
      "Lat": 28.5896111,
      "Lng": 77.2191944
    },
    {
      "Name": "Aliganj SO South Delhi",
      "District": "South East",
      "State": "DELHI",
      "Pincode": "110003",
      "Lat": 28.59,
      "Lng": 77.22
    },
    {
      "Name": "Golf Links SO",
      "District": "South East",
      "State": "DELHI",
      "Pincode": "110003",
      "Lat": 28.58725,
      "Lng": 77.2300833
    },
    {
      "Name": "Pandara Road SO",
      "District": "NEW DELHI",
      "State": "DELHI",
      "Pincode": "110003",
      "Lat": 28.6058889,
      "Lng": 77.2289722
    },
    {
      "Name": "Kasturba Nagar SO South Delhi",
      "District": "South East",
      "State": "DELHI",
      "Pincode": "110003",
      "Lat": 28.576544,
      "Lng": 77.224654
    },
    {
      "Name": "Delhi High Court SO",
      "District": "NEW DELHI",
      "State": "DELHI",
      "Pincode": "110003",
      "Lat": 28.6092222,
      "Lng": 77.2359444
    }
  ],
  "110004": [
    {
      "Name": "Rashtrapati Bhawan SO",
      "District": "NEW DELHI",
      "State": "DELHI",
      "Pincode": "110004",
      "Lat": 28.6210833,
      "Lng": 77.1961389
    }
  ],
  "110005": [
    {
      "Name": "Desh Bandhu Gupta Road SO",
      "District": "CENTRAL",
      "State": "DELHI",
      "Pincode": "110005",
      "Lat": 28.6535556,
      "Lng": 77.1918333
    },
    {
      "Name": "Guru Gobind Singh Marg SO",
      "District": "CENTRAL",
      "State": "DELHI",
      "Pincode": "110005",
      "Lat": 28.6556667,
      "Lng": 77.199
    },
    {
      "Name": "Karol Bagh SO",
      "District": "CENTRAL",
      "State": "DELHI",
      "Pincode": "110005",
      "Lat": 28.6500278,
      "Lng": 77.1938333
    },
    {
      "Name": "Sat Nagar SO",
      "District": "CENTRAL",
      "State": "DELHI",
      "Pincode": "110005",
      "Lat": 28.6488333,
      "Lng": 77.1821111
    },
    {
      "Name": "Anand Parbat Indl Area SO",
      "District": "CENTRAL",
      "State": "DELHI",
      "Pincode": "110005",
      "Lat": 28.6614722,
      "Lng": 77.1780556
    },
    {
      "Name": "Anand Parbat SO",
      "District": "CENTRAL",
      "State": "DELHI",
      "Pincode": "110005",
      "Lat": 28.65875,
      "Lng": 77.1773333
    },
    {
      "Name": "Bank Street SO Central Delhi",
      "District": "CENTRAL",
      "State": "DELHI",
      "Pincode": "110005",
      "Lat": 22,
      "Lng": 77
    },
    {
      "Name": "Master Prithvi Nath Marg SO",
      "District": "CENTRAL",
      "State": "DELHI",
      "Pincode": "110005",
      "Lat": 28.6500278,
      "Lng": 77.1938333
    }
  ],
  "110006": [
    {
      "Name": "Delhi GPO",
      "District": "NORTH",
      "State": "DELHI",
      "Pincode": "110006",
      "Lat": 28.662197,
      "Lng": 77.235397
    },
    {
      "Name": "Chawri Bazar SO",
      "District": "NORTH",
      "State": "DELHI",
      "Pincode": "110006",
      "Lat": 28.6511389,
      "Lng": 77.2241667
    },
    {
      "Name": "Hauz Qazi SO",
      "District": "NORTH",
      "State": "DELHI",
      "Pincode": "110006",
      "Lat": 28.6498056,
      "Lng": 77.2263333
    },
    {
      "Name": "Jama Masjid SO",
      "District": "NORTH",
      "State": "DELHI",
      "Pincode": "110006",
      "Lat": 28.6502222,
      "Lng": 77.2322778
    },
    {
      "Name": "Dareeba SO",
      "District": "NORTH",
      "State": "DELHI",
      "Pincode": "110006",
      "Lat": 28.6557222,
      "Lng": 77.2335833
    },
    {
      "Name": "Delhi Sadar Bazar SO",
      "District": "NORTH",
      "State": "DELHI",
      "Pincode": "110006",
      "Lat": 28.6579722,
      "Lng": 77.2144444
    },
    {
      "Name": "Baratooti SO",
      "District": "NORTH",
      "State": "DELHI",
      "Pincode": "110006",
      "Lat": 28.6594167,
      "Lng": 77.2130556
    },
    {
      "Name": "Chandni Chowk SO",
      "District": "NORTH",
      "State": "DELHI",
      "Pincode": "110006",
      "Lat": 28.6564722,
      "Lng": 77.2247222
    }
  ],
  "110007": [
    {
      "Name": "Rana Pratap Bagh SO",
      "District": "NORTH",
      "State": "DELHI",
      "Pincode": "110007",
      "Lat": 28.6872778,
      "Lng": 77.1936111
    },
    {
      "Name": "Shakti Nagar SO North Delhi",
      "District": "NORTH",
      "State": "DELHI",
      "Pincode": "110007",
      "Lat": 28.67993,
      "Lng": 77.194021
    },
    {
      "Name": "Malka Ganj SO",
      "District": "CENTRAL",
      "State": "DELHI",
      "Pincode": "110007",
      "Lat": 28.6765833,
      "Lng": 77.2088333
    },
    {
      "Name": "Roshan Ara Road SO",
      "District": "NORTH",
      "State": "DELHI",
      "Pincode": "110007",
      "Lat": 28.6689444,
      "Lng": 77.2061111
    },
    {
      "Name": "Gulabi Bagh SO",
      "District": "NORTH WEST",
      "State": "DELHI",
      "Pincode": "110007",
      "Lat": 28.6736944,
      "Lng": 77.1918333
    },
    {
      "Name": "Delhi University SO",
      "District": "NORTH",
      "State": "DELHI",
      "Pincode": "110007",
      "Lat": 28.68975,
      "Lng": 77.2152778
    },
    {
      "Name": "Jawahar Nagar SO North Delhi",
      "District": "NORTH",
      "State": "DELHI",
      "Pincode": "110007",
      "Lat": 28.678498,
      "Lng": 77.207323
    },
    {
      "Name": "RCAO SO",
      "District": "NORTH",
      "State": "DELHI",
      "Pincode": "110007",
      "Lat": 28.629917,
      "Lng": 77.239895
    },
    {
      "Name": "Padam Nagar SO North Delhi",
      "District": "NORTH",
      "State": "DELHI",
      "Pincode": "110007",
      "Lat": 28.667454,
      "Lng": 77.191701
    }
  ],
  "110008": [
    {
      "Name": "Patel Nagar East SO",
      "District": "WEST",
      "State": "DELHI",
      "Pincode": "110008",
      "Lat": 28.6453611,
      "Lng": 77.1729722
    },
    {
      "Name": "Patel Nagar West SO",
      "District": "WEST",
      "State": "DELHI",
      "Pincode": "110008",
      "Lat": 28.6472222,
      "Lng": 77.16975
    },
    {
      "Name": "Dada Ghosh Bhawan SO",
      "District": "WEST",
      "State": "DELHI",
      "Pincode": "110008",
      "Lat": 28.6527778,
      "Lng": 77.1558889
    },
    {
      "Name": "Patel Nagar South SO",
      "District": "WEST",
      "State": "DELHI",
      "Pincode": "110008",
      "Lat": 28.64525,
      "Lng": 77.1656667
    },
    {
      "Name": "Patel Nagar SO Central Delhi",
      "District": "WEST",
      "State": "DELHI",
      "Pincode": "110008",
      "Lat": 28.6476,
      "Lng": 77.1695
    }
  ],
  "110009": [
    {
      "Name": "GTB Nagar SO",
      "District": "NORTH",
      "State": "DELHI",
      "Pincode": "110009",
      "Lat": 28.698444,
      "Lng": 77.202111
    },
    {
      "Name": "G T B Nagar extension SO",
      "District": "NORTH",
      "State": "DELHI",
      "Pincode": "110009",
      "Lat": 28.698444,
      "Lng": 77.202111
    },
    {
      "Name": "Model Town III SO",
      "District": "NORTH",
      "State": "DELHI",
      "Pincode": "110009",
      "Lat": 28.7075278,
      "Lng": 77.1880556
    },
    {
      "Name": "Model Town II SO",
      "District": "NORTH",
      "State": "DELHI",
      "Pincode": "110009",
      "Lat": 28.7062778,
      "Lng": 77.1897222
    },
    {
      "Name": "DrMukerjee Nagar SO",
      "District": "NORTH",
      "State": "DELHI",
      "Pincode": "110009",
      "Lat": 28.7108611,
      "Lng": 77.2158333
    },
    {
      "Name": "Gujranwala Colony SO",
      "District": "NORTH WEST",
      "State": "DELHI",
      "Pincode": "110009",
      "Lat": 28.6955833,
      "Lng": 77.1901111
    },
    {
      "Name": "Nirankari Colony SO",
      "District": "NORTH",
      "State": "DELHI",
      "Pincode": "110009",
      "Lat": 28.71525,
      "Lng": 77.2044444
    }
  ],
  "110010": [
    {
      "Name": "Aps Colony BO",
      "District": "NEW DELHI",
      "State": "DELHI",
      "Pincode": "110010",
      "Lat": 28.57,
      "Lng": 77.13
    },
    {
      "Name": "A F Palam SO",
      "District": "NEW DELHI",
      "State": "DELHI",
      "Pincode": "110010",
      "Lat": 28.5778333,
      "Lng": 77.1221667
    },
    {
      "Name": "COD SO South West Delhi",
      "District": "NEW DELHI",
      "State": "DELHI",
      "Pincode": "110010",
      "Lat": 25.59,
      "Lng": 77.15
    },
    {
      "Name": "Delhi Cantt SO",
      "District": "NEW DELHI",
      "State": "DELHI",
      "Pincode": "110010",
      "Lat": 28.595916,
      "Lng": 77.136464
    },
    {
      "Name": "Kirby Place SO",
      "District": "NEW DELHI",
      "State": "DELHI",
      "Pincode": "110010",
      "Lat": 28.60688,
      "Lng": 77.129241
    },
    {
      "Name": "R R Hospital SO",
      "District": "NEW DELHI",
      "State": "DELHI",
      "Pincode": "110010",
      "Lat": 28.5845,
      "Lng": 77.1308056
    },
    {
      "Name": "Subroto Park SO",
      "District": "NEW DELHI",
      "State": "DELHI",
      "Pincode": "110010",
      "Lat": 28.58325,
      "Lng": 77.1473611
    },
    {
      "Name": "CVD SO",
      "District": "NEW DELHI",
      "State": "DELHI",
      "Pincode": "110010",
      "Lat": 28.5988889,
      "Lng": 77.1085833
    },
    {
      "Name": "Pinto Park SO",
      "District": "NEW DELHI",
      "State": "DELHI",
      "Pincode": "110010",
      "Lat": 28.5750833,
      "Lng": 77.0971667
    },
    {
      "Name": "Dhaula Kuan SO",
      "District": "NEW DELHI",
      "State": "DELHI",
      "Pincode": "110010",
      "Lat": 28.6014167,
      "Lng": 77.1620278
    },
    {
      "Name": "Station Road SO South West Delhi",
      "District": "NEW DELHI",
      "State": "DELHI",
      "Pincode": "110010",
      "Lat": 28.48,
      "Lng": 77.13
    }
  ],
  "110011": [
    {
      "Name": "Nirman Bhawan SO",
      "District": "NEW DELHI",
      "State": "DELHI",
      "Pincode": "110011",
      "Lat": 28.6108611,
      "Lng": 77.2148611
    },
    {
      "Name": "Udyog Bhawan SO",
      "District": "NEW DELHI",
      "State": "DELHI",
      "Pincode": "110011",
      "Lat": 28.6111111,
      "Lng": 77.21275
    }
  ],
  "110012": [
    {
      "Name": "Inderpuri SO",
      "District": "WEST",
      "State": "DELHI",
      "Pincode": "110012",
      "Lat": 28.6320278,
      "Lng": 77.1484167
    },
    {
      "Name": "IARI SO",
      "District": "WEST",
      "State": "DELHI",
      "Pincode": "110012",
      "Lat": 28.6401944,
      "Lng": 77.1659722
    },
    {
      "Name": "National Physical Laboratory SO",
      "District": "WEST",
      "State": "DELHI",
      "Pincode": "110012",
      "Lat": 28.6368611,
      "Lng": 77.1696111
    }
  ],
  "110013": [
    {
      "Name": "Dargah Sharif SO",
      "District": "South East",
      "State": "DELHI",
      "Pincode": "110013",
      "Lat": 28.5912222,
      "Lng": 77.2423333
    },
    {
      "Name": "Hazrat Nizamuddin SO",
      "District": "SOUTH",
      "State": "DELHI",
      "Pincode": "110013",
      "Lat": 28.58775,
      "Lng": 77.2505833
    }
  ],
  "110014": [
    {
      "Name": "Hari Nagar Ashram SO",
      "District": "South East",
      "State": "DELHI",
      "Pincode": "110014",
      "Lat": 28.57,
      "Lng": 77.26
    },
    {
      "Name": "Pratap Market SO",
      "District": "South East",
      "State": "DELHI",
      "Pincode": "110014",
      "Lat": 28.5829444,
      "Lng": 77.2520278
    },
    {
      "Name": "Jeevan Nagar BO",
      "District": "SOUTH",
      "State": "DELHI",
      "Pincode": "110014",
      "Lat": 28.58,
      "Lng": 77.26
    },
    {
      "Name": "Jungpura SO",
      "District": "SOUTH",
      "State": "DELHI",
      "Pincode": "110014",
      "Lat": 28.5838611,
      "Lng": 77.2431944
    }
  ],
  "110015": [
    {
      "Name": "L. M. Nagar Indl. Area S.O",
      "District": "WEST",
      "State": "DELHI",
      "Pincode": "110015",
      "Lat": 28.6541389,
      "Lng": 77.1356389
    },
    {
      "Name": "Zakhira S.O",
      "District": "WEST",
      "State": "DELHI",
      "Pincode": "110015",
      "Lat": 28.6659722,
      "Lng": 77.1647778
    },
    {
      "Name": "Ramesh Nagar H.O",
      "District": "WEST",
      "State": "DELHI",
      "Pincode": "110015",
      "Lat": 28.6498611,
      "Lng": 77.1306667
    },
    {
      "Name": "Karam Pura S.O",
      "District": "WEST",
      "State": "DELHI",
      "Pincode": "110015",
      "Lat": 28.6645556,
      "Lng": 77.0786389
    },
    {
      "Name": "Mansarover Garden S.O",
      "District": "WEST",
      "State": "DELHI",
      "Pincode": "110015",
      "Lat": 28.6485278,
      "Lng": 77.1365
    },
    {
      "Name": "Moti Nagar S.O",
      "District": "WEST",
      "State": "DELHI",
      "Pincode": "110015",
      "Lat": 28.662345,
      "Lng": 77.141081
    },
    {
      "Name": "ESI S.O",
      "District": "WEST",
      "State": "DELHI",
      "Pincode": "110015",
      "Lat": 28.6591944,
      "Lng": 77.1315
    }
  ],
  "110016": [
    {
      "Name": "Technology Bhawan SO",
      "District": "SOUTH",
      "State": "DELHI",
      "Pincode": "110016",
      "Lat": 28.5373056,
      "Lng": 77.1907222
    },
    {
      "Name": "Hauz Khas Market SO",
      "District": "SOUTH",
      "State": "DELHI",
      "Pincode": "110016",
      "Lat": 28.5512222,
      "Lng": 77.2081667
    },
    {
      "Name": "Green Park Market SO",
      "District": "SOUTH",
      "State": "DELHI",
      "Pincode": "110016",
      "Lat": 28.5558611,
      "Lng": 77.2021389
    },
    {
      "Name": "NIE Campus SO",
      "District": "SOUTH",
      "State": "DELHI",
      "Pincode": "110016",
      "Lat": 28.5380278,
      "Lng": 77.1935833
    },
    {
      "Name": "Hauz Khas SO",
      "District": "SOUTH",
      "State": "DELHI",
      "Pincode": "110016",
      "Lat": 28.546099,
      "Lng": 77.20116
    },
    {
      "Name": "IT Hauz Khas SO",
      "District": "SOUTH",
      "State": "DELHI",
      "Pincode": "110016",
      "Lat": 28.5428611,
      "Lng": 77.1960278
    }
  ],
  "110017": [
    {
      "Name": "MMTCSTC Colony SO",
      "District": "SOUTH",
      "State": "DELHI",
      "Pincode": "110017",
      "Lat": 28.5346389,
      "Lng": 77.2016944
    },
    {
      "Name": "Distt Court Complex Saket SO",
      "District": "SOUTH",
      "State": "DELHI",
      "Pincode": "110017",
      "Lat": 28.528842,
      "Lng": 77.222557
    },
    {
      "Name": "Sarvodya Enclave SO",
      "District": "SOUTH",
      "State": "DELHI",
      "Pincode": "110017",
      "Lat": 28.54,
      "Lng": 77.2000833
    },
    {
      "Name": "Malviya Nagar SO South Delhi",
      "District": "SOUTH",
      "State": "DELHI",
      "Pincode": "110017",
      "Lat": 28.537654,
      "Lng": 77.214682
    },
    {
      "Name": "Pushp Vihar SO",
      "District": "SOUTH",
      "State": "DELHI",
      "Pincode": "110017",
      "Lat": 28.5245556,
      "Lng": 77.2204444
    },
    {
      "Name": "Saket SO South Delhi",
      "District": "SOUTH",
      "State": "DELHI",
      "Pincode": "110017",
      "Lat": 28.522984,
      "Lng": 77.21452
    },
    {
      "Name": "Panchsheel Enclave SO",
      "District": "SOUTH",
      "State": "DELHI",
      "Pincode": "110017",
      "Lat": 28.544134,
      "Lng": 77.228442
    },
    {
      "Name": "South Malviya Nagar SO",
      "District": "SOUTH",
      "State": "DELHI",
      "Pincode": "110017",
      "Lat": 28.522982,
      "Lng": 77.214514
    }
  ],
  "110018": [
    {
      "Name": "Chaukhandi B.O",
      "District": "WEST",
      "State": "DELHI",
      "Pincode": "110018",
      "Lat": 24.867183,
      "Lng": 67.273615
    },
    {
      "Name": "Chand Nagar S.O",
      "District": "WEST",
      "State": "DELHI",
      "Pincode": "110018",
      "Lat": 28.6463611,
      "Lng": 77.0990556
    },
    {
      "Name": "Tilak Nagar S.O (West Delhi)",
      "District": "WEST",
      "State": "DELHI",
      "Pincode": "110018",
      "Lat": 28.6498611,
      "Lng": 77.1306667
    },
    {
      "Name": "Vishnu Garden S.O",
      "District": "WEST",
      "State": "DELHI",
      "Pincode": "110018",
      "Lat": 28.6573333,
      "Lng": 77.1083611
    },
    {
      "Name": "Khyala Phase   II S.O",
      "District": "WEST",
      "State": "DELHI",
      "Pincode": "110018",
      "Lat": 28.6569167,
      "Lng": 77.10325
    },
    {
      "Name": "M.B.S. Nagar S.O",
      "District": "WEST",
      "State": "DELHI",
      "Pincode": "110018",
      "Lat": 28.6471389,
      "Lng": 77.0853056
    },
    {
      "Name": "Tilak Nagar East S.O",
      "District": "WEST",
      "State": "DELHI",
      "Pincode": "110018",
      "Lat": 28.6396667,
      "Lng": 77.0963333
    },
    {
      "Name": "Vikas Puri S.O",
      "District": "WEST",
      "State": "DELHI",
      "Pincode": "110018",
      "Lat": 28.6396389,
      "Lng": 77.0761111
    },
    {
      "Name": "Ashok Nagar S.O (West Delhi)",
      "District": "WEST",
      "State": "DELHI",
      "Pincode": "110018",
      "Lat": 28.636587,
      "Lng": 77.094466
    },
    {
      "Name": "Fateh Nagar S.O",
      "District": "WEST",
      "State": "DELHI",
      "Pincode": "110018",
      "Lat": 28.6333056,
      "Lng": 77.0996944
    },
    {
      "Name": "Khyala Phase    I S.O",
      "District": "WEST",
      "State": "DELHI",
      "Pincode": "110018",
      "Lat": 28.6576111,
      "Lng": 77.0999444
    },
    {
      "Name": "Mahabir Nagar S.O",
      "District": "WEST",
      "State": "DELHI",
      "Pincode": "110018",
      "Lat": 28.6346389,
      "Lng": 77.0860833
    },
    {
      "Name": "NDC TILAK NAGAR",
      "District": "WEST",
      "State": "DELHI",
      "Pincode": "110018",
      "Lat": 28.6498611,
      "Lng": 77.1306667
    }
  ],
  "110019": [
    {
      "Name": "Kalkaji HO",
      "District": "SOUTH",
      "State": "DELHI",
      "Pincode": "110019",
      "Lat": 28.5431667,
      "Lng": 77.2576667
    },
    {
      "Name": "Alaknanda SO",
      "District": "South East",
      "State": "DELHI",
      "Pincode": "110019",
      "Lat": 28.5256389,
      "Lng": 77.2541667
    },
    {
      "Name": "Chittranjan Park SO",
      "District": "South East",
      "State": "DELHI",
      "Pincode": "110019",
      "Lat": 28.5403056,
      "Lng": 77.2486667
    },
    {
      "Name": "Nehru Place SO",
      "District": "South East",
      "State": "DELHI",
      "Pincode": "110019",
      "Lat": 28.5498056,
      "Lng": 77.3210556
    }
  ],
  "110020": [
    {
      "Name": "Tehkhand BO",
      "District": "SOUTH",
      "State": "DELHI",
      "Pincode": "110020",
      "Lat": 28.52,
      "Lng": 77.29
    },
    {
      "Name": "Okhla Industrial Estate SO",
      "District": "SOUTH",
      "State": "DELHI",
      "Pincode": "110020",
      "Lat": 28.5521111,
      "Lng": 77.2686667
    },
    {
      "Name": "F F C Okhla SO",
      "District": "South East",
      "State": "DELHI",
      "Pincode": "110020",
      "Lat": 28.5577222,
      "Lng": 77.2648333
    },
    {
      "Name": "C R R I SO South Delhi",
      "District": "South East",
      "State": "DELHI",
      "Pincode": "110020",
      "Lat": 28.551707,
      "Lng": 77.275149
    },
    {
      "Name": "Okhla Industrial Area Phasei SO",
      "District": "South East",
      "State": "DELHI",
      "Pincode": "110020",
      "Lat": 28.543282,
      "Lng": 77.257845
    }
  ],
  "110021": [
    {
      "Name": "Chanakya Puri SO",
      "District": "NEW DELHI",
      "State": "DELHI",
      "Pincode": "110021",
      "Lat": 28.583723,
      "Lng": 77.190064
    },
    {
      "Name": "Anand Niketan SO",
      "District": "NEW DELHI",
      "State": "DELHI",
      "Pincode": "110021",
      "Lat": 28.5787222,
      "Lng": 77.1648889
    },
    {
      "Name": "Moti Bagh SO",
      "District": "NEW DELHI",
      "State": "DELHI",
      "Pincode": "110021",
      "Lat": 28.6139722,
      "Lng": 77.1256111
    },
    {
      "Name": "Nanak Pura SO",
      "District": "NEW DELHI",
      "State": "DELHI",
      "Pincode": "110021",
      "Lat": 28.5807778,
      "Lng": 77.1727222
    },
    {
      "Name": "Malcha Marg SO",
      "District": "NEW DELHI",
      "State": "DELHI",
      "Pincode": "110021",
      "Lat": 28.6040833,
      "Lng": 77.18725
    },
    {
      "Name": "South Delhi Campus SO",
      "District": "NEW DELHI",
      "State": "DELHI",
      "Pincode": "110021",
      "Lat": 28.5829722,
      "Lng": 77.1615
    }
  ],
  "110022": [
    {
      "Name": "R K Puram Sect1 SO",
      "District": "NEW DELHI",
      "State": "DELHI",
      "Pincode": "110022",
      "Lat": 28.5615556,
      "Lng": 77.1792222
    },
    {
      "Name": "R K Puram Sect12 SO",
      "District": "NEW DELHI",
      "State": "DELHI",
      "Pincode": "110022",
      "Lat": 28.5722222,
      "Lng": 77.1732778
    },
    {
      "Name": "R K Puram Sect5 SO",
      "District": "NEW DELHI",
      "State": "DELHI",
      "Pincode": "110022",
      "Lat": 28.562224,
      "Lng": 77.17243
    },
    {
      "Name": "R K Puram Sect7 SO",
      "District": "NEW DELHI",
      "State": "DELHI",
      "Pincode": "110022",
      "Lat": 28.5701944,
      "Lng": 77.1713056
    },
    {
      "Name": "R K Puram Sector  6 Postal SB SO",
      "District": "NEW DELHI",
      "State": "DELHI",
      "Pincode": "110022",
      "Lat": 28.56,
      "Lng": 77.16
    },
    {
      "Name": "R K Puram Sect3 SO",
      "District": "NEW DELHI",
      "State": "DELHI",
      "Pincode": "110022",
      "Lat": 28.5551111,
      "Lng": 77.1717778
    },
    {
      "Name": "R K Puram Sect4 SO",
      "District": "NEW DELHI",
      "State": "DELHI",
      "Pincode": "110022",
      "Lat": 28.555,
      "Lng": 77.1810278
    },
    {
      "Name": "R K Puram Sect8 SO",
      "District": "NEW DELHI",
      "State": "DELHI",
      "Pincode": "110022",
      "Lat": 28.5706389,
      "Lng": 77.1755
    }
  ],
  "110023": [
    {
      "Name": "Laxmi Bai Nagar SO",
      "District": "NEW DELHI",
      "State": "DELHI",
      "Pincode": "110023",
      "Lat": 28.5784167,
      "Lng": 77.20925
    },
    {
      "Name": "Sarojini Nagar HO",
      "District": "NEW DELHI",
      "State": "DELHI",
      "Pincode": "110023",
      "Lat": 28.575476,
      "Lng": 77.199648
    },
    {
      "Name": "Kidwai Nagar East SO",
      "District": "NEW DELHI",
      "State": "DELHI",
      "Pincode": "110023",
      "Lat": 28.5719444,
      "Lng": 77.2176944
    },
    {
      "Name": "Netaji Nagar SO South West Delhi",
      "District": "NEW DELHI",
      "State": "DELHI",
      "Pincode": "110023",
      "Lat": 28.58,
      "Lng": 77.19
    },
    {
      "Name": "Kidwai Nagar West SO",
      "District": "NEW DELHI",
      "State": "DELHI",
      "Pincode": "110023",
      "Lat": 28.5712778,
      "Lng": 77.2051667
    }
  ],
  "110024": [
    {
      "Name": "Amar Colony SO",
      "District": "South East",
      "State": "DELHI",
      "Pincode": "110024",
      "Lat": 28.5631667,
      "Lng": 77.24875
    },
    {
      "Name": "Lajpat Nagar South Delhi SO",
      "District": "SOUTH",
      "State": "DELHI",
      "Pincode": "110024",
      "Lat": 28.5381667,
      "Lng": 77.2150278
    },
    {
      "Name": "Defence Colony SO South Delhi",
      "District": "South East",
      "State": "DELHI",
      "Pincode": "110024",
      "Lat": 28.58,
      "Lng": 77.23
    },
    {
      "Name": "Krishna Market SO",
      "District": "South East",
      "State": "DELHI",
      "Pincode": "110024",
      "Lat": 28.5740556,
      "Lng": 77.242309
    }
  ],
  "110025": [
    {
      "Name": "Jamia Nagar SO",
      "District": "South East",
      "State": "DELHI",
      "Pincode": "110025",
      "Lat": 28.5613611,
      "Lng": 77.2795833
    },
    {
      "Name": "Abul Fazal EnclaveI SO",
      "District": "BUDAUN",
      "State": "UTTAR PRADESH",
      "Pincode": "110025",
      "Lat": 28.5425556,
      "Lng": 77.2931667
    },
    {
      "Name": "Sukhdev Vihar SO",
      "District": "South East",
      "State": "DELHI",
      "Pincode": "110025",
      "Lat": 28.5561944,
      "Lng": 77.2783056
    },
    {
      "Name": "New Friends Colony SO",
      "District": "SOUTH",
      "State": "DELHI",
      "Pincode": "110025",
      "Lat": 28.5618611,
      "Lng": 77.26825
    },
    {
      "Name": "Zakir Nagar SO",
      "District": "South East",
      "State": "DELHI",
      "Pincode": "110025",
      "Lat": 28.5671667,
      "Lng": 77.2787778
    }
  ],
  "110026": [
    {
      "Name": "Punjabi Bagh S.O",
      "District": "WEST",
      "State": "DELHI",
      "Pincode": "110026",
      "Lat": 28.6678611,
      "Lng": 77.1434444
    },
    {
      "Name": "Punjabi Bagh Sec   III S.O",
      "District": "WEST",
      "State": "DELHI",
      "Pincode": "110026",
      "Lat": 28.6198611,
      "Lng": 77.0975833
    },
    {
      "Name": "Ashoka Park Extn. S.O",
      "District": "WEST",
      "State": "DELHI",
      "Pincode": "110026",
      "Lat": 28.6713889,
      "Lng": 77.1538333
    },
    {
      "Name": "Shivaji Park S.O (West Delhi)",
      "District": "WEST",
      "State": "DELHI",
      "Pincode": "110026",
      "Lat": 28.673232,
      "Lng": 77.131978
    }
  ],
  "110027": [
    {
      "Name": "Rajouri Market S.O",
      "District": "WEST",
      "State": "DELHI",
      "Pincode": "110027",
      "Lat": 28.6455278,
      "Lng": 77.1274722
    },
    {
      "Name": "Janta Market S.O",
      "District": "WEST",
      "State": "DELHI",
      "Pincode": "110027",
      "Lat": 28.6426944,
      "Lng": 77.1232222
    },
    {
      "Name": "Rajouri Garden J 6 S.O",
      "District": "WEST",
      "State": "DELHI",
      "Pincode": "110027",
      "Lat": 28.6427222,
      "Lng": 77.12325
    },
    {
      "Name": "Subhash Nagar West S.O",
      "District": "WEST",
      "State": "DELHI",
      "Pincode": "110027",
      "Lat": 28.6371111,
      "Lng": 77.1098889
    },
    {
      "Name": "Subhash Nagar S.O (West Delhi)",
      "District": "WEST",
      "State": "DELHI",
      "Pincode": "110027",
      "Lat": 28.640446,
      "Lng": 77.104918
    },
    {
      "Name": "Tagore Garden S.O",
      "District": "WEST",
      "State": "DELHI",
      "Pincode": "110027",
      "Lat": 28.6467222,
      "Lng": 77.1124722
    }
  ],
  "110028": [
    {
      "Name": "Naraina Village S.O",
      "District": "NEW DELHI",
      "State": "DELHI",
      "Pincode": "110028",
      "Lat": 28.6305,
      "Lng": 77.1349167
    },
    {
      "Name": "Naraina Industrial Estate H.O",
      "District": "NEW DELHI",
      "State": "DELHI",
      "Pincode": "110028",
      "Lat": 28.632141,
      "Lng": 77.138852
    }
  ],
  "110029": [
    {
      "Name": "Safdarjung Enclave SO",
      "District": "SOUTH",
      "State": "DELHI",
      "Pincode": "110029",
      "Lat": 28.5664228,
      "Lng": 77.1998703
    },
    {
      "Name": "Ansari Nagar SO",
      "District": "SOUTH",
      "State": "DELHI",
      "Pincode": "110029",
      "Lat": 28.5649167,
      "Lng": 77.2068056
    }
  ],
  "110030": [
    {
      "Name": "Gadaipur BO",
      "District": "SOUTH",
      "State": "DELHI",
      "Pincode": "110030",
      "Lat": 28.5176111,
      "Lng": 77.1793611
    },
    {
      "Name": "Mehrauli SO",
      "District": "SOUTH",
      "State": "DELHI",
      "Pincode": "110030",
      "Lat": 28.5176111,
      "Lng": 77.1793611
    },
    {
      "Name": "Ghitorni BO",
      "District": "SOUTH",
      "State": "DELHI",
      "Pincode": "110030",
      "Lat": 28.5176111,
      "Lng": 77.1793611
    },
    {
      "Name": "Lado Sarai BO",
      "District": "SOUTH",
      "State": "DELHI",
      "Pincode": "110030",
      "Lat": 28.52,
      "Lng": 77.18
    },
    {
      "Name": "T B Hospital SO",
      "District": "SOUTH",
      "State": "DELHI",
      "Pincode": "110030",
      "Lat": 28.5303611,
      "Lng": 77.1889722
    },
    {
      "Name": "Sultanpur BO",
      "District": "SOUTH",
      "State": "DELHI",
      "Pincode": "110030",
      "Lat": 28.5176111,
      "Lng": 77.1793611
    },
    {
      "Name": "Paryavaran Complex SO",
      "District": "SOUTH",
      "State": "DELHI",
      "Pincode": "110030",
      "Lat": 28.5174444,
      "Lng": 77.2055278
    }
  ],
  "110031": [
    {
      "Name": "Gandhi Nagar Bazar SO",
      "District": "SHAHDARA",
      "State": "DELHI",
      "Pincode": "110031",
      "Lat": 28.6606111,
      "Lng": 77.2664167
    },
    {
      "Name": "Kailash Nagar SO",
      "District": "SHAHDARA",
      "State": "DELHI",
      "Pincode": "110031",
      "Lat": 28.6646111,
      "Lng": 77.2593611
    },
    {
      "Name": "Shastri Nagar SO East Delhi",
      "District": "EAST",
      "State": "DELHI",
      "Pincode": "110031",
      "Lat": 28.69225,
      "Lng": 77.2742222
    },
    {
      "Name": "Gandhi Nagar SO East Delhi",
      "District": "SHAHDARA",
      "State": "DELHI",
      "Pincode": "110031",
      "Lat": 28.6921111,
      "Lng": 77.3042222
    },
    {
      "Name": "Geeta Colony SO",
      "District": "SHAHDARA",
      "State": "DELHI",
      "Pincode": "110031",
      "Lat": 28.653,
      "Lng": 77.2741667
    },
    {
      "Name": "Rajgarh Colony SO",
      "District": "EAST",
      "State": "DELHI",
      "Pincode": "110031",
      "Lat": 28.65925,
      "Lng": 77.2742222
    }
  ],
  "110032": [
    {
      "Name": "Rohtash Nagar SO",
      "District": "SHAHDARA",
      "State": "DELHI",
      "Pincode": "110032",
      "Lat": 28.6806111,
      "Lng": 77.2859444
    },
    {
      "Name": "Shahdara SO",
      "District": "SHAHDARA",
      "State": "DELHI",
      "Pincode": "110032",
      "Lat": 28.6754167,
      "Lng": 77.2903611
    },
    {
      "Name": "Distt Court KKD SO",
      "District": "SHAHDARA",
      "State": "DELHI",
      "Pincode": "110032",
      "Lat": 28.6546944,
      "Lng": 77.2973611
    },
    {
      "Name": "Babarpur SO North East Delhi",
      "District": "SHAHDARA",
      "State": "DELHI",
      "Pincode": "110032",
      "Lat": 28.6739166,
      "Lng": 77.3198333
    },
    {
      "Name": "Bhola Nath Nagar SO",
      "District": "SHAHDARA",
      "State": "DELHI",
      "Pincode": "110032",
      "Lat": 28.6546944,
      "Lng": 77.2973611
    },
    {
      "Name": "Balbir Nagar SO",
      "District": "SHAHDARA",
      "State": "DELHI",
      "Pincode": "110032",
      "Lat": 28.6829444,
      "Lng": 77.2943611
    },
    {
      "Name": "Man Sarovar Park SO",
      "District": "SHAHDARA",
      "State": "DELHI",
      "Pincode": "110032",
      "Lat": 28.6774167,
      "Lng": 77.2990833
    },
    {
      "Name": "Shahdara Mandi SO",
      "District": "SHAHDARA",
      "State": "DELHI",
      "Pincode": "110032",
      "Lat": 28.6699167,
      "Lng": 77.2888333
    },
    {
      "Name": "Shivaji Park SO East Delhi",
      "District": "SHAHDARA",
      "State": "DELHI",
      "Pincode": "110032",
      "Lat": 28.6739166,
      "Lng": 77.3198333
    },
    {
      "Name": "Loni Road SO",
      "District": "SHAHDARA",
      "State": "DELHI",
      "Pincode": "110032",
      "Lat": 28.6921667,
      "Lng": 77.3042222
    },
    {
      "Name": "Vishwas Nagar SO",
      "District": "SHAHDARA",
      "State": "DELHI",
      "Pincode": "110032",
      "Lat": 28.6668333,
      "Lng": 77.2946389
    }
  ],
  "110033": [
    {
      "Name": "Jahangir Puri H Block SO",
      "District": "NORTH",
      "State": "DELHI",
      "Pincode": "110033",
      "Lat": 28.7271389,
      "Lng": 77.1749722
    },
    {
      "Name": "Adrash Nagar SO",
      "District": "NORTH",
      "State": "DELHI",
      "Pincode": "110033",
      "Lat": 28.7164722,
      "Lng": 77.175
    },
    {
      "Name": "Jahangir Puri D Block SO",
      "District": "NORTH",
      "State": "DELHI",
      "Pincode": "110033",
      "Lat": 28.7305,
      "Lng": 77.1754722
    },
    {
      "Name": "Jahangir Puri A Block SO",
      "District": "NORTH",
      "State": "DELHI",
      "Pincode": "110033",
      "Lat": 28.72775,
      "Lng": 77.1636111
    },
    {
      "Name": "Bhalaswa BO",
      "District": "NORTH",
      "State": "DELHI",
      "Pincode": "110033",
      "Lat": 28.72775,
      "Lng": 77.1636111
    },
    {
      "Name": "NSMandi SO",
      "District": "NORTH",
      "State": "DELHI",
      "Pincode": "110033",
      "Lat": 28.7126944,
      "Lng": 77.1733333
    }
  ],
  "110034": [
    {
      "Name": "Saraswati Vihar SO",
      "District": "NORTH WEST",
      "State": "DELHI",
      "Pincode": "110034",
      "Lat": 28.6972778,
      "Lng": 77.1269444
    },
    {
      "Name": "Rani Bagh SO",
      "District": "NORTH WEST",
      "State": "DELHI",
      "Pincode": "110034",
      "Lat": 28.68875,
      "Lng": 77.1321111
    },
    {
      "Name": "Sri Nagar Colony SO",
      "District": "NORTH WEST",
      "State": "DELHI",
      "Pincode": "110034",
      "Lat": 28.6819167,
      "Lng": 77.1366667
    },
    {
      "Name": "Shakur Pur I  Block SO",
      "District": "NORTH WEST",
      "State": "DELHI",
      "Pincode": "110034",
      "Lat": 28.6899722,
      "Lng": 77.1466667
    },
    {
      "Name": "Maurya Enclave SO",
      "District": "NORTH WEST",
      "State": "DELHI",
      "Pincode": "110034",
      "Lat": 28.7046667,
      "Lng": 77.1447222
    },
    {
      "Name": "Anandvas Shakurpur SO",
      "District": "NORTH WEST",
      "State": "DELHI",
      "Pincode": "110034",
      "Lat": 28.7061667,
      "Lng": 77.1483333
    },
    {
      "Name": "Shakurbasti Rs SO",
      "District": "NORTH WEST",
      "State": "DELHI",
      "Pincode": "110034",
      "Lat": 28.6972778,
      "Lng": 77.1269444
    }
  ],
  "110035": [
    {
      "Name": "Rampura BO",
      "District": "NORTH WEST",
      "State": "DELHI",
      "Pincode": "110035",
      "Lat": 28.6921111,
      "Lng": 77.1578611
    },
    {
      "Name": "C4 Keshav Puram SO North West Delhi",
      "District": "NORTH WEST",
      "State": "DELHI",
      "Pincode": "110035",
      "Lat": 28.691258,
      "Lng": 77.156291
    },
    {
      "Name": "Keshavpuram SO",
      "District": "NORTH WEST",
      "State": "DELHI",
      "Pincode": "110035",
      "Lat": 28.6921111,
      "Lng": 77.1578611
    },
    {
      "Name": "Sarai Rohilla SO",
      "District": "NORTH WEST",
      "State": "DELHI",
      "Pincode": "110035",
      "Lat": 28.6694167,
      "Lng": 77.1763889
    },
    {
      "Name": "Ganeshpura SO",
      "District": "NORTH WEST",
      "State": "DELHI",
      "Pincode": "110035",
      "Lat": 28.6754167,
      "Lng": 77.1655556
    },
    {
      "Name": "Power House SO",
      "District": "NORTH WEST",
      "State": "DELHI",
      "Pincode": "110035",
      "Lat": 28.6738333,
      "Lng": 77.1445833
    }
  ],
  "110036": [
    {
      "Name": "Hiranki BO",
      "District": "NORTH",
      "State": "DELHI",
      "Pincode": "110036",
      "Lat": 28.7978055,
      "Lng": 77.13
    },
    {
      "Name": "Bakoli BO",
      "District": "NORTH",
      "State": "DELHI",
      "Pincode": "110036",
      "Lat": 28.7978055,
      "Lng": 77.13
    },
    {
      "Name": "Alipur SO",
      "District": "NORTH",
      "State": "DELHI",
      "Pincode": "110036",
      "Lat": 28.7978056,
      "Lng": 77.13
    },
    {
      "Name": "Nangal Poona BO",
      "District": "NORTH",
      "State": "DELHI",
      "Pincode": "110036",
      "Lat": 28.7978055,
      "Lng": 77.13
    },
    {
      "Name": "Bakhtawar Pur BO",
      "District": "NORTH",
      "State": "DELHI",
      "Pincode": "110036",
      "Lat": 28.7996944,
      "Lng": 77.0380555
    },
    {
      "Name": "Kadipur BO",
      "District": "NORTH",
      "State": "DELHI",
      "Pincode": "110036",
      "Lat": 28.7978055,
      "Lng": 77.13
    },
    {
      "Name": "Khampur BO",
      "District": "NORTH",
      "State": "DELHI",
      "Pincode": "110036",
      "Lat": 28.7978055,
      "Lng": 77.13
    },
    {
      "Name": "Mukhmelpur BO",
      "District": "NORTH",
      "State": "DELHI",
      "Pincode": "110036",
      "Lat": 28.7978055,
      "Lng": 77.13
    },
    {
      "Name": "Palla BO",
      "District": "NORTH",
      "State": "DELHI",
      "Pincode": "110036",
      "Lat": 28.7978055,
      "Lng": 77.13
    }
  ],
  "110037": [
    {
      "Name": "Mahipalpur BO",
      "District": "NEW DELHI",
      "State": "DELHI",
      "Pincode": "110037",
      "Lat": 28.54,
      "Lng": 77.12
    },
    {
      "Name": "Nangal Dewat BO",
      "District": "NEW DELHI",
      "State": "DELHI",
      "Pincode": "110037",
      "Lat": 28.5302777,
      "Lng": 77.1155277
    },
    {
      "Name": "Gurgaon Road SO",
      "District": "NEW DELHI",
      "State": "DELHI",
      "Pincode": "110037",
      "Lat": 28.545674,
      "Lng": 77.123159
    },
    {
      "Name": "Palam Airport SO",
      "District": "NEW DELHI",
      "State": "DELHI",
      "Pincode": "110037",
      "Lat": 28.5745556,
      "Lng": 77.0975556
    },
    {
      "Name": "IGI Airport SO",
      "District": "NEW DELHI",
      "State": "DELHI",
      "Pincode": "110037",
      "Lat": 28.5556389,
      "Lng": 77.0845556
    }
  ],
  "110038": [
    {
      "Name": "Rajokari BO",
      "District": "NEW DELHI",
      "State": "DELHI",
      "Pincode": "110038",
      "Lat": 28.52,
      "Lng": 77.09
    },
    {
      "Name": "A F Rajokari SO",
      "District": "NEW DELHI",
      "State": "DELHI",
      "Pincode": "110038",
      "Lat": 28.5180566,
      "Lng": 77.1016084
    }
  ],
  "110039": [
    {
      "Name": "Jat Khore BO",
      "District": "NORTH",
      "State": "DELHI",
      "Pincode": "110039",
      "Lat": 28.7996944,
      "Lng": 77.0380555
    },
    {
      "Name": "Nangal Thakran BO",
      "District": "NORTH",
      "State": "DELHI",
      "Pincode": "110039",
      "Lat": 28.7996944,
      "Lng": 77.0380555
    },
    {
      "Name": "Bawana SO",
      "District": "NORTH",
      "State": "DELHI",
      "Pincode": "110039",
      "Lat": 28.7996944,
      "Lng": 77.0380556
    },
    {
      "Name": "Pooth Khurd BO",
      "District": "NORTH",
      "State": "DELHI",
      "Pincode": "110039",
      "Lat": 28.7996944,
      "Lng": 77.0380555
    },
    {
      "Name": "Auchandi BO",
      "District": "NORTH",
      "State": "DELHI",
      "Pincode": "110039",
      "Lat": 28.7996944,
      "Lng": 77.0380555
    },
    {
      "Name": "Ghoga BO",
      "District": "NORTH",
      "State": "DELHI",
      "Pincode": "110039",
      "Lat": 28.7996944,
      "Lng": 77.0380555
    },
    {
      "Name": "Hareveli BO",
      "District": "NORTH",
      "State": "DELHI",
      "Pincode": "110039",
      "Lat": 28.7996944,
      "Lng": 77.0380555
    },
    {
      "Name": "Qutabagarh BO",
      "District": "NORTH WEST",
      "State": "DELHI",
      "Pincode": "110039",
      "Lat": 28.7996944,
      "Lng": 77.0380555
    },
    {
      "Name": "Barwala BO",
      "District": "NORTH",
      "State": "DELHI",
      "Pincode": "110039",
      "Lat": 28.7996944,
      "Lng": 77.0380555
    },
    {
      "Name": "Katewara BO",
      "District": "NORTH",
      "State": "DELHI",
      "Pincode": "110039",
      "Lat": 28.7996944,
      "Lng": 77.0380555
    },
    {
      "Name": "Mungeshpur BO",
      "District": "NORTH",
      "State": "DELHI",
      "Pincode": "110039",
      "Lat": 28.7996944,
      "Lng": 77.0380555
    }
  ],
  "110040": [
    {
      "Name": "Lampur BO",
      "District": "NORTH",
      "State": "DELHI",
      "Pincode": "110040",
      "Lat": 28.8508055,
      "Lng": 77.0880555
    },
    {
      "Name": "Kanya Gurukul BO",
      "District": "NORTH",
      "State": "DELHI",
      "Pincode": "110040",
      "Lat": 28.8508055,
      "Lng": 77.0880555
    },
    {
      "Name": "Singhu BO",
      "District": "NORTH",
      "State": "DELHI",
      "Pincode": "110040",
      "Lat": 28.8508055,
      "Lng": 77.0880555
    },
    {
      "Name": "Bankner BO",
      "District": "NORTH",
      "State": "DELHI",
      "Pincode": "110040",
      "Lat": 28.8508055,
      "Lng": 77.0880555
    },
    {
      "Name": "Tikri Khurd",
      "District": "NORTH",
      "State": "DELHI",
      "Pincode": "110040",
      "Lat": "NA",
      "Lng": "NA"
    },
    {
      "Name": "Bhorgarh BO",
      "District": "NORTH",
      "State": "DELHI",
      "Pincode": "110040",
      "Lat": 28.8508055,
      "Lng": 77.0880555
    },
    {
      "Name": "Narela SO",
      "District": "NORTH",
      "State": "DELHI",
      "Pincode": "110040",
      "Lat": 28.8508056,
      "Lng": 77.0880556
    },
    {
      "Name": "Sannoth SO",
      "District": "NORTH",
      "State": "DELHI",
      "Pincode": "110040",
      "Lat": 28.812908,
      "Lng": 77.076225
    },
    {
      "Name": "NARELA TOWN",
      "District": "NORTH",
      "State": "DELHI",
      "Pincode": "110040",
      "Lat": 28.84,
      "Lng": 77.08
    }
  ],
  "110041": [
    {
      "Name": "Nilothi B.O",
      "District": "WEST",
      "State": "DELHI",
      "Pincode": "110041",
      "Lat": 28.651181,
      "Lng": 77.059325
    },
    {
      "Name": "Tikri Kalan B.O",
      "District": "WEST",
      "State": "DELHI",
      "Pincode": "110041",
      "Lat": 28.682346,
      "Lng": 76.967187
    },
    {
      "Name": "Mundka SO",
      "District": "WEST",
      "State": "DELHI",
      "Pincode": "110041",
      "Lat": 28.682314,
      "Lng": 77.034937
    },
    {
      "Name": "Neelwal BO",
      "District": "WEST",
      "State": "DELHI",
      "Pincode": "110041",
      "Lat": 28.666378,
      "Lng": 76.979654
    },
    {
      "Name": "Bakkarwala B.O",
      "District": "WEST",
      "State": "DELHI",
      "Pincode": "110041",
      "Lat": 28.666501,
      "Lng": 77.016371
    },
    {
      "Name": "Hirankudna B.O",
      "District": "WEST",
      "State": "DELHI",
      "Pincode": "110041",
      "Lat": 28.673136,
      "Lng": 76.998405
    },
    {
      "Name": "Ranhola B.O",
      "District": "WEST",
      "State": "DELHI",
      "Pincode": "110041",
      "Lat": 28.656128,
      "Lng": 77.040683
    },
    {
      "Name": "Nangloi   III S.O",
      "District": "WEST",
      "State": "DELHI",
      "Pincode": "110041",
      "Lat": 28.6829722,
      "Lng": 77.0718056
    },
    {
      "Name": "Kunwar Singh Nagar PO",
      "District": "WEST",
      "State": "DELHI",
      "Pincode": "110041",
      "Lat": 28.666829,
      "Lng": 77.049004
    },
    {
      "Name": "Nangloi   II B.O",
      "District": "WEST",
      "State": "DELHI",
      "Pincode": "110041",
      "Lat": 28.682407,
      "Lng": 77.064631
    },
    {
      "Name": "Nangloi S.O",
      "District": "WEST",
      "State": "DELHI",
      "Pincode": "110041",
      "Lat": 28.6795833,
      "Lng": 77.0660556
    }
  ],
  "110042": [
    {
      "Name": "Samai Pur SO",
      "District": "NORTH",
      "State": "DELHI",
      "Pincode": "110042",
      "Lat": 28.7441111,
      "Lng": 77.145
    },
    {
      "Name": "Siraspur BO",
      "District": "NORTH",
      "State": "DELHI",
      "Pincode": "110042",
      "Lat": 28.7441111,
      "Lng": 77.145
    },
    {
      "Name": "Mukundpur Village",
      "District": "NORTH",
      "State": "DELHI",
      "Pincode": "110042",
      "Lat": 28.744111,
      "Lng": 77.145
    },
    {
      "Name": "Shahbad Dairy PO",
      "District": "NORTH",
      "State": "DELHI",
      "Pincode": "110042",
      "Lat": 28.741421,
      "Lng": 77.094711
    },
    {
      "Name": "Pehlad Pur BO",
      "District": "NORTH",
      "State": "DELHI",
      "Pincode": "110042",
      "Lat": 28.72775,
      "Lng": 77.1636111
    },
    {
      "Name": "Badli SO North West Delhi",
      "District": "NORTH WEST",
      "State": "DELHI",
      "Pincode": "110042",
      "Lat": 28.74469,
      "Lng": 77.145037
    },
    {
      "Name": "Delhi Engg College SO",
      "District": "NORTH WEST",
      "State": "DELHI",
      "Pincode": "110042",
      "Lat": 28.7463611,
      "Lng": 77.1185278
    }
  ],
  "110043": [
    {
      "Name": "Khaira B.O",
      "District": "WEST",
      "State": "DELHI",
      "Pincode": "110043",
      "Lat": 24.871535,
      "Lng": 86.207106
    },
    {
      "Name": "Dindarpur B.O",
      "District": "WEST",
      "State": "DELHI",
      "Pincode": "110043",
      "Lat": 28.592536,
      "Lng": 76.993827
    },
    {
      "Name": "Surehra B.O",
      "District": "WEST",
      "State": "DELHI",
      "Pincode": "110043",
      "Lat": 28.597122,
      "Lng": 76.93787
    },
    {
      "Name": "Tilangpur Kotla B.O",
      "District": "WEST",
      "State": "DELHI",
      "Pincode": "110043",
      "Lat": 28.646628,
      "Lng": 77.025715
    },
    {
      "Name": "Gopal Nagar SO",
      "District": "WEST",
      "State": "DELHI",
      "Pincode": "110043",
      "Lat": 28.612297,
      "Lng": 76.968627
    },
    {
      "Name": "Durga Park PO",
      "District": "WEST",
      "State": "DELHI",
      "Pincode": "110043",
      "Lat": 28.602626,
      "Lng": 77.089702
    },
    {
      "Name": "Mitraon B.O",
      "District": "WEST",
      "State": "DELHI",
      "Pincode": "110043",
      "Lat": 28.605614,
      "Lng": 76.944141
    },
    {
      "Name": "SHYAM VIHAR S.O",
      "District": "WEST",
      "State": "DELHI",
      "Pincode": "110043",
      "Lat": 28.609974,
      "Lng": 76.957645
    },
    {
      "Name": "Baprola B.O",
      "District": "WEST",
      "State": "DELHI",
      "Pincode": "110043",
      "Lat": 28.639783,
      "Lng": 77.008001
    },
    {
      "Name": "Pandwala Kalan B.O",
      "District": "WEST",
      "State": "DELHI",
      "Pincode": "110043",
      "Lat": 28.564762,
      "Lng": 76.951343
    },
    {
      "Name": "Papravat B.O",
      "District": "WEST",
      "State": "DELHI",
      "Pincode": "110043",
      "Lat": 28.58032,
      "Lng": 76.978203
    },
    {
      "Name": "Rewla Khanpur B.O",
      "District": "WEST",
      "State": "DELHI",
      "Pincode": "110043",
      "Lat": 28.564726,
      "Lng": 76.981441
    },
    {
      "Name": "Kair B.O",
      "District": "WEST",
      "State": "DELHI",
      "Pincode": "110043",
      "Lat": 30.04442,
      "Lng": 31.235712
    },
    {
      "Name": "Jhatikara B.O",
      "District": "WEST",
      "State": "DELHI",
      "Pincode": "110043",
      "Lat": 28.520905,
      "Lng": 76.964011
    },
    {
      "Name": "Najafgarh S.O",
      "District": "WEST",
      "State": "DELHI",
      "Pincode": "110043",
      "Lat": 28.607195,
      "Lng": 76.98457
    },
    {
      "Name": "Chanchal Park SO",
      "District": "WEST",
      "State": "DELHI",
      "Pincode": "110043",
      "Lat": "NA",
      "Lng": "NA"
    },
    {
      "Name": "Daulatpur B.O",
      "District": "WEST",
      "State": "DELHI",
      "Pincode": "110043",
      "Lat": 31.774749,
      "Lng": 75.998545
    },
    {
      "Name": "Dichaun Kalan B.O",
      "District": "WEST",
      "State": "DELHI",
      "Pincode": "110043",
      "Lat": 28.641361,
      "Lng": 76.984018
    },
    {
      "Name": "Arjun Park PO",
      "District": "WEST",
      "State": "DELHI",
      "Pincode": "110043",
      "Lat": 28.622224,
      "Lng": 77.011825
    }
  ],
  "110044": [
    {
      "Name": "Village Tugalkabad BO",
      "District": "SOUTH",
      "State": "DELHI",
      "Pincode": "110044",
      "Lat": 28.51,
      "Lng": 77.26
    },
    {
      "Name": "Badarpur SO South Delhi",
      "District": "SOUTH",
      "State": "DELHI",
      "Pincode": "110044",
      "Lat": 28.5042,
      "Lng": 77.3022
    },
    {
      "Name": "Pul Pahladpur BO",
      "District": "SOUTH",
      "State": "DELHI",
      "Pincode": "110044",
      "Lat": 28.5,
      "Lng": 77.3
    },
    {
      "Name": "Tugalkabad Railway Colony SO",
      "District": "South East",
      "State": "DELHI",
      "Pincode": "110044",
      "Lat": 28.5049167,
      "Lng": 77.2891111
    },
    {
      "Name": "Meethapur SO",
      "District": "South East",
      "State": "DELHI",
      "Pincode": "110044",
      "Lat": 28.501147,
      "Lng": 77.319318
    },
    {
      "Name": "Jaitpur BO",
      "District": "SOUTH",
      "State": "DELHI",
      "Pincode": "110044",
      "Lat": 28.53,
      "Lng": 77.21
    },
    {
      "Name": "Molarband BO",
      "District": "SOUTH",
      "State": "DELHI",
      "Pincode": "110044",
      "Lat": 28.53,
      "Lng": 77.21
    },
    {
      "Name": "Lal Kuan BO",
      "District": "SOUTH",
      "State": "DELHI",
      "Pincode": "110044",
      "Lat": 28.53,
      "Lng": 77.21
    },
    {
      "Name": "Jaitpur SO South Delhi",
      "District": "South East",
      "State": "DELHI",
      "Pincode": "110044",
      "Lat": 28.51,
      "Lng": 77.33
    }
  ],
  "110045": [
    {
      "Name": "Dabri B.O",
      "District": "SOUTH WEST",
      "State": "DELHI",
      "Pincode": "110045",
      "Lat": 28.609675,
      "Lng": 77.089542
    },
    {
      "Name": "Indira Park B.O",
      "District": "SOUTH WEST",
      "State": "DELHI",
      "Pincode": "110045",
      "Lat": 17.413655,
      "Lng": 78.483833
    },
    {
      "Name": "Palam Village S.O",
      "District": "SOUTH WEST",
      "State": "DELHI",
      "Pincode": "110045",
      "Lat": 28.5911667,
      "Lng": 77.0905556
    },
    {
      "Name": "Nasirpur B.O",
      "District": "SOUTH WEST",
      "State": "DELHI",
      "Pincode": "110045",
      "Lat": 28.597176,
      "Lng": 77.090783
    }
  ],
  "110046": [
    {
      "Name": "Sagarpur S.O",
      "District": "NEW DELHI",
      "State": "DELHI",
      "Pincode": "110046",
      "Lat": 28.6110556,
      "Lng": 77.1029167
    },
    {
      "Name": "Nangal Raya S.O",
      "District": "NEW DELHI",
      "State": "DELHI",
      "Pincode": "110046",
      "Lat": 28.6110556,
      "Lng": 77.1088056
    }
  ],
  "110047": [
    {
      "Name": "Mandi BO",
      "District": "SOUTH",
      "State": "DELHI",
      "Pincode": "110047",
      "Lat": 28.44,
      "Lng": 77.14
    },
    {
      "Name": "Aya Nagar S.O",
      "District": "SOUTH",
      "State": "DELHI",
      "Pincode": "110047",
      "Lat": 28.4759,
      "Lng": 77.13153
    },
    {
      "Name": "Jaunapur BO",
      "District": "SOUTH",
      "State": "DELHI",
      "Pincode": "110047",
      "Lat": 28.46,
      "Lng": 77.15
    },
    {
      "Name": "Arjungarh SO",
      "District": "SOUTH",
      "State": "DELHI",
      "Pincode": "110047",
      "Lat": 28.478918,
      "Lng": 77.120143
    }
  ],
  "110048": [
    {
      "Name": "Greater Kailash SO",
      "District": "SOUTH",
      "State": "DELHI",
      "Pincode": "110048",
      "Lat": 28.5376667,
      "Lng": 77.2381389
    },
    {
      "Name": "Kailash Colony SO",
      "District": "South East",
      "State": "DELHI",
      "Pincode": "110048",
      "Lat": 28.5471667,
      "Lng": 77.2438056
    },
    {
      "Name": "Masjid Moth SO",
      "District": "South East",
      "State": "DELHI",
      "Pincode": "110048",
      "Lat": 28.5404722,
      "Lng": 77.2346667
    }
  ],
  "110049": [
    {
      "Name": "New Delhi South ExtII SO",
      "District": "South East",
      "State": "DELHI",
      "Pincode": "110049",
      "Lat": 28.566209,
      "Lng": 77.217965
    },
    {
      "Name": "Andrewsganj SO",
      "District": "SOUTH",
      "State": "DELHI",
      "Pincode": "110049",
      "Lat": 28.5640278,
      "Lng": 77.2324167
    },
    {
      "Name": "Gautam Nagar SO",
      "District": "South East",
      "State": "DELHI",
      "Pincode": "110049",
      "Lat": 28.561709,
      "Lng": 77.211224
    },
    {
      "Name": "Sahpurjat BO",
      "District": "SOUTH",
      "State": "DELHI",
      "Pincode": "110049",
      "Lat": 28.55,
      "Lng": 77.21
    },
    {
      "Name": "Sadiq Nagar SO",
      "District": "South East",
      "State": "DELHI",
      "Pincode": "110049",
      "Lat": 28.5571944,
      "Lng": 77.2226667
    },
    {
      "Name": "Gulmohar Park SO",
      "District": "South East",
      "State": "DELHI",
      "Pincode": "110049",
      "Lat": 28.5578611,
      "Lng": 77.2131944
    }
  ],
  "110051": [
    {
      "Name": "Govind Pura SO",
      "District": "EAST",
      "State": "DELHI",
      "Pincode": "110051",
      "Lat": 28.6453611,
      "Lng": 77.2871111
    },
    {
      "Name": "Azad Nagar SO East Delhi",
      "District": "SHAHDARA",
      "State": "DELHI",
      "Pincode": "110051",
      "Lat": 28.69225,
      "Lng": 77.3042222
    },
    {
      "Name": "Ram Nagar SO East Delhi",
      "District": "EAST",
      "State": "DELHI",
      "Pincode": "110051",
      "Lat": 28.65925,
      "Lng": 77.2742222
    },
    {
      "Name": "Krishna Nagar HO",
      "District": "SHAHDARA",
      "State": "DELHI",
      "Pincode": "110051",
      "Lat": 28.645733,
      "Lng": 77.2997737
    }
  ],
  "110052": [
    {
      "Name": "Nimri SO",
      "District": "NORTH WEST",
      "State": "DELHI",
      "Pincode": "110052",
      "Lat": 28.6726389,
      "Lng": 77.1811111
    },
    {
      "Name": "Satyawati Nagar SO",
      "District": "NORTH",
      "State": "DELHI",
      "Pincode": "110052",
      "Lat": 28.6930833,
      "Lng": 77.1823056
    },
    {
      "Name": "Wazir Pur III SO",
      "District": "NORTH",
      "State": "DELHI",
      "Pincode": "110052",
      "Lat": 28.67975,
      "Lng": 77.1721389
    },
    {
      "Name": "Ashok Vihar HO",
      "District": "NORTH",
      "State": "DELHI",
      "Pincode": "110052",
      "Lat": 28.6933611,
      "Lng": 77.1713889
    }
  ],
  "110053": [
    {
      "Name": "Brahampuri SO",
      "District": "NORTH EAST",
      "State": "DELHI",
      "Pincode": "110053",
      "Lat": 28.6871944,
      "Lng": 77.2633056
    },
    {
      "Name": "Yamuna Vihar SO",
      "District": "NORTH EAST",
      "State": "DELHI",
      "Pincode": "110053",
      "Lat": 28.7006667,
      "Lng": 77.2776389
    },
    {
      "Name": "Jagjit Nagar SO",
      "District": "NORTH EAST",
      "State": "DELHI",
      "Pincode": "110053",
      "Lat": 28.6870833,
      "Lng": 77.2591111
    },
    {
      "Name": "New Usmanpur BO",
      "District": "NORTH EAST",
      "State": "DELHI",
      "Pincode": "110053",
      "Lat": 28.69225,
      "Lng": 77.3042222
    },
    {
      "Name": "Maujpur SO",
      "District": "NORTH EAST",
      "State": "DELHI",
      "Pincode": "110053",
      "Lat": 28.69225,
      "Lng": 77.2705556
    },
    {
      "Name": "Bhajan Pura SO",
      "District": "NORTH EAST",
      "State": "DELHI",
      "Pincode": "110053",
      "Lat": 28.7020833,
      "Lng": 77.26425
    },
    {
      "Name": "Seelampur SO",
      "District": "NORTH EAST",
      "State": "DELHI",
      "Pincode": "110053",
      "Lat": 28.6737778,
      "Lng": 77.2763889
    },
    {
      "Name": "Garhi Mandu BO",
      "District": "NORTH EAST",
      "State": "DELHI",
      "Pincode": "110053",
      "Lat": 28.38,
      "Lng": 77.12
    }
  ],
  "110054": [
    {
      "Name": "Civil Lines SO North Delhi",
      "District": "CENTRAL",
      "State": "DELHI",
      "Pincode": "110054",
      "Lat": 28.6624167,
      "Lng": 77.2348333
    },
    {
      "Name": "District Courts SO North Delhi",
      "District": "CENTRAL",
      "State": "DELHI",
      "Pincode": "110054",
      "Lat": 28.667094,
      "Lng": 77.216534
    },
    {
      "Name": "Patrachar Vidyalay SO",
      "District": "CENTRAL",
      "State": "DELHI",
      "Pincode": "110054",
      "Lat": 28.7060278,
      "Lng": 77.2217778
    },
    {
      "Name": "Aruna Nagar SO",
      "District": "CENTRAL",
      "State": "DELHI",
      "Pincode": "110054",
      "Lat": 28.697557,
      "Lng": 77.225067
    },
    {
      "Name": "Timarpur SO",
      "District": "CENTRAL",
      "State": "DELHI",
      "Pincode": "110054",
      "Lat": 28.7032778,
      "Lng": 77.2228611
    }
  ],
  "110055": [
    {
      "Name": "SRT NAGAR EXTENSION COUNTER",
      "District": "CENTRAL",
      "State": "DELHI",
      "Pincode": "110055",
      "Lat": 28.6123,
      "Lng": 77.17
    },
    {
      "Name": "AKMarket SO",
      "District": "CENTRAL",
      "State": "DELHI",
      "Pincode": "110055",
      "Lat": 28.6448889,
      "Lng": 77.2020556
    },
    {
      "Name": "Swami Ram Tirth Nagar SO",
      "District": "CENTRAL",
      "State": "DELHI",
      "Pincode": "110055",
      "Lat": 28.6460833,
      "Lng": 77.2025278
    },
    {
      "Name": "Pahar Ganj SO",
      "District": "CENTRAL",
      "State": "DELHI",
      "Pincode": "110055",
      "Lat": 28.6401667,
      "Lng": 77.2129167
    },
    {
      "Name": "Multani Dhanda SO",
      "District": "WEST",
      "State": "DELHI",
      "Pincode": "110055",
      "Lat": 28.6461111,
      "Lng": 77.2094167
    }
  ],
  "110056": [
    {
      "Name": "Shakur Basti Depot SO",
      "District": "NORTH WEST",
      "State": "DELHI",
      "Pincode": "110056",
      "Lat": 28.6827222,
      "Lng": 77.1111111
    }
  ],
  "110057": [
    {
      "Name": "Vasant Vihar2 SO",
      "District": "NEW DELHI",
      "State": "DELHI",
      "Pincode": "110057",
      "Lat": 28.5578889,
      "Lng": 77.15575
    },
    {
      "Name": "Vasant Vihar1 SO",
      "District": "NEW DELHI",
      "State": "DELHI",
      "Pincode": "110057",
      "Lat": 28.568,
      "Lng": 77.1594167
    }
  ],
  "110058": [
    {
      "Name": "Janakpuri A 3 S.O",
      "District": "WEST",
      "State": "DELHI",
      "Pincode": "110058",
      "Lat": 28.6241111,
      "Lng": 77.0793611
    },
    {
      "Name": "D.E.S.U. Colony S.O",
      "District": "WEST",
      "State": "DELHI",
      "Pincode": "110058",
      "Lat": 28.6115,
      "Lng": 77.0970833
    },
    {
      "Name": "Janakpuri B 1 S.O",
      "District": "WEST",
      "State": "DELHI",
      "Pincode": "110058",
      "Lat": 28.630065,
      "Lng": 77.091207
    },
    {
      "Name": "Jail Road S.O (West Delhi)",
      "District": "WEST",
      "State": "DELHI",
      "Pincode": "110058",
      "Lat": 28.636095,
      "Lng": 77.096574
    },
    {
      "Name": "Janakpuri C 4 S.O",
      "District": "WEST",
      "State": "DELHI",
      "Pincode": "110058",
      "Lat": 28.6221111,
      "Lng": 77.0790556
    }
  ],
  "110059": [
    {
      "Name": "Hastal Village B.O",
      "District": "WEST",
      "State": "DELHI",
      "Pincode": "110059",
      "Lat": 28.637713,
      "Lng": 77.049026
    },
    {
      "Name": "Uttam Nagar S.O",
      "District": "WEST",
      "State": "DELHI",
      "Pincode": "110059",
      "Lat": 28.6270833,
      "Lng": 77.8844167
    },
    {
      "Name": "Matiala B.O",
      "District": "WEST",
      "State": "DELHI",
      "Pincode": "110059",
      "Lat": 28.609409,
      "Lng": 77.054325
    },
    {
      "Name": "D. K. Mohan Garden S.O",
      "District": "WEST",
      "State": "DELHI",
      "Pincode": "110059",
      "Lat": 28.6215,
      "Lng": 77.0415278
    },
    {
      "Name": "Jeevan Park B.O",
      "District": "WEST",
      "State": "DELHI",
      "Pincode": "110059",
      "Lat": "NA",
      "Lng": "NA"
    },
    {
      "Name": "Sanjay Enclave PO",
      "District": "WEST",
      "State": "DELHI",
      "Pincode": "110059",
      "Lat": 28.613029,
      "Lng": 77.059756
    },
    {
      "Name": "K5 Extn. Mohan Garden",
      "District": "WEST",
      "State": "DELHI",
      "Pincode": "110059",
      "Lat": 28.635437,
      "Lng": 77.043958
    }
  ],
  "110060": [
    {
      "Name": "Rajender Nagar SO",
      "District": "CENTRAL",
      "State": "DELHI",
      "Pincode": "110060",
      "Lat": 28.6367222,
      "Lng": 77.1831111
    }
  ],
  "110061": [
    {
      "Name": "Bijwasan SO",
      "District": "SOUTH WEST",
      "State": "DELHI",
      "Pincode": "110061",
      "Lat": 28.53285,
      "Lng": 77.05162
    },
    {
      "Name": "Shahbad Mohammadpur BO",
      "District": "NEW DELHI",
      "State": "DELHI",
      "Pincode": "110061",
      "Lat": 28.54,
      "Lng": 77.05
    }
  ],
  "110062": [
    {
      "Name": "Dr Ambedkar Nagar SO South Delhi",
      "District": "SOUTH",
      "State": "DELHI",
      "Pincode": "110062",
      "Lat": 28.51,
      "Lng": 77.23
    },
    {
      "Name": "Pushpa Bhawan SO",
      "District": "SOUTH",
      "State": "DELHI",
      "Pincode": "110062",
      "Lat": 28.5276111,
      "Lng": 77.2328056
    },
    {
      "Name": "Dakshinpuri PhaseI SO",
      "District": "SOUTH",
      "State": "DELHI",
      "Pincode": "110062",
      "Lat": 28.5227222,
      "Lng": 77.2404444
    },
    {
      "Name": "Hamdard Nagar SO",
      "District": "SOUTH",
      "State": "DELHI",
      "Pincode": "110062",
      "Lat": 28.5125556,
      "Lng": 77.2510556
    },
    {
      "Name": "Dakshinpuri PhaseII SO",
      "District": "SOUTH",
      "State": "DELHI",
      "Pincode": "110062",
      "Lat": 28.5201111,
      "Lng": 77.23975
    },
    {
      "Name": "Dakshinpuri PhaseIII SO",
      "District": "SOUTH",
      "State": "DELHI",
      "Pincode": "110062",
      "Lat": 28.5155278,
      "Lng": 77.2374722
    }
  ],
  "110063": [
    {
      "Name": "Madipur Village S.O",
      "District": "WEST",
      "State": "DELHI",
      "Pincode": "110063",
      "Lat": 28.6735833,
      "Lng": 77.1226111
    },
    {
      "Name": "Paschim Vihar B Block S.O",
      "District": "WEST",
      "State": "DELHI",
      "Pincode": "110063",
      "Lat": 28.66325,
      "Lng": 77.1088056
    },
    {
      "Name": "Jawala Heri B.O",
      "District": "WEST",
      "State": "DELHI",
      "Pincode": "110063",
      "Lat": 28.668712,
      "Lng": 77.102909
    },
    {
      "Name": "Paschim Vihar S.O",
      "District": "WEST",
      "State": "DELHI",
      "Pincode": "110063",
      "Lat": 28.6705278,
      "Lng": 77.1022222
    },
    {
      "Name": "Madipur Slum Quarter S.O",
      "District": "WEST",
      "State": "DELHI",
      "Pincode": "110063",
      "Lat": 28.6667222,
      "Lng": 77.1190556
    }
  ],
  "110064": [
    {
      "Name": "Hari Nagar BE Block S.O",
      "District": "WEST",
      "State": "DELHI",
      "Pincode": "110064",
      "Lat": 28.6287778,
      "Lng": 77.1226111
    },
    {
      "Name": "Mayapuri Shopping Centre S.O",
      "District": "WEST",
      "State": "DELHI",
      "Pincode": "110064",
      "Lat": 28.614756,
      "Lng": 71.11292
    },
    {
      "Name": "Hari Nagar Dadb Block S.O",
      "District": "WEST",
      "State": "DELHI",
      "Pincode": "110064",
      "Lat": 28.6234444,
      "Lng": 77.1076111
    },
    {
      "Name": "Maya Puri S.O",
      "District": "WEST",
      "State": "DELHI",
      "Pincode": "110064",
      "Lat": 28.6317778,
      "Lng": 77.1259167
    },
    {
      "Name": "Hari Nagar S.O (West Delhi)",
      "District": "WEST",
      "State": "DELHI",
      "Pincode": "110064",
      "Lat": 28.62486,
      "Lng": 77.110868
    }
  ],
  "110065": [
    {
      "Name": "East Of Kailash PhaseI SO",
      "District": "South East",
      "State": "DELHI",
      "Pincode": "110065",
      "Lat": 28.5593611,
      "Lng": 77.2568056
    },
    {
      "Name": "East Of Kailash SO",
      "District": "South East",
      "State": "DELHI",
      "Pincode": "110065",
      "Lat": 28.5579444,
      "Lng": 77.2459722
    },
    {
      "Name": "Nehru Nagar SO South Delhi",
      "District": "South East",
      "State": "DELHI",
      "Pincode": "110065",
      "Lat": 28.569126,
      "Lng": 77.253601
    },
    {
      "Name": "Sant Nagar SO South Delhi",
      "District": "South East",
      "State": "DELHI",
      "Pincode": "110065",
      "Lat": 28.554003,
      "Lng": 77.24903
    },
    {
      "Name": "Sriniwaspuri SO",
      "District": "SOUTH",
      "State": "DELHI",
      "Pincode": "110065",
      "Lat": 28.5646944,
      "Lng": 77.2555833
    }
  ],
  "110066": [
    {
      "Name": "R K Puram West SO",
      "District": "NEW DELHI",
      "State": "DELHI",
      "Pincode": "110066",
      "Lat": 28.5653056,
      "Lng": 77.17975
    },
    {
      "Name": "R K Puram Main SO",
      "District": "NEW DELHI",
      "State": "DELHI",
      "Pincode": "110066",
      "Lat": 28.567136,
      "Lng": 77.185239
    }
  ],
  "110067": [
    {
      "Name": "Munirka SO",
      "District": "NEW DELHI",
      "State": "DELHI",
      "Pincode": "110067",
      "Lat": 28.5550833,
      "Lng": 77.1762222
    },
    {
      "Name": "JNU SO",
      "District": "NEW DELHI",
      "State": "DELHI",
      "Pincode": "110067",
      "Lat": 28.55075,
      "Lng": 77.1792778
    },
    {
      "Name": "JNU New Campus SO",
      "District": "NEW DELHI",
      "State": "DELHI",
      "Pincode": "110067",
      "Lat": 28.5393611,
      "Lng": 77.1635
    }
  ],
  "110068": [
    {
      "Name": "Ignou SO",
      "District": "SOUTH",
      "State": "DELHI",
      "Pincode": "110068",
      "Lat": 28.5012222,
      "Lng": 77.2003056
    },
    {
      "Name": "Maidan Garhi BO",
      "District": "SOUTH",
      "State": "DELHI",
      "Pincode": "110068",
      "Lat": 28.5012222,
      "Lng": 77.2003055
    }
  ],
  "110069": [
    {
      "Name": "Union Public Service Commission SO",
      "District": "NEW DELHI",
      "State": "DELHI",
      "Pincode": "110069",
      "Lat": 28.6225833,
      "Lng": 77.2127222
    }
  ],
  "110070": [
    {
      "Name": "Vasant Kunj SO",
      "District": "NEW DELHI",
      "State": "DELHI",
      "Pincode": "110070",
      "Lat": 28.534162,
      "Lng": 77.152685
    },
    {
      "Name": "Vasant Kunj PktA SO",
      "District": "NEW DELHI",
      "State": "DELHI",
      "Pincode": "110070",
      "Lat": 28.5139722,
      "Lng": 77.1655
    },
    {
      "Name": "Masood Pur BO",
      "District": "NEW DELHI",
      "State": "DELHI",
      "Pincode": "110070",
      "Lat": 28.52,
      "Lng": 77.15
    }
  ],
  "110071": [
    {
      "Name": "Kangan Heri B.O",
      "District": "SOUTH WEST",
      "State": "DELHI",
      "Pincode": "110071",
      "Lat": 28.546186,
      "Lng": 76.990187
    },
    {
      "Name": "Chhawla S.O",
      "District": "SOUTH WEST",
      "State": "DELHI",
      "Pincode": "110071",
      "Lat": 28.5613,
      "Lng": 77.001911
    },
    {
      "Name": "Badusarai B.O",
      "District": "SOUTH WEST",
      "State": "DELHI",
      "Pincode": "110071",
      "Lat": 28.529595,
      "Lng": 76.986468
    },
    {
      "Name": "Qutub Vihar SO",
      "District": "SOUTH WEST",
      "State": "DELHI",
      "Pincode": "110071",
      "Lat": 28.574806,
      "Lng": 77.627685
    }
  ],
  "110072": [
    {
      "Name": "Jharoda Kalan B.O",
      "District": "SOUTH WEST",
      "State": "DELHI",
      "Pincode": "110072",
      "Lat": 28.652588,
      "Lng": 76.956454
    },
    {
      "Name": "CRPF Jharoda Kalan S.O",
      "District": "SOUTH WEST",
      "State": "DELHI",
      "Pincode": "110072",
      "Lat": 28.6359167,
      "Lng": 77.9605833
    }
  ],
  "110073": [
    {
      "Name": "Galib Pur B.O",
      "District": "SOUTH WEST",
      "State": "DELHI",
      "Pincode": "110073",
      "Lat": 25.890679,
      "Lng": 83.367586
    },
    {
      "Name": "Khera Dabur B.O",
      "District": "SOUTH WEST",
      "State": "DELHI",
      "Pincode": "110073",
      "Lat": 28.5838,
      "Lng": 76.936906
    },
    {
      "Name": "Mundela Kalan B.O",
      "District": "SOUTH WEST",
      "State": "DELHI",
      "Pincode": "110073",
      "Lat": 28.609773,
      "Lng": 76.893434
    },
    {
      "Name": "Quazipur B.O",
      "District": "SOUTH WEST",
      "State": "DELHI",
      "Pincode": "110073",
      "Lat": 25.26516,
      "Lng": 80.69649
    },
    {
      "Name": "Raota B.O",
      "District": "SOUTH WEST",
      "State": "DELHI",
      "Pincode": "110073",
      "Lat": 25.030661,
      "Lng": 86.192975
    },
    {
      "Name": "Ujwa S.O",
      "District": "SOUTH WEST",
      "State": "DELHI",
      "Pincode": "110073",
      "Lat": 28.5709444,
      "Lng": 76.9076944
    },
    {
      "Name": "Issapur B.O",
      "District": "SOUTH WEST",
      "State": "DELHI",
      "Pincode": "110073",
      "Lat": 24.095817,
      "Lng": 90.412518
    },
    {
      "Name": "Malik Pur B.O",
      "District": "SOUTH WEST",
      "State": "DELHI",
      "Pincode": "110073",
      "Lat": 32.643914,
      "Lng": 74.046903
    },
    {
      "Name": "Ghuman Hera B.O",
      "District": "SOUTH WEST",
      "State": "DELHI",
      "Pincode": "110073",
      "Lat": 28.531999,
      "Lng": 76.923973
    },
    {
      "Name": "Jafarpur B.O",
      "District": "SOUTH WEST",
      "State": "DELHI",
      "Pincode": "110073",
      "Lat": 22.321388,
      "Lng": 88.248552
    },
    {
      "Name": "Dhansa S.O",
      "District": "SOUTH WEST",
      "State": "DELHI",
      "Pincode": "110073",
      "Lat": 28.554485,
      "Lng": 76.865029
    }
  ],
  "110074": [
    {
      "Name": "BHATI VILLAGE BO",
      "District": "SOUTH",
      "State": "DELHI",
      "Pincode": "110074",
      "Lat": 28.5073055,
      "Lng": 77.1845555
    },
    {
      "Name": "Dera BO",
      "District": "SOUTH",
      "State": "DELHI",
      "Pincode": "110074",
      "Lat": 28.5073055,
      "Lng": 77.1845555
    },
    {
      "Name": "CSKM School BO",
      "District": "SOUTH",
      "State": "DELHI",
      "Pincode": "110074",
      "Lat": 28.5073055,
      "Lng": 77.1845555
    },
    {
      "Name": "Chandanhoola BO",
      "District": "SOUTH",
      "State": "DELHI",
      "Pincode": "110074",
      "Lat": 28.45,
      "Lng": 77.18
    },
    {
      "Name": "Sanjay Colony Bhati Mines BO",
      "District": "SOUTH",
      "State": "DELHI",
      "Pincode": "110074",
      "Lat": 28.5073055,
      "Lng": 77.1845555
    },
    {
      "Name": "Chattarpur SO",
      "District": "SOUTH",
      "State": "DELHI",
      "Pincode": "110074",
      "Lat": 28.496388,
      "Lng": 77.184166
    },
    {
      "Name": "Fatehpur Beri S.O",
      "District": "SOUTH",
      "State": "DELHI",
      "Pincode": "110074",
      "Lat": 28.50842,
      "Lng": 77.20918
    },
    {
      "Name": "Satbari",
      "District": "SOUTH",
      "State": "DELHI",
      "Pincode": "110074",
      "Lat": "NA",
      "Lng": "NA"
    }
  ],
  "110075": [
    {
      "Name": "NDC DWARKA SEC-6",
      "District": "SOUTH WEST",
      "State": "DELHI",
      "Pincode": "110075",
      "Lat": 28.6068611,
      "Lng": 77.0415278
    },
    {
      "Name": "Amberhai B.O",
      "District": "SOUTH WEST",
      "State": "DELHI",
      "Pincode": "110075",
      "Lat": 28.578231,
      "Lng": 77.04961
    },
    {
      "Name": "District Court Complex Dwarka S.O",
      "District": "SOUTH WEST",
      "State": "DELHI",
      "Pincode": "110075",
      "Lat": 28.580691,
      "Lng": 77.059203
    },
    {
      "Name": "Dwarka Sec-6 S.O",
      "District": "SOUTH WEST",
      "State": "DELHI",
      "Pincode": "110075",
      "Lat": 28.6068611,
      "Lng": 77.0415278
    }
  ],
  "110076": [
    {
      "Name": "Madanpur Khadar BO",
      "District": "SOUTH",
      "State": "DELHI",
      "Pincode": "110076",
      "Lat": 28.53,
      "Lng": 77.3
    },
    {
      "Name": "Ali BO",
      "District": "SOUTH",
      "State": "DELHI",
      "Pincode": "110076",
      "Lat": 28.52,
      "Lng": 77.31
    },
    {
      "Name": "Sarita Vihar SO",
      "District": "SOUTH",
      "State": "DELHI",
      "Pincode": "110076",
      "Lat": 28.5348333,
      "Lng": 77.2911667
    }
  ],
  "110077": [
    {
      "Name": "Raj Nagar   II S.O",
      "District": "SOUTH WEST",
      "State": "DELHI",
      "Pincode": "110077",
      "Lat": 28.5748056,
      "Lng": 77.0787222
    },
    {
      "Name": "Bagdola B.O",
      "District": "NEW DELHI",
      "State": "DELHI",
      "Pincode": "110077",
      "Lat": 28.571529,
      "Lng": 77.072995
    },
    {
      "Name": "Barthal B.O",
      "District": "SOUTH WEST",
      "State": "DELHI",
      "Pincode": "110077",
      "Lat": 28.542804,
      "Lng": 77.049144
    },
    {
      "Name": "Dhulsiras B.O",
      "District": "SOUTH WEST",
      "State": "DELHI",
      "Pincode": "110077",
      "Lat": 28.564173,
      "Lng": 77.041334
    },
    {
      "Name": "Palam Extn (Harijan Basti) S.O",
      "District": "SOUTH WEST",
      "State": "DELHI",
      "Pincode": "110077",
      "Lat": 28.587944,
      "Lng": 77.072276
    }
  ],
  "110078": [
    {
      "Name": "N.S.I.T. Dwarka S.O",
      "District": "SOUTH WEST",
      "State": "DELHI",
      "Pincode": "110078",
      "Lat": 28.6102222,
      "Lng": 77.0376667
    },
    {
      "Name": "Kakrola B.O",
      "District": "SOUTH WEST",
      "State": "DELHI",
      "Pincode": "110078",
      "Lat": 28.598435,
      "Lng": 77.022021
    },
    {
      "Name": "GGSIP University S.O",
      "District": "SOUTH WEST",
      "State": "DELHI",
      "Pincode": "110078",
      "Lat": 28.6330278,
      "Lng": 77.1366389
    }
  ],
  "110080": [
    {
      "Name": "Sangam Vihar SO",
      "District": "SOUTH",
      "State": "DELHI",
      "Pincode": "110080",
      "Lat": 28.5,
      "Lng": 77.24
    },
    {
      "Name": "Air Force Station Tugalkabad SO",
      "District": "SOUTH",
      "State": "DELHI",
      "Pincode": "110080",
      "Lat": 28.5100278,
      "Lng": 77.2542778
    },
    {
      "Name": "Talimabad SO",
      "District": "SOUTH",
      "State": "DELHI",
      "Pincode": "110080",
      "Lat": 28.5037778,
      "Lng": 77.2499444
    },
    {
      "Name": "Khanpur SO South Delhi",
      "District": "SOUTH",
      "State": "DELHI",
      "Pincode": "110080",
      "Lat": 28.515085,
      "Lng": 77.225752
    },
    {
      "Name": "Deoli BO",
      "District": "SOUTH",
      "State": "DELHI",
      "Pincode": "110080",
      "Lat": 28.5,
      "Lng": 77.23
    },
    {
      "Name": "BSF Camp Tigri SO",
      "District": "SOUTH",
      "State": "DELHI",
      "Pincode": "110080",
      "Lat": 28.5105278,
      "Lng": 77.2424167
    }
  ],
  "110081": [
    {
      "Name": "Chand Pur BO",
      "District": "NORTH WEST",
      "State": "DELHI",
      "Pincode": "110081",
      "Lat": 28.7349166,
      "Lng": 77.0055555
    },
    {
      "Name": "Mubarak Pur Dabas BO",
      "District": "NORTH WEST",
      "State": "DELHI",
      "Pincode": "110081",
      "Lat": 28.7349166,
      "Lng": 77.0055555
    },
    {
      "Name": "Punjab Khor BO",
      "District": "NORTH WEST",
      "State": "DELHI",
      "Pincode": "110081",
      "Lat": 28.7349166,
      "Lng": 77.0055555
    },
    {
      "Name": "Karala BO",
      "District": "NORTH WEST",
      "State": "DELHI",
      "Pincode": "110081",
      "Lat": 28.7349166,
      "Lng": 77.0055555
    },
    {
      "Name": "Nizampur BO",
      "District": "NORTH WEST",
      "State": "DELHI",
      "Pincode": "110081",
      "Lat": 28.7349166,
      "Lng": 77.0055555
    },
    {
      "Name": "Jaunti BO",
      "District": "NORTH WEST",
      "State": "DELHI",
      "Pincode": "110081",
      "Lat": 28.7349166,
      "Lng": 77.0055555
    },
    {
      "Name": "Rani Khera BO",
      "District": "NORTH WEST",
      "State": "DELHI",
      "Pincode": "110081",
      "Lat": 28.7349166,
      "Lng": 77.0055555
    },
    {
      "Name": "Kanjhawla SO",
      "District": "NORTH WEST",
      "State": "DELHI",
      "Pincode": "110081",
      "Lat": 28.7349167,
      "Lng": 77.0055556
    },
    {
      "Name": "Gheora BO",
      "District": "NORTH WEST",
      "State": "DELHI",
      "Pincode": "110081",
      "Lat": 28.7349166,
      "Lng": 77.0055555
    },
    {
      "Name": "Lad Pur BO",
      "District": "NORTH WEST",
      "State": "DELHI",
      "Pincode": "110081",
      "Lat": 28.7349166,
      "Lng": 77.0055555
    },
    {
      "Name": "Majra Dabas BO",
      "District": "NORTH WEST",
      "State": "DELHI",
      "Pincode": "110081",
      "Lat": 28.7349166,
      "Lng": 77.0055555
    }
  ],
  "110082": [
    {
      "Name": "Khera Khurd BO",
      "District": "NORTH",
      "State": "DELHI",
      "Pincode": "110082",
      "Lat": 28.7721666,
      "Lng": 77.119
    },
    {
      "Name": "Naya Bans BO",
      "District": "NORTH",
      "State": "DELHI",
      "Pincode": "110082",
      "Lat": 28.7721666,
      "Lng": 77.119
    },
    {
      "Name": "Khera Kalan SO",
      "District": "NORTH",
      "State": "DELHI",
      "Pincode": "110082",
      "Lat": 28.7721667,
      "Lng": 77.119
    },
    {
      "Name": "Holambi Kalan BO",
      "District": "NORTH",
      "State": "DELHI",
      "Pincode": "110082",
      "Lat": 28.7721666,
      "Lng": 77.119
    }
  ],
  "110083": [
    {
      "Name": "Mangolpuri I  Block SO",
      "District": "NORTH WEST",
      "State": "DELHI",
      "Pincode": "110083",
      "Lat": 28.7147778,
      "Lng": 77.0878333
    },
    {
      "Name": "Mangolpuri A Block SO",
      "District": "NORTH WEST",
      "State": "DELHI",
      "Pincode": "110083",
      "Lat": 28.6938611,
      "Lng": 77.0936111
    },
    {
      "Name": "Mangolpuri N Block SO",
      "District": "NORTH WEST",
      "State": "DELHI",
      "Pincode": "110083",
      "Lat": 28.6936667,
      "Lng": 77.09
    },
    {
      "Name": "Mangolpuri S Block SO",
      "District": "NORTH WEST",
      "State": "DELHI",
      "Pincode": "110083",
      "Lat": 28.6904722,
      "Lng": 77.0822778
    }
  ],
  "110084": [
    {
      "Name": "Wazirabad Village SO",
      "District": "CENTRAL",
      "State": "DELHI",
      "Pincode": "110084",
      "Lat": 28.722239,
      "Lng": 77.221819
    },
    {
      "Name": "Nathupura Village SO",
      "District": "CENTRAL",
      "State": "DELHI",
      "Pincode": "110084",
      "Lat": 28.7691574,
      "Lng": 77.17729
    },
    {
      "Name": "Jagatpur BO",
      "District": "NORTH",
      "State": "DELHI",
      "Pincode": "110084",
      "Lat": 28.7572222,
      "Lng": 77.1977777
    },
    {
      "Name": "Sant Nagar SO",
      "District": "CENTRAL",
      "State": "DELHI",
      "Pincode": "110084",
      "Lat": 28.7572222,
      "Lng": 77.1977777
    },
    {
      "Name": "Burari SO",
      "District": "CENTRAL",
      "State": "DELHI",
      "Pincode": "110084",
      "Lat": 28.7572222,
      "Lng": 77.1977778
    },
    {
      "Name": "Jharoda Majraa BO",
      "District": "NORTH",
      "State": "DELHI",
      "Pincode": "110084",
      "Lat": 28.7572222,
      "Lng": 77.1977777
    }
  ],
  "110085": [
    {
      "Name": "Prashant Vihar SO",
      "District": "NORTH WEST",
      "State": "DELHI",
      "Pincode": "110085",
      "Lat": 28.7168889,
      "Lng": 77.1380556
    },
    {
      "Name": "Rohini Courts SO",
      "District": "NORTH WEST",
      "State": "DELHI",
      "Pincode": "110085",
      "Lat": 28.70775,
      "Lng": 77.132
    },
    {
      "Name": "Rohini sec11 SO",
      "District": "NORTH WEST",
      "State": "DELHI",
      "Pincode": "110085",
      "Lat": 28.728826,
      "Lng": 77.106806
    },
    {
      "Name": "Rohini Sector7 SO",
      "District": "NORTH WEST",
      "State": "DELHI",
      "Pincode": "110085",
      "Lat": 28.6933611,
      "Lng": 77.1713889
    },
    {
      "Name": "Avantika SO",
      "District": "NORTH WEST",
      "State": "DELHI",
      "Pincode": "110085",
      "Lat": 28.707962,
      "Lng": 77.117033
    },
    {
      "Name": "Rohini Sector 5 SO",
      "District": "NORTH WEST",
      "State": "DELHI",
      "Pincode": "110085",
      "Lat": 28.71575,
      "Lng": 77.11
    },
    {
      "Name": "Rohini Sector 16 PO",
      "District": "NORTH WEST",
      "State": "DELHI",
      "Pincode": "110085",
      "Lat": 28.73545,
      "Lng": 77.117477
    },
    {
      "Name": "Rithala BO",
      "District": "NORTH WEST",
      "State": "DELHI",
      "Pincode": "110085",
      "Lat": 28.6933611,
      "Lng": 77.1713889
    }
  ],
  "110086": [
    {
      "Name": "Budh Vihar BO",
      "District": "NORTH WEST",
      "State": "DELHI",
      "Pincode": "110086",
      "Lat": 28.7016111,
      "Lng": 77.0797222
    },
    {
      "Name": "Begumpur BO",
      "District": "NORTH WEST",
      "State": "DELHI",
      "Pincode": "110086",
      "Lat": 28.7016111,
      "Lng": 77.0797222
    },
    {
      "Name": "Prem Nagar BO",
      "District": "NORTH WEST",
      "State": "DELHI",
      "Pincode": "110086",
      "Lat": 28.7016111,
      "Lng": 77.0797222
    },
    {
      "Name": "KIRARI SULEMAN NAGAR SO",
      "District": "NORTH WEST",
      "State": "DELHI",
      "Pincode": "110086",
      "Lat": 28.69795,
      "Lng": 77.064361
    },
    {
      "Name": "Pooth Kalan BO",
      "District": "NORTH WEST",
      "State": "DELHI",
      "Pincode": "110086",
      "Lat": 28.7016111,
      "Lng": 77.0797222
    },
    {
      "Name": "Sultanpuri B Block SO",
      "District": "NORTH WEST",
      "State": "DELHI",
      "Pincode": "110086",
      "Lat": 28.6963611,
      "Lng": 77.0764167
    },
    {
      "Name": "Sultanpuri C Block SO",
      "District": "NORTH WEST",
      "State": "DELHI",
      "Pincode": "110086",
      "Lat": 28.7016111,
      "Lng": 77.0797222
    },
    {
      "Name": "Sultanpuri F Block SO",
      "District": "NORTH WEST",
      "State": "DELHI",
      "Pincode": "110086",
      "Lat": 28.6900278,
      "Lng": 77.0685833
    }
  ],
  "110087": [
    {
      "Name": "Peeragarhi B.O",
      "District": "WEST",
      "State": "DELHI",
      "Pincode": "110087",
      "Lat": 28.679745,
      "Lng": 77.092689
    },
    {
      "Name": "Jwala Puri S.O",
      "District": "WEST",
      "State": "DELHI",
      "Pincode": "110087",
      "Lat": 28.6800278,
      "Lng": 77.07875
    },
    {
      "Name": "Sunder Vihar S.O",
      "District": "WEST",
      "State": "DELHI",
      "Pincode": "110087",
      "Lat": 28.6663889,
      "Lng": 77.0881667
    }
  ],
  "110088": [
    {
      "Name": "Shalamar BO",
      "District": "NORTH",
      "State": "DELHI",
      "Pincode": "110088",
      "Lat": 28.6933611,
      "Lng": 77.1713889
    },
    {
      "Name": "Haiderpur SO",
      "District": "NORTH",
      "State": "DELHI",
      "Pincode": "110088",
      "Lat": 28.7246667,
      "Lng": 77.1469444
    },
    {
      "Name": "Shalimar Bagh SO North West Delhi",
      "District": "NORTH",
      "State": "DELHI",
      "Pincode": "110088",
      "Lat": 28.6933611,
      "Lng": 77.1713889
    }
  ],
  "110089": [
    {
      "Name": "Rohini Sector 15 SO",
      "District": "NORTH WEST",
      "State": "DELHI",
      "Pincode": "110089",
      "Lat": 28.7348056,
      "Lng": 77.1325
    }
  ],
  "110090": [
    {
      "Name": "Khajoori Khas BO",
      "District": "NORTH EAST",
      "State": "DELHI",
      "Pincode": "110090",
      "Lat": 28.69225,
      "Lng": 77.3042222
    },
    {
      "Name": "Sabhapur BO",
      "District": "NORTH EAST",
      "State": "DELHI",
      "Pincode": "110090",
      "Lat": "NA",
      "Lng": "NA"
    },
    {
      "Name": "Karawal Nagar SO",
      "District": "NORTH EAST",
      "State": "DELHI",
      "Pincode": "110090",
      "Lat": 28.7259444,
      "Lng": 77.2726389
    },
    {
      "Name": "Shaheed Bhagat Singh Colony SO",
      "District": "NORTH EAST",
      "State": "DELHI",
      "Pincode": "110090",
      "Lat": 28.6739166,
      "Lng": 77.3198333
    },
    {
      "Name": "Sonia Vihar SO",
      "District": "NORTH EAST",
      "State": "DELHI",
      "Pincode": "110090",
      "Lat": 28.7262778,
      "Lng": 77.2476944
    },
    {
      "Name": "Badarpur Khadar BO",
      "District": "NORTH EAST",
      "State": "DELHI",
      "Pincode": "110090",
      "Lat": 28.69225,
      "Lng": 77.3042222
    }
  ],
  "110091": [
    {
      "Name": "Kalyanpuri SO",
      "District": "EAST",
      "State": "DELHI",
      "Pincode": "110091",
      "Lat": 28.6146944,
      "Lng": 77.3178056
    },
    {
      "Name": "Patparganj SO",
      "District": "EAST",
      "State": "DELHI",
      "Pincode": "110091",
      "Lat": 28.6143611,
      "Lng": 77.2900278
    },
    {
      "Name": "Mayur Vihar PhI SO",
      "District": "EAST",
      "State": "DELHI",
      "Pincode": "110091",
      "Lat": 28.607,
      "Lng": 77.2945833
    },
    {
      "Name": "Kalyanvas SO",
      "District": "EAST",
      "State": "DELHI",
      "Pincode": "110091",
      "Lat": 28.6198333,
      "Lng": 77.3121111
    },
    {
      "Name": "CHILLA  SO",
      "District": "EAST",
      "State": "DELHI",
      "Pincode": "110091",
      "Lat": 28.5959,
      "Lng": 77.3003
    },
    {
      "Name": "Himmatpuri SO",
      "District": "EAST",
      "State": "DELHI",
      "Pincode": "110091",
      "Lat": 28.6053889,
      "Lng": 77.3073333
    },
    {
      "Name": "Trilok Puri SO",
      "District": "EAST",
      "State": "DELHI",
      "Pincode": "110091",
      "Lat": 28.6138889,
      "Lng": 77.2935556
    }
  ],
  "110092": [
    {
      "Name": "Shakarpur SO",
      "District": "EAST",
      "State": "DELHI",
      "Pincode": "110092",
      "Lat": 28.627,
      "Lng": 77.2850278
    },
    {
      "Name": "Laxmi Nagar Extension SO",
      "District": "EAST",
      "State": "DELHI",
      "Pincode": "110092",
      "Lat": 28.6921111,
      "Lng": 77.3042222
    },
    {
      "Name": "Laxmi Nagar SO East Delhi",
      "District": "EAST",
      "State": "DELHI",
      "Pincode": "110092",
      "Lat": 28.6921111,
      "Lng": 77.3042222
    },
    {
      "Name": "IP Extension SO",
      "District": "EAST",
      "State": "DELHI",
      "Pincode": "110092",
      "Lat": 28.6336389,
      "Lng": 77.3111944
    },
    {
      "Name": "Nirman Vihar SO",
      "District": "EAST",
      "State": "DELHI",
      "Pincode": "110092",
      "Lat": 28.635,
      "Lng": 77.2895556
    },
    {
      "Name": "Yozna Vihar SO",
      "District": "EAST",
      "State": "DELHI",
      "Pincode": "110092",
      "Lat": 28.69225,
      "Lng": 77.3042222
    },
    {
      "Name": "Surajmal Vihar SO",
      "District": "SHAHDARA",
      "State": "DELHI",
      "Pincode": "110092",
      "Lat": 28.6617778,
      "Lng": 77.3059722
    },
    {
      "Name": "Anand Vihar SO",
      "District": "EAST",
      "State": "DELHI",
      "Pincode": "110092",
      "Lat": 28.6522222,
      "Lng": 77.3064444
    },
    {
      "Name": "Mandawali Fazalpur SO",
      "District": "EAST",
      "State": "DELHI",
      "Pincode": "110092",
      "Lat": 28.627,
      "Lng": 77.2063333
    }
  ],
  "110093": [
    {
      "Name": "Mandoli Saboli BO",
      "District": "NORTH EAST",
      "State": "DELHI",
      "Pincode": "110093",
      "Lat": 28.702185,
      "Lng": 77.30501
    },
    {
      "Name": "Harsh Vihar SO",
      "District": "NORTH EAST",
      "State": "DELHI",
      "Pincode": "110093",
      "Lat": 28.7021944,
      "Lng": 77.3236389
    },
    {
      "Name": "Nand Nagri C SO",
      "District": "NORTH EAST",
      "State": "DELHI",
      "Pincode": "110093",
      "Lat": 28.6921111,
      "Lng": 77.3042222
    },
    {
      "Name": "Housing Complex Loni Road SO",
      "District": "NORTH EAST",
      "State": "DELHI",
      "Pincode": "110093",
      "Lat": 28.69525,
      "Lng": 77.2953333
    }
  ],
  "110094": [
    {
      "Name": "Gokal Puri SO",
      "District": "NORTH EAST",
      "State": "DELHI",
      "Pincode": "110094",
      "Lat": 28.7039444,
      "Lng": 77.2833056
    },
    {
      "Name": "Johripur BO",
      "District": "NORTH EAST",
      "State": "DELHI",
      "Pincode": "110094",
      "Lat": 28.69225,
      "Lng": 77.3042222
    },
    {
      "Name": "Dayalpur BO",
      "District": "NORTH EAST",
      "State": "DELHI",
      "Pincode": "110094",
      "Lat": 28.69225,
      "Lng": 77.3042222
    }
  ],
  "110095": [
    {
      "Name": "Dilshad Garden SO",
      "District": "SHAHDARA",
      "State": "DELHI",
      "Pincode": "110095",
      "Lat": 28.6794722,
      "Lng": 77.3086944
    },
    {
      "Name": "Jhilmil HO",
      "District": "SHAHDARA",
      "State": "DELHI",
      "Pincode": "110095",
      "Lat": 28.6739167,
      "Lng": 77.3198333
    },
    {
      "Name": "GTB Hospital SO",
      "District": "SHAHDARA",
      "State": "DELHI",
      "Pincode": "110095",
      "Lat": 28.6888056,
      "Lng": 77.3076944
    },
    {
      "Name": "New Seemapuri SO",
      "District": "SHAHDARA",
      "State": "DELHI",
      "Pincode": "110095",
      "Lat": 28.6891667,
      "Lng": 77.3285
    },
    {
      "Name": "Old Seemapuri SO",
      "District": "SHAHDARA",
      "State": "DELHI",
      "Pincode": "110095",
      "Lat": 28.6805556,
      "Lng": 77.3303333
    },
    {
      "Name": "Vivek Vihar SO",
      "District": "SHAHDARA",
      "State": "DELHI",
      "Pincode": "110095",
      "Lat": 28.6759722,
      "Lng": 77.3267778
    },
    {
      "Name": "Jhilmil Tahirpur BO",
      "District": "SHAHDARA",
      "State": "DELHI",
      "Pincode": "110095",
      "Lat": 28.68254,
      "Lng": 77.31315
    },
    {
      "Name": "Vishwakarma Nagar SO",
      "District": "SHAHDARA",
      "State": "DELHI",
      "Pincode": "110095",
      "Lat": 28.6721111,
      "Lng": 77.3069722
    }
  ],
  "110096": [
    {
      "Name": "New Ashok Nagar S.O",
      "District": "EAST",
      "State": "DELHI",
      "Pincode": "110096",
      "Lat": 28.596722,
      "Lng": 77.312114
    },
    {
      "Name": "Vasundhra Enclave SO",
      "District": "EAST",
      "State": "DELHI",
      "Pincode": "110096",
      "Lat": 28.6221944,
      "Lng": 77.3167222
    },
    {
      "Name": "Ghazipur BO",
      "District": "EAST",
      "State": "DELHI",
      "Pincode": "110096",
      "Lat": 28.61777,
      "Lng": 77.32961
    },
    {
      "Name": "Mayur Vihar PhIII SO",
      "District": "EAST",
      "State": "DELHI",
      "Pincode": "110096",
      "Lat": 28.6086389,
      "Lng": 77.3364167
    }
  ],
  "110097": [
    {
      "Name": "Kapashera SO",
      "District": "SOUTH WEST",
      "State": "DELHI",
      "Pincode": "110097",
      "Lat": 28.528884,
      "Lng": 77.086554
    }
  ],
  "110099": [
    {
      "Name": "ROHINI SECTOR 23 SO",
      "District": "NORTH WEST",
      "State": "DELHI",
      "Pincode": "110099",
      "Lat": 28.720596,
      "Lng": 77.080909
    }
  ],
  "110102": [
    {
      "Name": "NDC NDHO",
      "District": "NEW DELHI",
      "State": "DELHI",
      "Pincode": "110102",
      "Lat": 28.6314278,
      "Lng": 77.205714
    }
  ],
  "110106": [
    {
      "Name": "DELHI GPO NDC",
      "District": "NORTH",
      "State": "DELHI",
      "Pincode": "110106",
      "Lat": 28.662289,
      "Lng": 77.235553
    }
  ],
  "110110": [
    {
      "Name": "Nodal Delivery Centre(Parcel) Rohini",
      "District": "NORTH WEST",
      "State": "DELHI",
      "Pincode": "110110",
      "Lat": 28.71575,
      "Lng": 77.11
    }
  ],
  "110119": [
    {
      "Name": "KALKAJI NDC",
      "District": "South East",
      "State": "DELHI",
      "Pincode": "110119",
      "Lat": 28.542802,
      "Lng": 77.257506
    }
  ],
  "110124": [
    {
      "Name": "LAJPAT NAGAR NDC",
      "District": "SOUTH",
      "State": "DELHI",
      "Pincode": "110124",
      "Lat": 28.567906,
      "Lng": 77.241397
    }
  ],
  "110151": [
    {
      "Name": "KRISHNA NAGAR NDC",
      "District": "SHAHDARA",
      "State": "DELHI",
      "Pincode": "110151",
      "Lat": 28.645733,
      "Lng": 77.2997737
    }
  ],
  "110195": [
    {
      "Name": "JHILMIL NDC",
      "District": "SHAHDARA",
      "State": "DELHI",
      "Pincode": "110195",
      "Lat": 28.673961,
      "Lng": 77.319696
    }
  ]
}
