{
  "171001": [
    {
      "Name": "Busstand SO",
      "District": "SHIMLA",
      "State": "HIMACHAL PRADESH",
      "Pincode": "171001",
      "Lat": 31.1038056,
      "Lng": 77.1699722
    },
    {
      "Name": "CPRI SO",
      "District": "SHIMLA",
      "State": "HIMACHAL PRADESH",
      "Pincode": "171001",
      "Lat": 31.0966667,
      "Lng": 77.1714167
    },
    {
      "Name": "Shimla GPO",
      "District": "SHIMLA",
      "State": "HIMACHAL PRADESH",
      "Pincode": "171001",
      "Lat": 31.10549,
      "Lng": 77.170373
    },
    {
      "Name": "Combermere SO",
      "District": "SHIMLA",
      "State": "HIMACHAL PRADESH",
      "Pincode": "171001",
      "Lat": 31.1019444,
      "Lng": 77.1775556
    },
    {
      "Name": "IGMC SO",
      "District": "SHIMLA",
      "State": "HIMACHAL PRADESH",
      "Pincode": "171001",
      "Lat": 31.1055833,
      "Lng": 77.1828611
    },
    {
      "Name": "Shimla High Court SO",
      "District": "SHIMLA",
      "State": "HIMACHAL PRADESH",
      "Pincode": "171001",
      "Lat": 31.0984722,
      "Lng": 77.1741667
    }
  ],
  "171002": [
    {
      "Name": "Shimla East SO",
      "District": "SHIMLA",
      "State": "HIMACHAL PRADESH",
      "Pincode": "171002",
      "Lat": 31.104605,
      "Lng": 77.173424
    },
    {
      "Name": "HPSectt SO",
      "District": "SHIMLA",
      "State": "HIMACHAL PRADESH",
      "Pincode": "171002",
      "Lat": 31.08725,
      "Lng": 77.1807222
    },
    {
      "Name": "Khalini SO",
      "District": "SHIMLA",
      "State": "HIMACHAL PRADESH",
      "Pincode": "171002",
      "Lat": 31.0891389,
      "Lng": 77.1694167
    }
  ],
  "171003": [
    {
      "Name": "Kaithu BO",
      "District": "SHIMLA",
      "State": "HIMACHAL PRADESH",
      "Pincode": "171003",
      "Lat": 30.913,
      "Lng": 77.49
    },
    {
      "Name": "Bhont BO",
      "District": "SHIMLA",
      "State": "HIMACHAL PRADESH",
      "Pincode": "171003",
      "Lat": 30.993,
      "Lng": 77.906
    },
    {
      "Name": "Bharari BO",
      "District": "SHIMLA",
      "State": "HIMACHAL PRADESH",
      "Pincode": "171003",
      "Lat": 31.925,
      "Lng": 77.4096
    },
    {
      "Name": "AGPO SO",
      "District": "SHIMLA",
      "State": "HIMACHAL PRADESH",
      "Pincode": "171003",
      "Lat": 31.104605,
      "Lng": 77.173424
    }
  ],
  "171004": [
    {
      "Name": "Nabha Estate BO",
      "District": "SHIMLA",
      "State": "HIMACHAL PRADESH",
      "Pincode": "171004",
      "Lat": 31.263,
      "Lng": 77.4096
    },
    {
      "Name": "Ambedkarchowk SO",
      "District": "SHIMLA",
      "State": "HIMACHAL PRADESH",
      "Pincode": "171004",
      "Lat": 31.1032,
      "Lng": 77.155
    }
  ],
  "171005": [
    {
      "Name": "Chaili BO",
      "District": "SHIMLA",
      "State": "HIMACHAL PRADESH",
      "Pincode": "171005",
      "Lat": 31.226,
      "Lng": 77.179
    },
    {
      "Name": "Distt Court Chakkar SO",
      "District": "SHIMLA",
      "State": "HIMACHAL PRADESH",
      "Pincode": "171005",
      "Lat": 31.40487,
      "Lng": 77.601913
    },
    {
      "Name": "Summerhill SO",
      "District": "SHIMLA",
      "State": "HIMACHAL PRADESH",
      "Pincode": "171005",
      "Lat": 31.1146,
      "Lng": 77.1399
    }
  ],
  "171006": [
    {
      "Name": "Malyana BO",
      "District": "SHIMLA",
      "State": "HIMACHAL PRADESH",
      "Pincode": "171006",
      "Lat": 31.123,
      "Lng": 77.352
    },
    {
      "Name": "Sanjauli SO",
      "District": "SHIMLA",
      "State": "HIMACHAL PRADESH",
      "Pincode": "171006",
      "Lat": 31.1035,
      "Lng": 77.1974
    },
    {
      "Name": "Poabo BO",
      "District": "SHIMLA",
      "State": "HIMACHAL PRADESH",
      "Pincode": "171006",
      "Lat": 31.1001,
      "Lng": 77.197
    },
    {
      "Name": "Kamlanagar BO",
      "District": "SHIMLA",
      "State": "HIMACHAL PRADESH",
      "Pincode": "171006",
      "Lat": 31.222,
      "Lng": 77.325
    }
  ],
  "171007": [
    {
      "Name": "Ghaini BO",
      "District": "SHIMLA",
      "State": "HIMACHAL PRADESH",
      "Pincode": "171007",
      "Lat": 31.210321,
      "Lng": 77.40625
    },
    {
      "Name": "Kiarkoti BO",
      "District": "SHIMLA",
      "State": "HIMACHAL PRADESH",
      "Pincode": "171007",
      "Lat": 31.02504,
      "Lng": 77.409605
    },
    {
      "Name": "Khatnol BO",
      "District": "SHIMLA",
      "State": "HIMACHAL PRADESH",
      "Pincode": "171007",
      "Lat": 31.21027,
      "Lng": 77.40064
    },
    {
      "Name": "Dewla BO",
      "District": "SHIMLA",
      "State": "HIMACHAL PRADESH",
      "Pincode": "171007",
      "Lat": 31.21045,
      "Lng": 77.40603
    },
    {
      "Name": "Pahal BO",
      "District": "SHIMLA",
      "State": "HIMACHAL PRADESH",
      "Pincode": "171007",
      "Lat": 31.02503,
      "Lng": 77.406037
    },
    {
      "Name": "Thailla BO",
      "District": "SHIMLA",
      "State": "HIMACHAL PRADESH",
      "Pincode": "171007",
      "Lat": 31.0872578,
      "Lng": 77.129402
    },
    {
      "Name": "Durgapur BO",
      "District": "SHIMLA",
      "State": "HIMACHAL PRADESH",
      "Pincode": "171007",
      "Lat": 31.21047,
      "Lng": 77.406036
    },
    {
      "Name": "Mashobra SO",
      "District": "SHIMLA",
      "State": "HIMACHAL PRADESH",
      "Pincode": "171007",
      "Lat": 31.1296,
      "Lng": 77.2283
    }
  ],
  "171008": [
    {
      "Name": "Jutogh SO",
      "District": "SHIMLA",
      "State": "HIMACHAL PRADESH",
      "Pincode": "171008",
      "Lat": 31.101,
      "Lng": 77.1301
    }
  ],
  "171009": [
    {
      "Name": "Rajhana BO",
      "District": "SHIMLA",
      "State": "HIMACHAL PRADESH",
      "Pincode": "171009",
      "Lat": 31.2115,
      "Lng": 77.4064
    },
    {
      "Name": "Kasumpti SO",
      "District": "SHIMLA",
      "State": "HIMACHAL PRADESH",
      "Pincode": "171009",
      "Lat": 31.078,
      "Lng": 77.181
    },
    {
      "Name": "New Shimla SO",
      "District": "SHIMLA",
      "State": "HIMACHAL PRADESH",
      "Pincode": "171009",
      "Lat": 31.0769,
      "Lng": 77.1856
    }
  ],
  "171010": [
    {
      "Name": "Tara Devi SO",
      "District": "SHIMLA",
      "State": "HIMACHAL PRADESH",
      "Pincode": "171010",
      "Lat": 31.0689,
      "Lng": 77.1341
    }
  ],
  "171011": [
    {
      "Name": "Badehari BO",
      "District": "SHIMLA",
      "State": "HIMACHAL PRADESH",
      "Pincode": "171011",
      "Lat": 31.216,
      "Lng": 77.189
    },
    {
      "Name": "Totu SO",
      "District": "SHIMLA",
      "State": "HIMACHAL PRADESH",
      "Pincode": "171011",
      "Lat": 31.0975,
      "Lng": 77.1241
    },
    {
      "Name": "Jubbarhatti BO",
      "District": "SHIMLA",
      "State": "HIMACHAL PRADESH",
      "Pincode": "171011",
      "Lat": 30.918,
      "Lng": 77.4093
    },
    {
      "Name": "Bychari BO",
      "District": "SHIMLA",
      "State": "HIMACHAL PRADESH",
      "Pincode": "171011",
      "Lat": 30.918,
      "Lng": 77.129
    },
    {
      "Name": "Chanog BO",
      "District": "SHIMLA",
      "State": "HIMACHAL PRADESH",
      "Pincode": "171011",
      "Lat": 31.216,
      "Lng": 77.4096
    },
    {
      "Name": "Rampur Keonthal BO",
      "District": "SHIMLA",
      "State": "HIMACHAL PRADESH",
      "Pincode": "171011",
      "Lat": 30.913,
      "Lng": 77.497
    },
    {
      "Name": "Rauri BO",
      "District": "SHIMLA",
      "State": "HIMACHAL PRADESH",
      "Pincode": "171011",
      "Lat": 30.919,
      "Lng": 77.129
    },
    {
      "Name": "Jathia Devi BO",
      "District": "SHIMLA",
      "State": "HIMACHAL PRADESH",
      "Pincode": "171011",
      "Lat": 31.2132,
      "Lng": 77.403
    }
  ],
  "171012": [
    {
      "Name": "Darbhog BO",
      "District": "SHIMLA",
      "State": "HIMACHAL PRADESH",
      "Pincode": "171012",
      "Lat": 31.2101,
      "Lng": 77.4003
    },
    {
      "Name": "Koti BO",
      "District": "SHIMLA",
      "State": "HIMACHAL PRADESH",
      "Pincode": "171012",
      "Lat": 31.2196,
      "Lng": 77.40637
    },
    {
      "Name": "Kufri BO",
      "District": "SHIMLA",
      "State": "HIMACHAL PRADESH",
      "Pincode": "171012",
      "Lat": 30.9102,
      "Lng": 77.4068
    },
    {
      "Name": "Satlai BO",
      "District": "SHIMLA",
      "State": "HIMACHAL PRADESH",
      "Pincode": "171012",
      "Lat": 30.9123,
      "Lng": 77.1203
    },
    {
      "Name": "Dhalli SO",
      "District": "SHIMLA",
      "State": "HIMACHAL PRADESH",
      "Pincode": "171012",
      "Lat": 31.1062,
      "Lng": 77.2103
    },
    {
      "Name": "Chharabra BO",
      "District": "SHIMLA",
      "State": "HIMACHAL PRADESH",
      "Pincode": "171012",
      "Lat": 31.313,
      "Lng": 77.932
    },
    {
      "Name": "Maloothi BO",
      "District": "SHIMLA",
      "State": "HIMACHAL PRADESH",
      "Pincode": "171012",
      "Lat": 30.9101,
      "Lng": 77.4006
    },
    {
      "Name": "Mundghat BO",
      "District": "SHIMLA",
      "State": "HIMACHAL PRADESH",
      "Pincode": "171012",
      "Lat": 31.2102,
      "Lng": 77.12002
    }
  ],
  "171013": [
    {
      "Name": "Beolia BO",
      "District": "SHIMLA",
      "State": "HIMACHAL PRADESH",
      "Pincode": "171013",
      "Lat": 31.11765,
      "Lng": 77.45277
    },
    {
      "Name": "Mehli SO",
      "District": "SHIMLA",
      "State": "HIMACHAL PRADESH",
      "Pincode": "171013",
      "Lat": 31.40487,
      "Lng": 77.601913
    }
  ],
  "171014": [
    {
      "Name": "Kalihatti BO",
      "District": "SHIMLA",
      "State": "HIMACHAL PRADESH",
      "Pincode": "171014",
      "Lat": 31.02546,
      "Lng": 77.40671
    },
    {
      "Name": "Ghanahatti SO",
      "District": "SHIMLA",
      "State": "HIMACHAL PRADESH",
      "Pincode": "171014",
      "Lat": 31.1385,
      "Lng": 77.0838
    },
    {
      "Name": "Kohbag BO",
      "District": "SHIMLA",
      "State": "HIMACHAL PRADESH",
      "Pincode": "171014",
      "Lat": 31.2196,
      "Lng": 77.40601
    },
    {
      "Name": "Devnagar BO",
      "District": "SHIMLA",
      "State": "HIMACHAL PRADESH",
      "Pincode": "171014",
      "Lat": 30.956,
      "Lng": 77.1019
    },
    {
      "Name": "Panesh BO",
      "District": "SHIMLA",
      "State": "HIMACHAL PRADESH",
      "Pincode": "171014",
      "Lat": 31.213,
      "Lng": 77.403
    },
    {
      "Name": "Shakarah BO",
      "District": "SHIMLA",
      "State": "HIMACHAL PRADESH",
      "Pincode": "171014",
      "Lat": 31.213,
      "Lng": 77.403
    },
    {
      "Name": "Kanda BO",
      "District": "SHIMLA",
      "State": "HIMACHAL PRADESH",
      "Pincode": "171014",
      "Lat": 12.168,
      "Lng": 77.1807242
    },
    {
      "Name": "Nehra BO",
      "District": "SHIMLA",
      "State": "HIMACHAL PRADESH",
      "Pincode": "171014",
      "Lat": 30.813,
      "Lng": 77.406
    }
  ],
  "171015": [
    {
      "Name": "Baldeyan SO",
      "District": "SHIMLA",
      "State": "HIMACHAL PRADESH",
      "Pincode": "171015",
      "Lat": 31.1669,
      "Lng": 77.1746
    }
  ],
  "171018": [
    {
      "Name": "Majhiwar BO",
      "District": "SHIMLA",
      "State": "HIMACHAL PRADESH",
      "Pincode": "171018",
      "Lat": 31.925,
      "Lng": 77.408
    },
    {
      "Name": "Gumma BO",
      "District": "SHIMLA",
      "State": "HIMACHAL PRADESH",
      "Pincode": "171018",
      "Lat": 31.218,
      "Lng": 77.1299
    },
    {
      "Name": "Kariali BO",
      "District": "SHIMLA",
      "State": "HIMACHAL PRADESH",
      "Pincode": "171018",
      "Lat": 30.913,
      "Lng": 77.129
    },
    {
      "Name": "Khera BO",
      "District": "SHIMLA",
      "State": "HIMACHAL PRADESH",
      "Pincode": "171018",
      "Lat": 31.625,
      "Lng": 77.606
    },
    {
      "Name": "Kadarghat BO",
      "District": "SHIMLA",
      "State": "HIMACHAL PRADESH",
      "Pincode": "171018",
      "Lat": 31.025,
      "Lng": 77.129
    },
    {
      "Name": "Dabri B.O.",
      "District": "SHIMLA",
      "State": "HIMACHAL PRADESH",
      "Pincode": "171018",
      "Lat": 31.2081,
      "Lng": 77.1744
    },
    {
      "Name": "Basanatpur SO",
      "District": "SHIMLA",
      "State": "HIMACHAL PRADESH",
      "Pincode": "171018",
      "Lat": 31.2103611,
      "Lng": 77.1690556
    },
    {
      "Name": "Bharara BO",
      "District": "SHIMLA",
      "State": "HIMACHAL PRADESH",
      "Pincode": "171018",
      "Lat": 31.21,
      "Lng": 77.406
    }
  ],
  "171019": [
    {
      "Name": "Gadheri BO",
      "District": "SHIMLA",
      "State": "HIMACHAL PRADESH",
      "Pincode": "171019",
      "Lat": 31.825,
      "Lng": 77.529
    },
    {
      "Name": "Dharogra BO",
      "District": "SHIMLA",
      "State": "HIMACHAL PRADESH",
      "Pincode": "171019",
      "Lat": 31.013,
      "Lng": 77.119
    },
    {
      "Name": "Himri BO",
      "District": "SHIMLA",
      "State": "HIMACHAL PRADESH",
      "Pincode": "171019",
      "Lat": 31.21036,
      "Lng": 77.1289
    },
    {
      "Name": "Jalog SO",
      "District": "SHIMLA",
      "State": "HIMACHAL PRADESH",
      "Pincode": "171019",
      "Lat": 31.1226389,
      "Lng": 77.2720278
    },
    {
      "Name": "Kangal BO",
      "District": "SHIMLA",
      "State": "HIMACHAL PRADESH",
      "Pincode": "171019",
      "Lat": 31.0201,
      "Lng": 77.906
    },
    {
      "Name": "Ogli BO",
      "District": "SHIMLA",
      "State": "HIMACHAL PRADESH",
      "Pincode": "171019",
      "Lat": 31.10213,
      "Lng": 77.12996
    },
    {
      "Name": "Pandoa BO",
      "District": "SHIMLA",
      "State": "HIMACHAL PRADESH",
      "Pincode": "171019",
      "Lat": 31.21635,
      "Lng": 77.12966
    }
  ],
  "171102": [
    {
      "Name": "Danoghat BO",
      "District": "SOLAN",
      "State": "HIMACHAL PRADESH",
      "Pincode": "171102",
      "Lat": 30.904486,
      "Lng": 77.096736
    },
    {
      "Name": "Mangoo BO",
      "District": "SOLAN",
      "State": "HIMACHAL PRADESH",
      "Pincode": "171102",
      "Lat": 30.904486,
      "Lng": 77.096736
    },
    {
      "Name": "Beral BO",
      "District": "SOLAN",
      "State": "HIMACHAL PRADESH",
      "Pincode": "171102",
      "Lat": 30.904486,
      "Lng": 77.096736
    },
    {
      "Name": "Chakhar Bughar BO",
      "District": "SOLAN",
      "State": "HIMACHAL PRADESH",
      "Pincode": "171102",
      "Lat": 30.904486,
      "Lng": 77.096736
    },
    {
      "Name": "Parnoo BO",
      "District": "SOLAN",
      "State": "HIMACHAL PRADESH",
      "Pincode": "171102",
      "Lat": 30.904486,
      "Lng": 77.096736
    },
    {
      "Name": "Ganagughat BO",
      "District": "SOLAN",
      "State": "HIMACHAL PRADESH",
      "Pincode": "171102",
      "Lat": 30.904486,
      "Lng": 77.096736
    },
    {
      "Name": "Nagaon BO",
      "District": "SOLAN",
      "State": "HIMACHAL PRADESH",
      "Pincode": "171102",
      "Lat": 30.904486,
      "Lng": 77.096736
    },
    {
      "Name": "Sewra Chandi BO",
      "District": "SOLAN",
      "State": "HIMACHAL PRADESH",
      "Pincode": "171102",
      "Lat": 30.904486,
      "Lng": 77.096736
    },
    {
      "Name": "Darla SO",
      "District": "SOLAN",
      "State": "HIMACHAL PRADESH",
      "Pincode": "171102",
      "Lat": 31.232545,
      "Lng": 76.934417
    },
    {
      "Name": "Kashlog BO",
      "District": "SOLAN",
      "State": "HIMACHAL PRADESH",
      "Pincode": "171102",
      "Lat": 30.904486,
      "Lng": 77.096736
    },
    {
      "Name": "Mangal BO",
      "District": "SOLAN",
      "State": "HIMACHAL PRADESH",
      "Pincode": "171102",
      "Lat": 30.904486,
      "Lng": 77.096736
    }
  ],
  "171103": [
    {
      "Name": "Chalahal BO",
      "District": "SHIMLA",
      "State": "HIMACHAL PRADESH",
      "Pincode": "171103",
      "Lat": 31.2103,
      "Lng": 77.40603
    },
    {
      "Name": "Okharoo BO",
      "District": "SHIMLA",
      "State": "HIMACHAL PRADESH",
      "Pincode": "171103",
      "Lat": 31.21021,
      "Lng": 77.606
    },
    {
      "Name": "Thachi BO",
      "District": "SHIMLA",
      "State": "HIMACHAL PRADESH",
      "Pincode": "171103",
      "Lat": 31.2102,
      "Lng": 77.129034
    },
    {
      "Name": "Dhami SO",
      "District": "SHIMLA",
      "State": "HIMACHAL PRADESH",
      "Pincode": "171103",
      "Lat": 31.1861389,
      "Lng": 77.0355278
    },
    {
      "Name": "Chanawag BO",
      "District": "SHIMLA",
      "State": "HIMACHAL PRADESH",
      "Pincode": "171103",
      "Lat": 31.2102,
      "Lng": 77.40696
    },
    {
      "Name": "Jabri BO",
      "District": "SHIMLA",
      "State": "HIMACHAL PRADESH",
      "Pincode": "171103",
      "Lat": 31.2189,
      "Lng": 77.0406
    },
    {
      "Name": "Sainj BO",
      "District": "SHIMLA",
      "State": "HIMACHAL PRADESH",
      "Pincode": "171103",
      "Lat": 31.2117,
      "Lng": 77.406
    },
    {
      "Name": "Toon BO",
      "District": "SHIMLA",
      "State": "HIMACHAL PRADESH",
      "Pincode": "171103",
      "Lat": 31.2102,
      "Lng": 77.40656
    }
  ],
  "171201": [
    {
      "Name": "Kiartoonal BO",
      "District": "SHIMLA",
      "State": "HIMACHAL PRADESH",
      "Pincode": "171201",
      "Lat": 31.029,
      "Lng": 77.4067
    },
    {
      "Name": "Barog BO",
      "District": "SHIMLA",
      "State": "HIMACHAL PRADESH",
      "Pincode": "171201",
      "Lat": 31.412,
      "Lng": 77.316
    },
    {
      "Name": "Sariun BO",
      "District": "SHIMLA",
      "State": "HIMACHAL PRADESH",
      "Pincode": "171201",
      "Lat": 31.065,
      "Lng": 77.409
    },
    {
      "Name": "Jais BO",
      "District": "SHIMLA",
      "State": "HIMACHAL PRADESH",
      "Pincode": "171201",
      "Lat": 31.2178,
      "Lng": 77.489
    },
    {
      "Name": "Dharampur Madhan BO",
      "District": "SHIMLA",
      "State": "HIMACHAL PRADESH",
      "Pincode": "171201",
      "Lat": 31.213,
      "Lng": 77.406
    },
    {
      "Name": "Theog SO",
      "District": "SHIMLA",
      "State": "HIMACHAL PRADESH",
      "Pincode": "171201",
      "Lat": 31.1183,
      "Lng": 77.3597
    },
    {
      "Name": "Bhogra BO",
      "District": "SHIMLA",
      "State": "HIMACHAL PRADESH",
      "Pincode": "171201",
      "Lat": 31.032,
      "Lng": 77.223
    },
    {
      "Name": "Sarog BO",
      "District": "SHIMLA",
      "State": "HIMACHAL PRADESH",
      "Pincode": "171201",
      "Lat": 30.901,
      "Lng": 77.48
    }
  ],
  "171202": [
    {
      "Name": "Gumma BO",
      "District": "SHIMLA",
      "State": "HIMACHAL PRADESH",
      "Pincode": "171202",
      "Lat": 31.2552785,
      "Lng": 77.1746452
    },
    {
      "Name": "Purag BO",
      "District": "SHIMLA",
      "State": "HIMACHAL PRADESH",
      "Pincode": "171202",
      "Lat": 31.237559,
      "Lng": 77.845897
    },
    {
      "Name": "Tharola BO",
      "District": "SHIMLA",
      "State": "HIMACHAL PRADESH",
      "Pincode": "171202",
      "Lat": 31.2102,
      "Lng": 77.4096
    },
    {
      "Name": "Devgarh BO",
      "District": "SHIMLA",
      "State": "HIMACHAL PRADESH",
      "Pincode": "171202",
      "Lat": 31.085,
      "Lng": 77.4046
    },
    {
      "Name": "Rawlakiar BO",
      "District": "SHIMLA",
      "State": "HIMACHAL PRADESH",
      "Pincode": "171202",
      "Lat": 30.9145,
      "Lng": 77.40696
    },
    {
      "Name": "Kotkhai SO",
      "District": "SHIMLA",
      "State": "HIMACHAL PRADESH",
      "Pincode": "171202",
      "Lat": 31.11725,
      "Lng": 77.5401111
    },
    {
      "Name": "Chalnair BO",
      "District": "SHIMLA",
      "State": "HIMACHAL PRADESH",
      "Pincode": "171202",
      "Lat": 31.201,
      "Lng": 77.40676
    },
    {
      "Name": "Himri BO",
      "District": "SHIMLA",
      "State": "HIMACHAL PRADESH",
      "Pincode": "171202",
      "Lat": 31.2178,
      "Lng": 77.40663
    },
    {
      "Name": "Darkoti BO",
      "District": "SHIMLA",
      "State": "HIMACHAL PRADESH",
      "Pincode": "171202",
      "Lat": 31.021,
      "Lng": 31.1087222
    },
    {
      "Name": "Garog BO",
      "District": "SHIMLA",
      "State": "HIMACHAL PRADESH",
      "Pincode": "171202",
      "Lat": 30.913025,
      "Lng": 77.129462
    },
    {
      "Name": "Kokunala BO",
      "District": "SHIMLA",
      "State": "HIMACHAL PRADESH",
      "Pincode": "171202",
      "Lat": 31.02546,
      "Lng": 77.40679
    },
    {
      "Name": "Baghar BO",
      "District": "SHIMLA",
      "State": "HIMACHAL PRADESH",
      "Pincode": "171202",
      "Lat": 30.913796,
      "Lng": 77.1292365
    },
    {
      "Name": "Bakhol BO",
      "District": "SHIMLA",
      "State": "HIMACHAL PRADESH",
      "Pincode": "171202",
      "Lat": 31.21789,
      "Lng": 77.129796
    },
    {
      "Name": "Mahasu BO",
      "District": "SHIMLA",
      "State": "HIMACHAL PRADESH",
      "Pincode": "171202",
      "Lat": 31.114825,
      "Lng": 77.1746425
    },
    {
      "Name": "Nagan BO",
      "District": "SHIMLA",
      "State": "HIMACHAL PRADESH",
      "Pincode": "171202",
      "Lat": 77.1746525,
      "Lng": 77.824237
    },
    {
      "Name": "Quinal BO",
      "District": "SHIMLA",
      "State": "HIMACHAL PRADESH",
      "Pincode": "171202",
      "Lat": 31.2145,
      "Lng": 77.40696
    }
  ],
  "171203": [
    {
      "Name": "Ghasani BO",
      "District": "SHIMLA",
      "State": "HIMACHAL PRADESH",
      "Pincode": "171203",
      "Lat": 30.701,
      "Lng": 77.319
    },
    {
      "Name": "Samara BO",
      "District": "SHIMLA",
      "State": "HIMACHAL PRADESH",
      "Pincode": "171203",
      "Lat": 30.915,
      "Lng": 77.129
    },
    {
      "Name": "Kadiwan BO",
      "District": "SHIMLA",
      "State": "HIMACHAL PRADESH",
      "Pincode": "171203",
      "Lat": 31.289,
      "Lng": 77.4021
    },
    {
      "Name": "Pujarli No3 BO",
      "District": "SHIMLA",
      "State": "HIMACHAL PRADESH",
      "Pincode": "171203",
      "Lat": 31.035,
      "Lng": 77.126
    },
    {
      "Name": "DPF JAGTERLI B.O.",
      "District": "SHIMLA",
      "State": "HIMACHAL PRADESH",
      "Pincode": "171203",
      "Lat": 31.18876,
      "Lng": 77.66957
    },
    {
      "Name": "Tikkar SO",
      "District": "SHIMLA",
      "State": "HIMACHAL PRADESH",
      "Pincode": "171203",
      "Lat": 31.1903333,
      "Lng": 77.6262778
    },
    {
      "Name": "Dharara BO",
      "District": "SHIMLA",
      "State": "HIMACHAL PRADESH",
      "Pincode": "171203",
      "Lat": 30.9231,
      "Lng": 77.109
    },
    {
      "Name": "Sharontha BO",
      "District": "SHIMLA",
      "State": "HIMACHAL PRADESH",
      "Pincode": "171203",
      "Lat": 30.913,
      "Lng": 77.4097
    }
  ],
  "171204": [
    {
      "Name": "Kiari SO",
      "District": "SHIMLA",
      "State": "HIMACHAL PRADESH",
      "Pincode": "171204",
      "Lat": 31.1461389,
      "Lng": 77.5462222
    },
    {
      "Name": "Galeha BO",
      "District": "SHIMLA",
      "State": "HIMACHAL PRADESH",
      "Pincode": "171204",
      "Lat": 31.0886325,
      "Lng": 77.1290423
    },
    {
      "Name": "Panog BO",
      "District": "SHIMLA",
      "State": "HIMACHAL PRADESH",
      "Pincode": "171204",
      "Lat": 30.91345,
      "Lng": 77.12956
    },
    {
      "Name": "Deori Khaneti BO",
      "District": "SHIMLA",
      "State": "HIMACHAL PRADESH",
      "Pincode": "171204",
      "Lat": 31.2102,
      "Lng": 77.1293
    }
  ],
  "171205": [
    {
      "Name": "Dhar BO",
      "District": "SHIMLA",
      "State": "HIMACHAL PRADESH",
      "Pincode": "171205",
      "Lat": 31.2145,
      "Lng": 77.12902
    },
    {
      "Name": "Shailapani BO",
      "District": "SHIMLA",
      "State": "HIMACHAL PRADESH",
      "Pincode": "171205",
      "Lat": 31.02575,
      "Lng": 77.129463
    },
    {
      "Name": "Sheel BO",
      "District": "SHIMLA",
      "State": "HIMACHAL PRADESH",
      "Pincode": "171205",
      "Lat": 31.2102798,
      "Lng": 77.4060238
    },
    {
      "Name": "Kayana BO",
      "District": "SHIMLA",
      "State": "HIMACHAL PRADESH",
      "Pincode": "171205",
      "Lat": 30.9134256,
      "Lng": 77.129658
    },
    {
      "Name": "Pujarli No2 BO",
      "District": "SHIMLA",
      "State": "HIMACHAL PRADESH",
      "Pincode": "171205",
      "Lat": 31.4048778,
      "Lng": 77.12942
    },
    {
      "Name": "Jubbal SO",
      "District": "SHIMLA",
      "State": "HIMACHAL PRADESH",
      "Pincode": "171205",
      "Lat": 31.1087222,
      "Lng": 77.6628056
    },
    {
      "Name": "Deem BO",
      "District": "SHIMLA",
      "State": "HIMACHAL PRADESH",
      "Pincode": "171205",
      "Lat": 31.025,
      "Lng": 77.4006
    },
    {
      "Name": "Praunthi BO",
      "District": "SHIMLA",
      "State": "HIMACHAL PRADESH",
      "Pincode": "171205",
      "Lat": 31.02545,
      "Lng": 77.12941
    }
  ],
  "171206": [
    {
      "Name": "Dhadirawat BO",
      "District": "SHIMLA",
      "State": "HIMACHAL PRADESH",
      "Pincode": "171206",
      "Lat": 31.225,
      "Lng": 77.22
    },
    {
      "Name": "LUDARA SHASHAN B.O.",
      "District": "SHIMLA",
      "State": "HIMACHAL PRADESH",
      "Pincode": "171206",
      "Lat": 30.98999,
      "Lng": 77.81197
    },
    {
      "Name": "Hatkoti SO",
      "District": "SHIMLA",
      "State": "HIMACHAL PRADESH",
      "Pincode": "171206",
      "Lat": 31.1314,
      "Lng": 77.7447
    },
    {
      "Name": "Jharag BO",
      "District": "SHIMLA",
      "State": "HIMACHAL PRADESH",
      "Pincode": "171206",
      "Lat": 31.5102,
      "Lng": 77.729
    },
    {
      "Name": "Anti BO",
      "District": "SHIMLA",
      "State": "HIMACHAL PRADESH",
      "Pincode": "171206",
      "Lat": 30.113,
      "Lng": 77.306
    },
    {
      "Name": "Kathasu BO",
      "District": "SHIMLA",
      "State": "HIMACHAL PRADESH",
      "Pincode": "171206",
      "Lat": 31.925,
      "Lng": 77.8906
    },
    {
      "Name": "Nandpur BO",
      "District": "SHIMLA",
      "State": "HIMACHAL PRADESH",
      "Pincode": "171206",
      "Lat": 31.21012,
      "Lng": 77.102
    },
    {
      "Name": "Solang BO",
      "District": "SHIMLA",
      "State": "HIMACHAL PRADESH",
      "Pincode": "171206",
      "Lat": 31.2177,
      "Lng": 77.6906
    },
    {
      "Name": "Barthata BO",
      "District": "SHIMLA",
      "State": "HIMACHAL PRADESH",
      "Pincode": "171206",
      "Lat": 31.2102,
      "Lng": 77.12912
    },
    {
      "Name": "Dhadighunsa BO",
      "District": "SHIMLA",
      "State": "HIMACHAL PRADESH",
      "Pincode": "171206",
      "Lat": 31.2104,
      "Lng": 77.12902
    },
    {
      "Name": "Pandranu BO",
      "District": "SHIMLA",
      "State": "HIMACHAL PRADESH",
      "Pincode": "171206",
      "Lat": 31.2021,
      "Lng": 77.12999
    }
  ],
  "171207": [
    {
      "Name": "Bachhunchh BO",
      "District": "SHIMLA",
      "State": "HIMACHAL PRADESH",
      "Pincode": "171207",
      "Lat": 331.2,
      "Lng": 77.752
    },
    {
      "Name": "Gawas BO",
      "District": "SHIMLA",
      "State": "HIMACHAL PRADESH",
      "Pincode": "171207",
      "Lat": 31.212,
      "Lng": 77.852
    },
    {
      "Name": "Samoli BO",
      "District": "SHIMLA",
      "State": "HIMACHAL PRADESH",
      "Pincode": "171207",
      "Lat": 31.086,
      "Lng": 77.1457
    },
    {
      "Name": "Jagothi BO",
      "District": "SHIMLA",
      "State": "HIMACHAL PRADESH",
      "Pincode": "171207",
      "Lat": 31.222,
      "Lng": 77.582
    },
    {
      "Name": "Karasa BO",
      "District": "SHIMLA",
      "State": "HIMACHAL PRADESH",
      "Pincode": "171207",
      "Lat": 31.203,
      "Lng": 77.57
    },
    {
      "Name": "Rohru SO",
      "District": "SHIMLA",
      "State": "HIMACHAL PRADESH",
      "Pincode": "171207",
      "Lat": 31.2046,
      "Lng": 77.7524
    },
    {
      "Name": "Kansakoti BO",
      "District": "SHIMLA",
      "State": "HIMACHAL PRADESH",
      "Pincode": "171207",
      "Lat": 31.285,
      "Lng": 77.648
    },
    {
      "Name": "Kuthara BO",
      "District": "SHIMLA",
      "State": "HIMACHAL PRADESH",
      "Pincode": "171207",
      "Lat": 30.2521,
      "Lng": 77.236
    },
    {
      "Name": "Pujarli No4 BO",
      "District": "SHIMLA",
      "State": "HIMACHAL PRADESH",
      "Pincode": "171207",
      "Lat": 31.2856,
      "Lng": 77.4896
    },
    {
      "Name": "Kaloti BO",
      "District": "SHIMLA",
      "State": "HIMACHAL PRADESH",
      "Pincode": "171207",
      "Lat": 31.323,
      "Lng": 77.445
    },
    {
      "Name": "Kui BO",
      "District": "SHIMLA",
      "State": "HIMACHAL PRADESH",
      "Pincode": "171207",
      "Lat": 31.321,
      "Lng": 77.3651
    },
    {
      "Name": "Lower Koti BO",
      "District": "SHIMLA",
      "State": "HIMACHAL PRADESH",
      "Pincode": "171207",
      "Lat": 30.91,
      "Lng": 77.487
    },
    {
      "Name": "Seema BO",
      "District": "SHIMLA",
      "State": "HIMACHAL PRADESH",
      "Pincode": "171207",
      "Lat": 31.0236,
      "Lng": 77.165
    }
  ],
  "171208": [
    {
      "Name": "Gaonsari BO",
      "District": "SHIMLA",
      "State": "HIMACHAL PRADESH",
      "Pincode": "171208",
      "Lat": 31.0259,
      "Lng": 77.12936
    },
    {
      "Name": "Pekha BO",
      "District": "SHIMLA",
      "State": "HIMACHAL PRADESH",
      "Pincode": "171208",
      "Lat": 31.2178,
      "Lng": 77.40636
    },
    {
      "Name": "Khashdhar BO",
      "District": "SHIMLA",
      "State": "HIMACHAL PRADESH",
      "Pincode": "171208",
      "Lat": 31.212,
      "Lng": 77.12999
    },
    {
      "Name": "Larot BO",
      "District": "SHIMLA",
      "State": "HIMACHAL PRADESH",
      "Pincode": "171208",
      "Lat": 31.2123,
      "Lng": 77.606
    },
    {
      "Name": "Tangnu BO",
      "District": "SHIMLA",
      "State": "HIMACHAL PRADESH",
      "Pincode": "171208",
      "Lat": 31.0258,
      "Lng": 77.40678
    },
    {
      "Name": "Masli BO",
      "District": "SHIMLA",
      "State": "HIMACHAL PRADESH",
      "Pincode": "171208",
      "Lat": 31.2122,
      "Lng": 77.40611
    },
    {
      "Name": "Rohal BO",
      "District": "SHIMLA",
      "State": "HIMACHAL PRADESH",
      "Pincode": "171208",
      "Lat": 31.21223,
      "Lng": 77.4006
    },
    {
      "Name": "Sindhasli BO",
      "District": "SHIMLA",
      "State": "HIMACHAL PRADESH",
      "Pincode": "171208",
      "Lat": 31.2112,
      "Lng": 77.40064
    },
    {
      "Name": "Khabal BO",
      "District": "SHIMLA",
      "State": "HIMACHAL PRADESH",
      "Pincode": "171208",
      "Lat": 31.0259,
      "Lng": 77.12933
    },
    {
      "Name": "Tikkari BO",
      "District": "SHIMLA",
      "State": "HIMACHAL PRADESH",
      "Pincode": "171208",
      "Lat": 31.211,
      "Lng": 77.40699
    },
    {
      "Name": "Chirgaon SO Shimla",
      "District": "SHIMLA",
      "State": "HIMACHAL PRADESH",
      "Pincode": "171208",
      "Lat": 31.2373,
      "Lng": 77.8739
    },
    {
      "Name": "Chilala BO",
      "District": "SHIMLA",
      "State": "HIMACHAL PRADESH",
      "Pincode": "171208",
      "Lat": 31.2133,
      "Lng": 77.199
    },
    {
      "Name": "Kanthli BO",
      "District": "SHIMLA",
      "State": "HIMACHAL PRADESH",
      "Pincode": "171208",
      "Lat": 31.219,
      "Lng": 77.40636
    }
  ],
  "171209": [
    {
      "Name": "Majhar BO",
      "District": "SHIMLA",
      "State": "HIMACHAL PRADESH",
      "Pincode": "171209",
      "Lat": 31.2108,
      "Lng": 77.40669
    },
    {
      "Name": "Cheog BO",
      "District": "SHIMLA",
      "State": "HIMACHAL PRADESH",
      "Pincode": "171209",
      "Lat": 31.21333,
      "Lng": 77.129056
    },
    {
      "Name": "Tiyali BO",
      "District": "SHIMLA",
      "State": "HIMACHAL PRADESH",
      "Pincode": "171209",
      "Lat": 31.02569,
      "Lng": 77.12925
    },
    {
      "Name": "Fagu SO Shimla",
      "District": "SHIMLA",
      "State": "HIMACHAL PRADESH",
      "Pincode": "171209",
      "Lat": 31.40487,
      "Lng": 77.601913
    },
    {
      "Name": "Dhamandari BO",
      "District": "SHIMLA",
      "State": "HIMACHAL PRADESH",
      "Pincode": "171209",
      "Lat": 31.2107,
      "Lng": 77.129037
    },
    {
      "Name": "Dharech BO",
      "District": "SHIMLA",
      "State": "HIMACHAL PRADESH",
      "Pincode": "171209",
      "Lat": 31.02589,
      "Lng": 77.129
    },
    {
      "Name": "Satog BO",
      "District": "SHIMLA",
      "State": "HIMACHAL PRADESH",
      "Pincode": "171209",
      "Lat": 31.2158,
      "Lng": 77.12926
    }
  ],
  "171210": [
    {
      "Name": "Bharanu BO",
      "District": "SHIMLA",
      "State": "HIMACHAL PRADESH",
      "Pincode": "171210",
      "Lat": 30.91,
      "Lng": 77.64
    },
    {
      "Name": "Deiya BO",
      "District": "SHIMLA",
      "State": "HIMACHAL PRADESH",
      "Pincode": "171210",
      "Lat": 31.213,
      "Lng": 77.402
    },
    {
      "Name": "Giahan BO",
      "District": "SHIMLA",
      "State": "HIMACHAL PRADESH",
      "Pincode": "171210",
      "Lat": 30.952,
      "Lng": 77.652
    },
    {
      "Name": "Malat BO",
      "District": "SHIMLA",
      "State": "HIMACHAL PRADESH",
      "Pincode": "171210",
      "Lat": 30.911,
      "Lng": 77.655
    },
    {
      "Name": "Thangad BO",
      "District": "SHIMLA",
      "State": "HIMACHAL PRADESH",
      "Pincode": "171210",
      "Lat": 30.925,
      "Lng": 77.662
    },
    {
      "Name": "Bour BO",
      "District": "SHIMLA",
      "State": "HIMACHAL PRADESH",
      "Pincode": "171210",
      "Lat": 30.913,
      "Lng": 77.487
    },
    {
      "Name": "Chanana Dhar BO",
      "District": "SHIMLA",
      "State": "HIMACHAL PRADESH",
      "Pincode": "171210",
      "Lat": 30.914,
      "Lng": 77.211
    },
    {
      "Name": "Jublee BO",
      "District": "SHIMLA",
      "State": "HIMACHAL PRADESH",
      "Pincode": "171210",
      "Lat": 31.658,
      "Lng": 77.665
    },
    {
      "Name": "Tharoach BO",
      "District": "SHIMLA",
      "State": "HIMACHAL PRADESH",
      "Pincode": "171210",
      "Lat": 30.917,
      "Lng": 77.656
    },
    {
      "Name": "Pawan BO",
      "District": "SHIMLA",
      "State": "HIMACHAL PRADESH",
      "Pincode": "171210",
      "Lat": 30.923,
      "Lng": 77.488
    },
    {
      "Name": "Telar BO",
      "District": "SHIMLA",
      "State": "HIMACHAL PRADESH",
      "Pincode": "171210",
      "Lat": 12.16825,
      "Lng": 77.40658
    },
    {
      "Name": "Nerwa SO",
      "District": "SHIMLA",
      "State": "HIMACHAL PRADESH",
      "Pincode": "171210",
      "Lat": 30.9172778,
      "Lng": 77.6407222
    },
    {
      "Name": "Bijmal BO",
      "District": "SHIMLA",
      "State": "HIMACHAL PRADESH",
      "Pincode": "171210",
      "Lat": 30.92,
      "Lng": 77.65
    },
    {
      "Name": "Eera BO",
      "District": "SHIMLA",
      "State": "HIMACHAL PRADESH",
      "Pincode": "171210",
      "Lat": 30.915,
      "Lng": 77.654
    },
    {
      "Name": "Kedi BO",
      "District": "SHIMLA",
      "State": "HIMACHAL PRADESH",
      "Pincode": "171210",
      "Lat": 31.335,
      "Lng": 77.4685
    },
    {
      "Name": "Kiarla BO",
      "District": "SHIMLA",
      "State": "HIMACHAL PRADESH",
      "Pincode": "171210",
      "Lat": 31.025,
      "Lng": 77.465
    },
    {
      "Name": "Madhana BO",
      "District": "SHIMLA",
      "State": "HIMACHAL PRADESH",
      "Pincode": "171210",
      "Lat": 30.923,
      "Lng": 77.652
    },
    {
      "Name": "Ruslah BO",
      "District": "SHIMLA",
      "State": "HIMACHAL PRADESH",
      "Pincode": "171210",
      "Lat": 30.614,
      "Lng": 77.65
    },
    {
      "Name": "Tikkri Neol BO",
      "District": "SHIMLA",
      "State": "HIMACHAL PRADESH",
      "Pincode": "171210",
      "Lat": 30.911,
      "Lng": 77.6511
    }
  ],
  "171211": [
    {
      "Name": "Chauth BO",
      "District": "SHIMLA",
      "State": "HIMACHAL PRADESH",
      "Pincode": "171211",
      "Lat": 31.2102,
      "Lng": 77.40663
    },
    {
      "Name": "Nakorapul BO",
      "District": "SHIMLA",
      "State": "HIMACHAL PRADESH",
      "Pincode": "171211",
      "Lat": 31.9613,
      "Lng": 77.6067
    },
    {
      "Name": "Chopal SO",
      "District": "SHIMLA",
      "State": "HIMACHAL PRADESH",
      "Pincode": "171211",
      "Lat": 30.5648486,
      "Lng": 77.3522324
    },
    {
      "Name": "Dhawas BO",
      "District": "SHIMLA",
      "State": "HIMACHAL PRADESH",
      "Pincode": "171211",
      "Lat": 31.2163,
      "Lng": 77.12903
    },
    {
      "Name": "Jhiknipul BO",
      "District": "SHIMLA",
      "State": "HIMACHAL PRADESH",
      "Pincode": "171211",
      "Lat": 31.225,
      "Lng": 77.4004
    },
    {
      "Name": "Khagna BO",
      "District": "SHIMLA",
      "State": "HIMACHAL PRADESH",
      "Pincode": "171211",
      "Lat": 31.21322,
      "Lng": 77.4668
    },
    {
      "Name": "Matal BO",
      "District": "SHIMLA",
      "State": "HIMACHAL PRADESH",
      "Pincode": "171211",
      "Lat": 31.2169,
      "Lng": 77.40665
    },
    {
      "Name": "Bamta BO",
      "District": "SHIMLA",
      "State": "HIMACHAL PRADESH",
      "Pincode": "171211",
      "Lat": 31.0244,
      "Lng": 77.1202
    },
    {
      "Name": "Dewat BO",
      "District": "SHIMLA",
      "State": "HIMACHAL PRADESH",
      "Pincode": "171211",
      "Lat": 31.21,
      "Lng": 77.40663
    },
    {
      "Name": "Pauria BO",
      "District": "SHIMLA",
      "State": "HIMACHAL PRADESH",
      "Pincode": "171211",
      "Lat": 31.2185,
      "Lng": 77.40665
    },
    {
      "Name": "DPF JABNA B.O.",
      "District": "SHIMLA",
      "State": "HIMACHAL PRADESH",
      "Pincode": "171211",
      "Lat": 30.98631,
      "Lng": 77.50925
    },
    {
      "Name": "Sarain BO",
      "District": "SHIMLA",
      "State": "HIMACHAL PRADESH",
      "Pincode": "171211",
      "Lat": 31.2138,
      "Lng": 77.40665
    },
    {
      "Name": "Chambi BO",
      "District": "SHIMLA",
      "State": "HIMACHAL PRADESH",
      "Pincode": "171211",
      "Lat": 30.313,
      "Lng": 77.40666
    },
    {
      "Name": "Marog BO",
      "District": "SHIMLA",
      "State": "HIMACHAL PRADESH",
      "Pincode": "171211",
      "Lat": 31.2163,
      "Lng": 77.40632
    }
  ],
  "171212": [
    {
      "Name": "Bharana BO",
      "District": "SHIMLA",
      "State": "HIMACHAL PRADESH",
      "Pincode": "171212",
      "Lat": 31.21069,
      "Lng": 77.406045
    },
    {
      "Name": "Kotighat BO",
      "District": "SHIMLA",
      "State": "HIMACHAL PRADESH",
      "Pincode": "171212",
      "Lat": 31.21,
      "Lng": 77.4
    },
    {
      "Name": "Shari BO",
      "District": "SHIMLA",
      "State": "HIMACHAL PRADESH",
      "Pincode": "171212",
      "Lat": 31.23,
      "Lng": 77.44
    },
    {
      "Name": "Matiana SO",
      "District": "SHIMLA",
      "State": "HIMACHAL PRADESH",
      "Pincode": "171212",
      "Lat": 31.2102,
      "Lng": 77.4056
    },
    {
      "Name": "Mahog BO",
      "District": "SHIMLA",
      "State": "HIMACHAL PRADESH",
      "Pincode": "171212",
      "Lat": 31.21,
      "Lng": 77.4
    },
    {
      "Name": "Nagjubber BO",
      "District": "SHIMLA",
      "State": "HIMACHAL PRADESH",
      "Pincode": "171212",
      "Lat": 31.2,
      "Lng": 77.42
    },
    {
      "Name": "Kandroo BO",
      "District": "SHIMLA",
      "State": "HIMACHAL PRADESH",
      "Pincode": "171212",
      "Lat": 31.21789,
      "Lng": 77.406963
    },
    {
      "Name": "Kelvi BO",
      "District": "SHIMLA",
      "State": "HIMACHAL PRADESH",
      "Pincode": "171212",
      "Lat": 31.21045,
      "Lng": 77.40636
    }
  ],
  "171213": [
    {
      "Name": "Khunni BO",
      "District": "SHIMLA",
      "State": "HIMACHAL PRADESH",
      "Pincode": "171213",
      "Lat": 31.215,
      "Lng": 77.235
    },
    {
      "Name": "Halanidhar BO",
      "District": "SHIMLA",
      "State": "HIMACHAL PRADESH",
      "Pincode": "171213",
      "Lat": 31.25,
      "Lng": 77.45
    },
    {
      "Name": "Shilaru BO",
      "District": "SHIMLA",
      "State": "HIMACHAL PRADESH",
      "Pincode": "171213",
      "Lat": 31.295,
      "Lng": 77.416
    },
    {
      "Name": "Jahu BO",
      "District": "SHIMLA",
      "State": "HIMACHAL PRADESH",
      "Pincode": "171213",
      "Lat": 31.26,
      "Lng": 77.47
    },
    {
      "Name": "Oddi BO",
      "District": "SHIMLA",
      "State": "HIMACHAL PRADESH",
      "Pincode": "171213",
      "Lat": 31.29,
      "Lng": 77.478
    },
    {
      "Name": "Bhalawag BO",
      "District": "SHIMLA",
      "State": "HIMACHAL PRADESH",
      "Pincode": "171213",
      "Lat": 31.25,
      "Lng": 77.46
    },
    {
      "Name": "Kanahar BO",
      "District": "SHIMLA",
      "State": "HIMACHAL PRADESH",
      "Pincode": "171213",
      "Lat": 31.28,
      "Lng": 77.47
    },
    {
      "Name": "Kandyali BO",
      "District": "SHIMLA",
      "State": "HIMACHAL PRADESH",
      "Pincode": "171213",
      "Lat": 31.24,
      "Lng": 77.41
    },
    {
      "Name": "Kharahan BO",
      "District": "SHIMLA",
      "State": "HIMACHAL PRADESH",
      "Pincode": "171213",
      "Lat": 31.28,
      "Lng": 77.412
    },
    {
      "Name": "Kiara BO",
      "District": "SHIMLA",
      "State": "HIMACHAL PRADESH",
      "Pincode": "171213",
      "Lat": 31.248,
      "Lng": 77.237
    },
    {
      "Name": "Madhawani BO",
      "District": "SHIMLA",
      "State": "HIMACHAL PRADESH",
      "Pincode": "171213",
      "Lat": 31.221,
      "Lng": 77.239
    },
    {
      "Name": "Narkanda SO",
      "District": "SHIMLA",
      "State": "HIMACHAL PRADESH",
      "Pincode": "171213",
      "Lat": 31.2552222,
      "Lng": 77.4595278
    }
  ],
  "171214": [
    {
      "Name": "Jangla SO",
      "District": "SHIMLA",
      "State": "HIMACHAL PRADESH",
      "Pincode": "171214",
      "Lat": 31.2375,
      "Lng": 77.8272778
    },
    {
      "Name": "Thana BO",
      "District": "SHIMLA",
      "State": "HIMACHAL PRADESH",
      "Pincode": "171214",
      "Lat": 31.21235,
      "Lng": 77.199
    },
    {
      "Name": "Devidhar BO",
      "District": "SHIMLA",
      "State": "HIMACHAL PRADESH",
      "Pincode": "171214",
      "Lat": 30.913,
      "Lng": 77.12958
    },
    {
      "Name": "Todsa BO",
      "District": "SHIMLA",
      "State": "HIMACHAL PRADESH",
      "Pincode": "171214",
      "Lat": 30.9152,
      "Lng": 77.4086
    },
    {
      "Name": "Ranol BO",
      "District": "SHIMLA",
      "State": "HIMACHAL PRADESH",
      "Pincode": "171214",
      "Lat": 31.21012,
      "Lng": 77.0129
    }
  ],
  "171215": [
    {
      "Name": "Mandhole SO",
      "District": "SHIMLA",
      "State": "HIMACHAL PRADESH",
      "Pincode": "171215",
      "Lat": 31.1088795,
      "Lng": 77.6664896
    }
  ],
  "171216": [
    {
      "Name": "Jhagtan BO",
      "District": "SHIMLA",
      "State": "HIMACHAL PRADESH",
      "Pincode": "171216",
      "Lat": 31.2102,
      "Lng": 77.406963
    },
    {
      "Name": "Jhalta BO",
      "District": "SHIMLA",
      "State": "HIMACHAL PRADESH",
      "Pincode": "171216",
      "Lat": 31.21002,
      "Lng": 77.406963
    },
    {
      "Name": "Mandal SO Shimla",
      "District": "SHIMLA",
      "State": "HIMACHAL PRADESH",
      "Pincode": "171216",
      "Lat": 31.40487,
      "Lng": 77.601913
    },
    {
      "Name": "Giltari BO",
      "District": "SHIMLA",
      "State": "HIMACHAL PRADESH",
      "Pincode": "171216",
      "Lat": 31.5913,
      "Lng": 77.606024
    },
    {
      "Name": "Tooran BO",
      "District": "SHIMLA",
      "State": "HIMACHAL PRADESH",
      "Pincode": "171216",
      "Lat": 77.824237,
      "Lng": 31.237545
    },
    {
      "Name": "Bholad BO",
      "District": "SHIMLA",
      "State": "HIMACHAL PRADESH",
      "Pincode": "171216",
      "Lat": 31.2156,
      "Lng": 77.40604
    }
  ],
  "171217": [
    {
      "Name": "Bhalu BO",
      "District": "SHIMLA",
      "State": "HIMACHAL PRADESH",
      "Pincode": "171217",
      "Lat": 30.9169,
      "Lng": 77.409676
    },
    {
      "Name": "Charoli BO",
      "District": "SHIMLA",
      "State": "HIMACHAL PRADESH",
      "Pincode": "171217",
      "Lat": 31.2145,
      "Lng": 77.40645
    },
    {
      "Name": "Kanda Banah BO",
      "District": "SHIMLA",
      "State": "HIMACHAL PRADESH",
      "Pincode": "171217",
      "Lat": 31.21032,
      "Lng": 77.40696
    },
    {
      "Name": "Kulag BO",
      "District": "SHIMLA",
      "State": "HIMACHAL PRADESH",
      "Pincode": "171217",
      "Lat": 31.21305,
      "Lng": 77.60602
    },
    {
      "Name": "Kupvi SO",
      "District": "SHIMLA",
      "State": "HIMACHAL PRADESH",
      "Pincode": "171217",
      "Lat": 31.0888056,
      "Lng": 77.4361111
    },
    {
      "Name": "Majholi BO",
      "District": "SHIMLA",
      "State": "HIMACHAL PRADESH",
      "Pincode": "171217",
      "Lat": 31.21032,
      "Lng": 77.60645
    },
    {
      "Name": "Jokhar BO",
      "District": "SHIMLA",
      "State": "HIMACHAL PRADESH",
      "Pincode": "171217",
      "Lat": 31.2112,
      "Lng": 77.406454
    }
  ],
  "171218": [
    {
      "Name": "Junga SO",
      "District": "SHIMLA",
      "State": "HIMACHAL PRADESH",
      "Pincode": "171218",
      "Lat": 31.0238333,
      "Lng": 77.1908333
    }
  ],
  "171219": [
    {
      "Name": "Anandpur BO",
      "District": "SHIMLA",
      "State": "HIMACHAL PRADESH",
      "Pincode": "171219",
      "Lat": 31.121,
      "Lng": 77.198
    },
    {
      "Name": "Dhari BO",
      "District": "SHIMLA",
      "State": "HIMACHAL PRADESH",
      "Pincode": "171219",
      "Lat": 31.041,
      "Lng": 77.119
    },
    {
      "Name": "Salana BO",
      "District": "SHIMLA",
      "State": "HIMACHAL PRADESH",
      "Pincode": "171219",
      "Lat": 31.021,
      "Lng": 77.123
    },
    {
      "Name": "Shoghi SO",
      "District": "SHIMLA",
      "State": "HIMACHAL PRADESH",
      "Pincode": "171219",
      "Lat": 31.0415556,
      "Lng": 77.1260833
    }
  ],
  "171220": [
    {
      "Name": "Chanair BO",
      "District": "SHIMLA",
      "State": "HIMACHAL PRADESH",
      "Pincode": "171220",
      "Lat": 31.288,
      "Lng": 77.32
    },
    {
      "Name": "Ghoond BO",
      "District": "SHIMLA",
      "State": "HIMACHAL PRADESH",
      "Pincode": "171220",
      "Lat": 31.212,
      "Lng": 77.1203
    },
    {
      "Name": "Kiar BO",
      "District": "SHIMLA",
      "State": "HIMACHAL PRADESH",
      "Pincode": "171220",
      "Lat": 31.21,
      "Lng": 77.0408
    },
    {
      "Name": "Parala BO",
      "District": "SHIMLA",
      "State": "HIMACHAL PRADESH",
      "Pincode": "171220",
      "Lat": 30.914,
      "Lng": 77.4093
    },
    {
      "Name": "Balghar BO",
      "District": "SHIMLA",
      "State": "HIMACHAL PRADESH",
      "Pincode": "171220",
      "Lat": 30.91,
      "Lng": 77.407
    },
    {
      "Name": "Deothibalson BO",
      "District": "SHIMLA",
      "State": "HIMACHAL PRADESH",
      "Pincode": "171220",
      "Lat": 30.91,
      "Lng": 77.4039
    },
    {
      "Name": "Kalind BO",
      "District": "SHIMLA",
      "State": "HIMACHAL PRADESH",
      "Pincode": "171220",
      "Lat": 31.211,
      "Lng": 77.4067
    },
    {
      "Name": "Mahori BO",
      "District": "SHIMLA",
      "State": "HIMACHAL PRADESH",
      "Pincode": "171220",
      "Lat": 31.219,
      "Lng": 77.4096
    },
    {
      "Name": "Sainj BO",
      "District": "SHIMLA",
      "State": "HIMACHAL PRADESH",
      "Pincode": "171220",
      "Lat": 31.005,
      "Lng": 77.492
    },
    {
      "Name": "Bagri BO",
      "District": "SHIMLA",
      "State": "HIMACHAL PRADESH",
      "Pincode": "171220",
      "Lat": 31.273,
      "Lng": 77.19
    },
    {
      "Name": "Dehabalson BO",
      "District": "SHIMLA",
      "State": "HIMACHAL PRADESH",
      "Pincode": "171220",
      "Lat": 30.9196,
      "Lng": 77.1201
    },
    {
      "Name": "JANGAL CHADAHA B.O.",
      "District": "SHIMLA",
      "State": "HIMACHAL PRADESH",
      "Pincode": "171220",
      "Lat": 31.00328,
      "Lng": 77.54303
    },
    {
      "Name": "Bagain SO",
      "District": "SHIMLA",
      "State": "HIMACHAL PRADESH",
      "Pincode": "171220",
      "Lat": 31.40487,
      "Lng": 77.601913
    }
  ],
  "171221": [
    {
      "Name": "Dodra BO",
      "District": "SHIMLA",
      "State": "HIMACHAL PRADESH",
      "Pincode": "171221",
      "Lat": 31.2102,
      "Lng": 77.4006
    },
    {
      "Name": "Kawar SO",
      "District": "SHIMLA",
      "State": "HIMACHAL PRADESH",
      "Pincode": "171221",
      "Lat": 31.2136111,
      "Lng": 78.0923333
    },
    {
      "Name": "Jakha BO",
      "District": "SHIMLA",
      "State": "HIMACHAL PRADESH",
      "Pincode": "171221",
      "Lat": 31.21123,
      "Lng": 77.40663
    }
  ],
  "171222": [
    {
      "Name": "Lafughati BO",
      "District": "SHIMLA",
      "State": "HIMACHAL PRADESH",
      "Pincode": "171222",
      "Lat": 31.235,
      "Lng": 77.632
    },
    {
      "Name": "Sandhu SO",
      "District": "SHIMLA",
      "State": "HIMACHAL PRADESH",
      "Pincode": "171222",
      "Lat": 31.1559444,
      "Lng": 77.3796389
    },
    {
      "Name": "Kathog BO",
      "District": "SHIMLA",
      "State": "HIMACHAL PRADESH",
      "Pincode": "171222",
      "Lat": 31.121,
      "Lng": 77.352
    },
    {
      "Name": "Chikar BO",
      "District": "SHIMLA",
      "State": "HIMACHAL PRADESH",
      "Pincode": "171222",
      "Lat": 12.168,
      "Lng": 77.1065556
    }
  ],
  "171223": [
    {
      "Name": "Arhal SO",
      "District": "SHIMLA",
      "State": "HIMACHAL PRADESH",
      "Pincode": "171223",
      "Lat": 31.2086944,
      "Lng": 77.7001111
    }
  ],
  "171224": [
    {
      "Name": "Summer Kot SO",
      "District": "SHIMLA",
      "State": "HIMACHAL PRADESH",
      "Pincode": "171224",
      "Lat": 31.2825556,
      "Lng": 77.6997778
    },
    {
      "Name": "Sungri BO",
      "District": "SHIMLA",
      "State": "HIMACHAL PRADESH",
      "Pincode": "171224",
      "Lat": 31.288,
      "Lng": 77.698
    }
  ],
  "171225": [
    {
      "Name": "Ratnari BO",
      "District": "SHIMLA",
      "State": "HIMACHAL PRADESH",
      "Pincode": "171225",
      "Lat": 31.0323,
      "Lng": 77.4069
    },
    {
      "Name": "Baghi SO Shimla",
      "District": "SHIMLA",
      "State": "HIMACHAL PRADESH",
      "Pincode": "171225",
      "Lat": 31.40487,
      "Lng": 77.601913
    },
    {
      "Name": "Kalbog BO",
      "District": "SHIMLA",
      "State": "HIMACHAL PRADESH",
      "Pincode": "171225",
      "Lat": 31.625,
      "Lng": 77.802
    },
    {
      "Name": "Khadrala BO",
      "District": "SHIMLA",
      "State": "HIMACHAL PRADESH",
      "Pincode": "171225",
      "Lat": 31.253,
      "Lng": 77.806
    },
    {
      "Name": "Khangteri BO",
      "District": "SHIMLA",
      "State": "HIMACHAL PRADESH",
      "Pincode": "171225",
      "Lat": 31.925,
      "Lng": 77.302
    }
  ],
  "171226": [
    {
      "Name": "Deothi Manjghaon BO",
      "District": "SHIMLA",
      "State": "HIMACHAL PRADESH",
      "Pincode": "171226",
      "Lat": 31.233,
      "Lng": 77.906
    },
    {
      "Name": "Basadhar BO",
      "District": "SHIMLA",
      "State": "HIMACHAL PRADESH",
      "Pincode": "171226",
      "Lat": 30.9127,
      "Lng": 77.4069
    },
    {
      "Name": "Kuthar BO",
      "District": "SHIMLA",
      "State": "HIMACHAL PRADESH",
      "Pincode": "171226",
      "Lat": 30.91,
      "Lng": 77.409
    },
    {
      "Name": "Neripul BO",
      "District": "SHIMLA",
      "State": "HIMACHAL PRADESH",
      "Pincode": "171226",
      "Lat": 31.288,
      "Lng": 77.1293
    },
    {
      "Name": "Pulbahal BO",
      "District": "SHIMLA",
      "State": "HIMACHAL PRADESH",
      "Pincode": "171226",
      "Lat": 30.916,
      "Lng": 77.4039
    },
    {
      "Name": "Sari BO",
      "District": "SHIMLA",
      "State": "HIMACHAL PRADESH",
      "Pincode": "171226",
      "Lat": 31.213,
      "Lng": 77.408
    },
    {
      "Name": "Balag SO",
      "District": "SHIMLA",
      "State": "HIMACHAL PRADESH",
      "Pincode": "171226",
      "Lat": 31.02975,
      "Lng": 77.3733889
    },
    {
      "Name": "Bharoli BO",
      "District": "SIRMAUR",
      "State": "HIMACHAL PRADESH",
      "Pincode": "171226",
      "Lat": 30.9198,
      "Lng": 77.906
    },
    {
      "Name": "Bhujjal BO",
      "District": "SHIMLA",
      "State": "HIMACHAL PRADESH",
      "Pincode": "171226",
      "Lat": 30.917,
      "Lng": 77.329
    },
    {
      "Name": "Mundu BO",
      "District": "SHIMLA",
      "State": "HIMACHAL PRADESH",
      "Pincode": "171226",
      "Lat": 31.263,
      "Lng": 77.606
    }
  ],
  "171301": [
    {
      "Name": "Juni BO",
      "District": "SHIMLA",
      "State": "HIMACHAL PRADESH",
      "Pincode": "171301",
      "Lat": 31.246,
      "Lng": 77.123
    },
    {
      "Name": "Mandhor Ghat BO",
      "District": "SHIMLA",
      "State": "HIMACHAL PRADESH",
      "Pincode": "171301",
      "Lat": 31.241,
      "Lng": 77.1212
    },
    {
      "Name": "Chaba BO",
      "District": "SHIMLA",
      "State": "HIMACHAL PRADESH",
      "Pincode": "171301",
      "Lat": 31.921,
      "Lng": 77.173
    },
    {
      "Name": "Rewag BO",
      "District": "SHIMLA",
      "State": "HIMACHAL PRADESH",
      "Pincode": "171301",
      "Lat": 31.246,
      "Lng": 77.1222
    },
    {
      "Name": "Sunni Bhajji SO",
      "District": "SHIMLA",
      "State": "HIMACHAL PRADESH",
      "Pincode": "171301",
      "Lat": 31.2455,
      "Lng": 77.1251667
    }
  ],
  "172001": [
    {
      "Name": "Dansa BO",
      "District": "SHIMLA",
      "State": "HIMACHAL PRADESH",
      "Pincode": "172001",
      "Lat": 31.4117634,
      "Lng": 77.675288
    },
    {
      "Name": "Shingla BO",
      "District": "SHIMLA",
      "State": "HIMACHAL PRADESH",
      "Pincode": "172001",
      "Lat": 31.47335,
      "Lng": 77.75305
    },
    {
      "Name": "Khaneri BO",
      "District": "SHIMLA",
      "State": "HIMACHAL PRADESH",
      "Pincode": "172001",
      "Lat": 31.47335,
      "Lng": 77.75305
    },
    {
      "Name": "Lailon BO",
      "District": "SHIMLA",
      "State": "HIMACHAL PRADESH",
      "Pincode": "172001",
      "Lat": 31.47335,
      "Lng": 77.75305
    },
    {
      "Name": "Khamadi BO",
      "District": "SHIMLA",
      "State": "HIMACHAL PRADESH",
      "Pincode": "172001",
      "Lat": 31.3092947,
      "Lng": 77.5834269
    },
    {
      "Name": "Tunan BO",
      "District": "KULLU",
      "State": "HIMACHAL PRADESH",
      "Pincode": "172001",
      "Lat": 31.4225356,
      "Lng": 77.5762653
    },
    {
      "Name": "Duttnagar BO",
      "District": "SHIMLA",
      "State": "HIMACHAL PRADESH",
      "Pincode": "172001",
      "Lat": 31.47335,
      "Lng": 77.75305
    },
    {
      "Name": "Kungal Balti BO",
      "District": "SHIMLA",
      "State": "HIMACHAL PRADESH",
      "Pincode": "172001",
      "Lat": 31.2743152,
      "Lng": 77.6387666
    },
    {
      "Name": "Rampur Bushahr HO",
      "District": "SHIMLA",
      "State": "HIMACHAL PRADESH",
      "Pincode": "172001",
      "Lat": 31.4483268,
      "Lng": 77.6303387
    },
    {
      "Name": "Luhri BO",
      "District": "KULLU",
      "State": "HIMACHAL PRADESH",
      "Pincode": "172001",
      "Lat": 31.47335,
      "Lng": 77.75305
    },
    {
      "Name": "Barach BO",
      "District": "SHIMLA",
      "State": "HIMACHAL PRADESH",
      "Pincode": "172001",
      "Lat": 31.47335,
      "Lng": 77.75305
    },
    {
      "Name": "Surad BO",
      "District": "SHIMLA",
      "State": "HIMACHAL PRADESH",
      "Pincode": "172001",
      "Lat": 31.3092927,
      "Lng": 77.5834289
    },
    {
      "Name": "Nirth BO",
      "District": "SHIMLA",
      "State": "HIMACHAL PRADESH",
      "Pincode": "172001",
      "Lat": 31.4473,
      "Lng": 77.637702
    },
    {
      "Name": "Padam Nagar SO Shimla",
      "District": "SHIMLA",
      "State": "HIMACHAL PRADESH",
      "Pincode": "172001",
      "Lat": 31.47335,
      "Lng": 77.75305
    },
    {
      "Name": "Sholi BO",
      "District": "SHIMLA",
      "State": "HIMACHAL PRADESH",
      "Pincode": "172001",
      "Lat": 31.3092927,
      "Lng": 77.5834289
    },
    {
      "Name": "Thaili Chakti BO",
      "District": "SHIMLA",
      "State": "HIMACHAL PRADESH",
      "Pincode": "172001",
      "Lat": 31.47335,
      "Lng": 77.75305
    },
    {
      "Name": "Poshna BO",
      "District": "KULLU",
      "State": "HIMACHAL PRADESH",
      "Pincode": "172001",
      "Lat": 31.4225366,
      "Lng": 77.5762643
    },
    {
      "Name": "Naula BO",
      "District": "SHIMLA",
      "State": "HIMACHAL PRADESH",
      "Pincode": "172001",
      "Lat": 31.47335,
      "Lng": 77.75305
    }
  ],
  "172002": [
    {
      "Name": "Sarahan BO",
      "District": "KULLU",
      "State": "HIMACHAL PRADESH",
      "Pincode": "172002",
      "Lat": 31.58187,
      "Lng": 77.68903
    },
    {
      "Name": "Arsu SO",
      "District": "KULLU",
      "State": "HIMACHAL PRADESH",
      "Pincode": "172002",
      "Lat": 31.479688,
      "Lng": 77.581408
    },
    {
      "Name": "Jaon BO",
      "District": "KULLU",
      "State": "HIMACHAL PRADESH",
      "Pincode": "172002",
      "Lat": 31.4581,
      "Lng": 77.64389
    },
    {
      "Name": "Nishani BO",
      "District": "KULLU",
      "State": "HIMACHAL PRADESH",
      "Pincode": "172002",
      "Lat": 31.58187,
      "Lng": 77.68903
    },
    {
      "Name": "Beoni BO",
      "District": "KULLU",
      "State": "HIMACHAL PRADESH",
      "Pincode": "172002",
      "Lat": 31.58187,
      "Lng": 77.68903
    },
    {
      "Name": "Deem BO",
      "District": "KULLU",
      "State": "HIMACHAL PRADESH",
      "Pincode": "172002",
      "Lat": 31.58187,
      "Lng": 77.68903
    },
    {
      "Name": "Shamani BO",
      "District": "KULLU",
      "State": "HIMACHAL PRADESH",
      "Pincode": "172002",
      "Lat": 31.4225376,
      "Lng": 77.5762633
    }
  ],
  "172021": [
    {
      "Name": "Danawali BO",
      "District": "SHIMLA",
      "State": "HIMACHAL PRADESH",
      "Pincode": "172021",
      "Lat": 31.3092957,
      "Lng": 77.5834259
    },
    {
      "Name": "Nankhari SO",
      "District": "SHIMLA",
      "State": "HIMACHAL PRADESH",
      "Pincode": "172021",
      "Lat": 31.491271,
      "Lng": 77.657108
    }
  ],
  "172022": [
    {
      "Name": "Deothi BO",
      "District": "SHIMLA",
      "State": "HIMACHAL PRADESH",
      "Pincode": "172022",
      "Lat": 31.4149,
      "Lng": 77.63435
    },
    {
      "Name": "Kashapat BO",
      "District": "SHIMLA",
      "State": "HIMACHAL PRADESH",
      "Pincode": "172022",
      "Lat": 31.4149,
      "Lng": 77.63435
    },
    {
      "Name": "Dawara BO",
      "District": "SHIMLA",
      "State": "HIMACHAL PRADESH",
      "Pincode": "172022",
      "Lat": 31.4149,
      "Lng": 77.63435
    },
    {
      "Name": "Munish Bhali BO",
      "District": "SHIMLA",
      "State": "HIMACHAL PRADESH",
      "Pincode": "172022",
      "Lat": 31.4149,
      "Lng": 77.63435
    },
    {
      "Name": "Narain BO",
      "District": "SHIMLA",
      "State": "HIMACHAL PRADESH",
      "Pincode": "172022",
      "Lat": 31.4149,
      "Lng": 77.63435
    },
    {
      "Name": "Nogli SO",
      "District": "SHIMLA",
      "State": "HIMACHAL PRADESH",
      "Pincode": "172022",
      "Lat": 31.400491,
      "Lng": 77.635455
    },
    {
      "Name": "Bahli BO",
      "District": "SHIMLA",
      "State": "HIMACHAL PRADESH",
      "Pincode": "172022",
      "Lat": 31.4149,
      "Lng": 77.63435
    },
    {
      "Name": "Bharawali BO",
      "District": "SHIMLA",
      "State": "HIMACHAL PRADESH",
      "Pincode": "172022",
      "Lat": 31.4149,
      "Lng": 77.63435
    },
    {
      "Name": "Darkali BO",
      "District": "SHIMLA",
      "State": "HIMACHAL PRADESH",
      "Pincode": "172022",
      "Lat": 31.4149,
      "Lng": 77.63435
    },
    {
      "Name": "Kareri BO",
      "District": "SHIMLA",
      "State": "HIMACHAL PRADESH",
      "Pincode": "172022",
      "Lat": 31.4040396,
      "Lng": 77.6685273
    },
    {
      "Name": "Taklech BO",
      "District": "SHIMLA",
      "State": "HIMACHAL PRADESH",
      "Pincode": "172022",
      "Lat": 31.4149,
      "Lng": 77.63435
    }
  ],
  "172023": [
    {
      "Name": "Nirmand SO",
      "District": "KULLU",
      "State": "HIMACHAL PRADESH",
      "Pincode": "172023",
      "Lat": 31.425582,
      "Lng": 77.576116
    },
    {
      "Name": "Jadoli BO",
      "District": "KULLU",
      "State": "HIMACHAL PRADESH",
      "Pincode": "172023",
      "Lat": 31.957851,
      "Lng": 77.1094597
    },
    {
      "Name": "Urtu BO",
      "District": "KULLU",
      "State": "HIMACHAL PRADESH",
      "Pincode": "172023",
      "Lat": 31.957851,
      "Lng": 77.1094597
    },
    {
      "Name": "Ghatu BO",
      "District": "KULLU",
      "State": "HIMACHAL PRADESH",
      "Pincode": "172023",
      "Lat": 31.43854,
      "Lng": 77.65208
    },
    {
      "Name": "Sharvi BO",
      "District": "KULLU",
      "State": "HIMACHAL PRADESH",
      "Pincode": "172023",
      "Lat": 31.43854,
      "Lng": 77.65208
    },
    {
      "Name": "Koil BO",
      "District": "KULLU",
      "State": "HIMACHAL PRADESH",
      "Pincode": "172023",
      "Lat": 31.43854,
      "Lng": 77.65208
    }
  ],
  "172024": [
    {
      "Name": "Bhareri BO",
      "District": "SHIMLA",
      "State": "HIMACHAL PRADESH",
      "Pincode": "172024",
      "Lat": 31.3182779,
      "Lng": 77.4458081
    },
    {
      "Name": "Kingal SO",
      "District": "SHIMLA",
      "State": "HIMACHAL PRADESH",
      "Pincode": "172024",
      "Lat": 31.330469,
      "Lng": 77.421607
    },
    {
      "Name": "Kotla BO",
      "District": "SHIMLA",
      "State": "HIMACHAL PRADESH",
      "Pincode": "172024",
      "Lat": 31.3182759,
      "Lng": 77.4458101
    },
    {
      "Name": "Chikul BO",
      "District": "SHIMLA",
      "State": "HIMACHAL PRADESH",
      "Pincode": "172024",
      "Lat": 31.3182769,
      "Lng": 77.4458091
    },
    {
      "Name": "Galani BO",
      "District": "SHIMLA",
      "State": "HIMACHAL PRADESH",
      "Pincode": "172024",
      "Lat": 31.3182769,
      "Lng": 77.4458091
    },
    {
      "Name": "Janjheli BO",
      "District": "SHIMLA",
      "State": "HIMACHAL PRADESH",
      "Pincode": "172024",
      "Lat": 31.31537,
      "Lng": 77.4147
    }
  ],
  "172025": [
    {
      "Name": "Kandagai BO",
      "District": "KULLU",
      "State": "HIMACHAL PRADESH",
      "Pincode": "172025",
      "Lat": 31.16755,
      "Lng": 77.531
    },
    {
      "Name": "Dehar BO",
      "District": "KULLU",
      "State": "HIMACHAL PRADESH",
      "Pincode": "172025",
      "Lat": 31.16755,
      "Lng": 77.531
    },
    {
      "Name": "Olwa BO",
      "District": "KULLU",
      "State": "HIMACHAL PRADESH",
      "Pincode": "172025",
      "Lat": 31.16755,
      "Lng": 77.531
    },
    {
      "Name": "Sush BO",
      "District": "KULLU",
      "State": "HIMACHAL PRADESH",
      "Pincode": "172025",
      "Lat": 31.363422,
      "Lng": 77.4124566
    },
    {
      "Name": "Dalash SO",
      "District": "KULLU",
      "State": "HIMACHAL PRADESH",
      "Pincode": "172025",
      "Lat": 31.370982,
      "Lng": 77.517142
    }
  ],
  "172026": [
    {
      "Name": "Kandugad BO",
      "District": "KULLU",
      "State": "HIMACHAL PRADESH",
      "Pincode": "172026",
      "Lat": 31.4284,
      "Lng": 77.69485
    },
    {
      "Name": "Peog BO",
      "District": "KULLU",
      "State": "HIMACHAL PRADESH",
      "Pincode": "172026",
      "Lat": 31.4284,
      "Lng": 77.69485
    },
    {
      "Name": "Duhad BO",
      "District": "KULLU",
      "State": "HIMACHAL PRADESH",
      "Pincode": "172026",
      "Lat": 31.4284,
      "Lng": 77.69485
    },
    {
      "Name": "Karana BO",
      "District": "KULLU",
      "State": "HIMACHAL PRADESH",
      "Pincode": "172026",
      "Lat": 31.467051,
      "Lng": 77.395034
    },
    {
      "Name": "Khanag BO",
      "District": "KULLU",
      "State": "HIMACHAL PRADESH",
      "Pincode": "172026",
      "Lat": 31.5184371,
      "Lng": 77.4020518
    },
    {
      "Name": "Kothi BO",
      "District": "KULLU",
      "State": "HIMACHAL PRADESH",
      "Pincode": "172026",
      "Lat": 31.4284,
      "Lng": 77.69485
    },
    {
      "Name": "Anni SO",
      "District": "KULLU",
      "State": "HIMACHAL PRADESH",
      "Pincode": "172026",
      "Lat": 31.434542,
      "Lng": 77.41701
    },
    {
      "Name": "Deori BO",
      "District": "KULLU",
      "State": "HIMACHAL PRADESH",
      "Pincode": "172026",
      "Lat": 31.4284,
      "Lng": 77.69485
    },
    {
      "Name": "Kamand BO",
      "District": "KULLU",
      "State": "HIMACHAL PRADESH",
      "Pincode": "172026",
      "Lat": 31.4284,
      "Lng": 77.69485
    },
    {
      "Name": "Lagouti BO",
      "District": "KULLU",
      "State": "HIMACHAL PRADESH",
      "Pincode": "172026",
      "Lat": 31.4284,
      "Lng": 77.69485
    },
    {
      "Name": "Nigan BO",
      "District": "KULLU",
      "State": "HIMACHAL PRADESH",
      "Pincode": "172026",
      "Lat": 31.4284,
      "Lng": 77.69485
    },
    {
      "Name": "Digerh BO",
      "District": "KULLU",
      "State": "HIMACHAL PRADESH",
      "Pincode": "172026",
      "Lat": 31.4284,
      "Lng": 77.69485
    },
    {
      "Name": "Khunn BO",
      "District": "KULLU",
      "State": "HIMACHAL PRADESH",
      "Pincode": "172026",
      "Lat": 31.4284,
      "Lng": 77.69485
    },
    {
      "Name": "Shawad BO",
      "District": "KULLU",
      "State": "HIMACHAL PRADESH",
      "Pincode": "172026",
      "Lat": 31.4284,
      "Lng": 77.69485
    }
  ],
  "172027": [
    {
      "Name": "Shiwan BO",
      "District": "SHIMLA",
      "State": "HIMACHAL PRADESH",
      "Pincode": "172027",
      "Lat": 31.31268,
      "Lng": 77.36185
    },
    {
      "Name": "Teshan BO",
      "District": "SHIMLA",
      "State": "HIMACHAL PRADESH",
      "Pincode": "172027",
      "Lat": 31.3182769,
      "Lng": 77.4458091
    },
    {
      "Name": "Baragaon SO Shimla",
      "District": "SHIMLA",
      "State": "HIMACHAL PRADESH",
      "Pincode": "172027",
      "Lat": 31.344097,
      "Lng": 77.374162
    }
  ],
  "172028": [
    {
      "Name": "Delath SO",
      "District": "SHIMLA",
      "State": "HIMACHAL PRADESH",
      "Pincode": "172028",
      "Lat": 31.340239,
      "Lng": 77.541068
    }
  ],
  "172029": [
    {
      "Name": "Kumarsain SO",
      "District": "SHIMLA",
      "State": "HIMACHAL PRADESH",
      "Pincode": "172029",
      "Lat": 31.317613,
      "Lng": 77.44815
    },
    {
      "Name": "Sharambal Camp BO",
      "District": "SHIMLA",
      "State": "HIMACHAL PRADESH",
      "Pincode": "172029",
      "Lat": 31.307,
      "Lng": 77.457
    },
    {
      "Name": "Jar BO",
      "District": "SHIMLA",
      "State": "HIMACHAL PRADESH",
      "Pincode": "172029",
      "Lat": 31.3182739,
      "Lng": 77.4458121
    },
    {
      "Name": "Pharal BO",
      "District": "SHIMLA",
      "State": "HIMACHAL PRADESH",
      "Pincode": "172029",
      "Lat": 31.3182769,
      "Lng": 77.4458091
    }
  ],
  "172030": [
    {
      "Name": "Thanedhar SO",
      "District": "SHIMLA",
      "State": "HIMACHAL PRADESH",
      "Pincode": "172030",
      "Lat": 31.3207597564905,
      "Lng": 77.4916739948093
    },
    {
      "Name": "Bhutti BO",
      "District": "SHIMLA",
      "State": "HIMACHAL PRADESH",
      "Pincode": "172030",
      "Lat": 31.3182769,
      "Lng": 77.4458091
    },
    {
      "Name": "Kirti BO",
      "District": "SHIMLA",
      "State": "HIMACHAL PRADESH",
      "Pincode": "172030",
      "Lat": 31.3182759,
      "Lng": 77.4458101
    },
    {
      "Name": "Virgarh BO",
      "District": "SHIMLA",
      "State": "HIMACHAL PRADESH",
      "Pincode": "172030",
      "Lat": 31.43165,
      "Lng": 78.18115
    },
    {
      "Name": "Shamathla BO",
      "District": "SHIMLA",
      "State": "HIMACHAL PRADESH",
      "Pincode": "172030",
      "Lat": 31.43165,
      "Lng": 78.18115
    },
    {
      "Name": "Dalan",
      "District": "NA",
      "State": "NA",
      "Pincode": "172030",
      "Lat": 31.332458,
      "Lng": 77.47814
    }
  ],
  "172031": [
    {
      "Name": "Kotgarh SO",
      "District": "SHIMLA",
      "State": "HIMACHAL PRADESH",
      "Pincode": "172031",
      "Lat": 31.311438,
      "Lng": 77.475549
    },
    {
      "Name": "Jarol BO",
      "District": "SHIMLA",
      "State": "HIMACHAL PRADESH",
      "Pincode": "172031",
      "Lat": 31.3182759,
      "Lng": 77.4458101
    },
    {
      "Name": "Batari BO",
      "District": "SHIMLA",
      "State": "HIMACHAL PRADESH",
      "Pincode": "172031",
      "Lat": 31.3182769,
      "Lng": 77.4458091
    }
  ],
  "172032": [
    {
      "Name": "Chowai SO",
      "District": "KULLU",
      "State": "HIMACHAL PRADESH",
      "Pincode": "172032",
      "Lat": 31.445754,
      "Lng": 77.442315
    },
    {
      "Name": "Ladhagi BO",
      "District": "NA",
      "State": "NA",
      "Pincode": "172032",
      "Lat": 31.4437623,
      "Lng": 77.44422231
    },
    {
      "Name": "Gad BO",
      "District": "KULLU",
      "State": "HIMACHAL PRADESH",
      "Pincode": "172032",
      "Lat": 31.4581,
      "Lng": 77.64389
    },
    {
      "Name": "Jaon BO",
      "District": "KULLU",
      "State": "HIMACHAL PRADESH",
      "Pincode": "172032",
      "Lat": 31.4581,
      "Lng": 77.64389
    }
  ],
  "172033": [
    {
      "Name": "Tandi BO",
      "District": "KULLU",
      "State": "HIMACHAL PRADESH",
      "Pincode": "172033",
      "Lat": 31.34745,
      "Lng": 77.642
    },
    {
      "Name": "Nither SO",
      "District": "KULLU",
      "State": "HIMACHAL PRADESH",
      "Pincode": "172033",
      "Lat": 31.387228,
      "Lng": 77.433509
    },
    {
      "Name": "Durah BO",
      "District": "KULLU",
      "State": "HIMACHAL PRADESH",
      "Pincode": "172033",
      "Lat": 31.34745,
      "Lng": 77.642
    }
  ],
  "172034": [
    {
      "Name": "Bonda SO",
      "District": "SHIMLA",
      "State": "HIMACHAL PRADESH",
      "Pincode": "172034",
      "Lat": 31.525967,
      "Lng": 77.794176
    }
  ],
  "172101": [
    {
      "Name": "Jaghori BO",
      "District": "SHIMLA",
      "State": "HIMACHAL PRADESH",
      "Pincode": "172101",
      "Lat": 31.6197766,
      "Lng": 77.747347
    },
    {
      "Name": "Kayab BO",
      "District": "SHIMLA",
      "State": "HIMACHAL PRADESH",
      "Pincode": "172101",
      "Lat": 31.4715,
      "Lng": 77.6843
    },
    {
      "Name": "Koot BO",
      "District": "SHIMLA",
      "State": "HIMACHAL PRADESH",
      "Pincode": "172101",
      "Lat": 31.4991422,
      "Lng": 77.799709
    },
    {
      "Name": "Nigulsari BO",
      "District": "KINNAUR",
      "State": "HIMACHAL PRADESH",
      "Pincode": "172101",
      "Lat": 31.5581505,
      "Lng": 77.9467281
    },
    {
      "Name": "Taranda BO",
      "District": "KINNAUR",
      "State": "HIMACHAL PRADESH",
      "Pincode": "172101",
      "Lat": 31.5581485,
      "Lng": 77.9467301
    },
    {
      "Name": "Chota Khamba BO",
      "District": "KINNAUR",
      "State": "HIMACHAL PRADESH",
      "Pincode": "172101",
      "Lat": 31.4715,
      "Lng": 77.6843
    },
    {
      "Name": "Ganvi BO",
      "District": "SHIMLA",
      "State": "HIMACHAL PRADESH",
      "Pincode": "172101",
      "Lat": 31.4715,
      "Lng": 77.6843
    },
    {
      "Name": "Phancha BO",
      "District": "SHIMLA",
      "State": "HIMACHAL PRADESH",
      "Pincode": "172101",
      "Lat": 31.4715,
      "Lng": 77.6843
    },
    {
      "Name": "Labana BO",
      "District": "SHIMLA",
      "State": "HIMACHAL PRADESH",
      "Pincode": "172101",
      "Lat": 31.4715,
      "Lng": 77.6843
    },
    {
      "Name": "Chaura BO",
      "District": "KINNAUR",
      "State": "HIMACHAL PRADESH",
      "Pincode": "172101",
      "Lat": 31.5581475,
      "Lng": 77.9467311
    },
    {
      "Name": "Rupi BO",
      "District": "KINNAUR",
      "State": "HIMACHAL PRADESH",
      "Pincode": "172101",
      "Lat": 31.616671,
      "Lng": 77.833329
    },
    {
      "Name": "Jeori SO",
      "District": "SHIMLA",
      "State": "HIMACHAL PRADESH",
      "Pincode": "172101",
      "Lat": 31.527109,
      "Lng": 77.777657
    }
  ],
  "172102": [
    {
      "Name": "Dofda BO",
      "District": "SHIMLA",
      "State": "HIMACHAL PRADESH",
      "Pincode": "172102",
      "Lat": 31.5048,
      "Lng": 77.80724
    },
    {
      "Name": "Majauli BO",
      "District": "SHIMLA",
      "State": "HIMACHAL PRADESH",
      "Pincode": "172102",
      "Lat": 31.5048,
      "Lng": 77.80724
    },
    {
      "Name": "Sarahan BSR SO",
      "District": "SHIMLA",
      "State": "HIMACHAL PRADESH",
      "Pincode": "172102",
      "Lat": 31.51182,
      "Lng": 77.796148
    },
    {
      "Name": "Mashnoo BO",
      "District": "SHIMLA",
      "State": "HIMACHAL PRADESH",
      "Pincode": "172102",
      "Lat": 31.4953844,
      "Lng": 77.732325
    },
    {
      "Name": "Shahdhar BO",
      "District": "SHIMLA",
      "State": "HIMACHAL PRADESH",
      "Pincode": "172102",
      "Lat": 31.5048,
      "Lng": 77.80724
    },
    {
      "Name": "Kinnu BO",
      "District": "SHIMLA",
      "State": "HIMACHAL PRADESH",
      "Pincode": "172102",
      "Lat": 31.5048,
      "Lng": 77.80724
    }
  ],
  "172103": [
    {
      "Name": "Nichar SO",
      "District": "KINNAUR",
      "State": "HIMACHAL PRADESH",
      "Pincode": "172103",
      "Lat": 31.555017,
      "Lng": 77.975402
    }
  ],
  "172104": [
    {
      "Name": "Mirro BO",
      "District": "KINNAUR",
      "State": "HIMACHAL PRADESH",
      "Pincode": "172104",
      "Lat": 31.48299,
      "Lng": 78.0856
    },
    {
      "Name": "Ramni BO",
      "District": "KINNAUR",
      "State": "HIMACHAL PRADESH",
      "Pincode": "172104",
      "Lat": 31.48299,
      "Lng": 78.0856
    },
    {
      "Name": "Yulla BO",
      "District": "KINNAUR",
      "State": "HIMACHAL PRADESH",
      "Pincode": "172104",
      "Lat": 31.5581465,
      "Lng": 77.9467321
    },
    {
      "Name": "Chagaon BO",
      "District": "KINNAUR",
      "State": "HIMACHAL PRADESH",
      "Pincode": "172104",
      "Lat": 31.5581487,
      "Lng": 77.9467301
    },
    {
      "Name": "Panvi BO",
      "District": "KINNAUR",
      "State": "HIMACHAL PRADESH",
      "Pincode": "172104",
      "Lat": 31.5581465,
      "Lng": 77.9467321
    },
    {
      "Name": "Urni BO",
      "District": "KINNAUR",
      "State": "HIMACHAL PRADESH",
      "Pincode": "172104",
      "Lat": 31.48299,
      "Lng": 78.0856
    },
    {
      "Name": "Wangtoo BO",
      "District": "KINNAUR",
      "State": "HIMACHAL PRADESH",
      "Pincode": "172104",
      "Lat": 31.5581485,
      "Lng": 77.9467301
    },
    {
      "Name": "Tapri SO",
      "District": "KINNAUR",
      "State": "HIMACHAL PRADESH",
      "Pincode": "172104",
      "Lat": 31.516686,
      "Lng": 78.097343
    }
  ],
  "172105": [
    {
      "Name": "Brua BO",
      "District": "KINNAUR",
      "State": "HIMACHAL PRADESH",
      "Pincode": "172105",
      "Lat": 31.5131,
      "Lng": 78.2236
    },
    {
      "Name": "Karcham SO",
      "District": "KINNAUR",
      "State": "HIMACHAL PRADESH",
      "Pincode": "172105",
      "Lat": 31.503038,
      "Lng": 78.173552
    },
    {
      "Name": "Kilba BO",
      "District": "KINNAUR",
      "State": "HIMACHAL PRADESH",
      "Pincode": "172105",
      "Lat": 31.5131,
      "Lng": 78.2236
    },
    {
      "Name": "Shong BO",
      "District": "KINNAUR",
      "State": "HIMACHAL PRADESH",
      "Pincode": "172105",
      "Lat": 31.5131,
      "Lng": 78.2236
    },
    {
      "Name": "Sapni BO",
      "District": "KINNAUR",
      "State": "HIMACHAL PRADESH",
      "Pincode": "172105",
      "Lat": 31.4254909,
      "Lng": 78.2649906
    }
  ],
  "172106": [
    {
      "Name": "Sangla SO",
      "District": "KINNAUR",
      "State": "HIMACHAL PRADESH",
      "Pincode": "172106",
      "Lat": 31.42764,
      "Lng": 78.264112
    },
    {
      "Name": "Kamroo BO",
      "District": "KINNAUR",
      "State": "HIMACHAL PRADESH",
      "Pincode": "172106",
      "Lat": 31.4363598,
      "Lng": 78.2578426
    },
    {
      "Name": "Rakchham BO",
      "District": "KINNAUR",
      "State": "HIMACHAL PRADESH",
      "Pincode": "172106",
      "Lat": 31.4254939,
      "Lng": 78.2649876
    },
    {
      "Name": "Chitkul BO",
      "District": "KINNAUR",
      "State": "HIMACHAL PRADESH",
      "Pincode": "172106",
      "Lat": 31.29055,
      "Lng": 78.60546
    },
    {
      "Name": "Batseri BO",
      "District": "KINNAUR",
      "State": "HIMACHAL PRADESH",
      "Pincode": "172106",
      "Lat": 31.4254929,
      "Lng": 78.2649886
    },
    {
      "Name": "Chansu BO",
      "District": "KINNAUR",
      "State": "HIMACHAL PRADESH",
      "Pincode": "172106",
      "Lat": 31.29055,
      "Lng": 78.60546
    }
  ],
  "172107": [
    {
      "Name": "Powari BO",
      "District": "KINNAUR",
      "State": "HIMACHAL PRADESH",
      "Pincode": "172107",
      "Lat": 31.536489,
      "Lng": 78.2568163
    },
    {
      "Name": "Reckong Peo HO",
      "District": "KINNAUR",
      "State": "HIMACHAL PRADESH",
      "Pincode": "172107",
      "Lat": 31.5392137,
      "Lng": 78.2712848
    },
    {
      "Name": "Meber BO",
      "District": "KINNAUR",
      "State": "HIMACHAL PRADESH",
      "Pincode": "172107",
      "Lat": 31.536488,
      "Lng": 78.2568173
    },
    {
      "Name": "Barang BO",
      "District": "KINNAUR",
      "State": "HIMACHAL PRADESH",
      "Pincode": "172107",
      "Lat": 31.536489,
      "Lng": 78.2568163
    },
    {
      "Name": "Kothi BO",
      "District": "KINNAUR",
      "State": "HIMACHAL PRADESH",
      "Pincode": "172107",
      "Lat": 31.536488,
      "Lng": 78.2568173
    },
    {
      "Name": "Khawangi BO",
      "District": "KINNAUR",
      "State": "HIMACHAL PRADESH",
      "Pincode": "172107",
      "Lat": 31.536491,
      "Lng": 78.2568143
    },
    {
      "Name": "Purbani BO",
      "District": "KINNAUR",
      "State": "HIMACHAL PRADESH",
      "Pincode": "172107",
      "Lat": 31.53649,
      "Lng": 78.2568153
    },
    {
      "Name": "Pangi BO",
      "District": "KINNAUR",
      "State": "HIMACHAL PRADESH",
      "Pincode": "172107",
      "Lat": 31.536488,
      "Lng": 78.2568173
    }
  ],
  "172108": [
    {
      "Name": "Duni BO",
      "District": "KINNAUR",
      "State": "HIMACHAL PRADESH",
      "Pincode": "172108",
      "Lat": 31.5460886,
      "Lng": 78.2599752
    },
    {
      "Name": "Kalpa SO",
      "District": "KINNAUR",
      "State": "HIMACHAL PRADESH",
      "Pincode": "172108",
      "Lat": 31.5321809,
      "Lng": 78.2505706
    },
    {
      "Name": "Roghi BO",
      "District": "KINNAUR",
      "State": "HIMACHAL PRADESH",
      "Pincode": "172108",
      "Lat": 31.6525,
      "Lng": 78.24485
    }
  ],
  "172109": [
    {
      "Name": "Asrang BO",
      "District": "KINNAUR",
      "State": "HIMACHAL PRADESH",
      "Pincode": "172109",
      "Lat": 31.5446,
      "Lng": 78.62453
    },
    {
      "Name": "Moorang SO",
      "District": "KINNAUR",
      "State": "HIMACHAL PRADESH",
      "Pincode": "172109",
      "Lat": 31.598327,
      "Lng": 78.448063
    },
    {
      "Name": "Jangi BO",
      "District": "KINNAUR",
      "State": "HIMACHAL PRADESH",
      "Pincode": "172109",
      "Lat": 31.6008046,
      "Lng": 78.4496881
    },
    {
      "Name": "Lippa BO",
      "District": "KINNAUR",
      "State": "HIMACHAL PRADESH",
      "Pincode": "172109",
      "Lat": 31.6008046,
      "Lng": 78.4496118
    },
    {
      "Name": "Charang BO",
      "District": "KINNAUR",
      "State": "HIMACHAL PRADESH",
      "Pincode": "172109",
      "Lat": 31.6008066,
      "Lng": 78.4496098
    },
    {
      "Name": "Kunnu BO",
      "District": "KINNAUR",
      "State": "HIMACHAL PRADESH",
      "Pincode": "172109",
      "Lat": 31.5446,
      "Lng": 78.62453
    },
    {
      "Name": "Thangi BO",
      "District": "KINNAUR",
      "State": "HIMACHAL PRADESH",
      "Pincode": "172109",
      "Lat": 31.6008056,
      "Lng": 78.4496108
    }
  ],
  "172110": [
    {
      "Name": "Giabong BO",
      "District": "KINNAUR",
      "State": "HIMACHAL PRADESH",
      "Pincode": "172110",
      "Lat": 31.7733383,
      "Lng": 78.4453462
    },
    {
      "Name": "Shiaso BO",
      "District": "KINNAUR",
      "State": "HIMACHAL PRADESH",
      "Pincode": "172110",
      "Lat": 31.702,
      "Lng": 78.53625
    },
    {
      "Name": "Speelo SO",
      "District": "KINNAUR",
      "State": "HIMACHAL PRADESH",
      "Pincode": "172110",
      "Lat": 31.657313,
      "Lng": 78.442133
    },
    {
      "Name": "Nesang BO",
      "District": "KINNAUR",
      "State": "HIMACHAL PRADESH",
      "Pincode": "172110",
      "Lat": 31.6463368,
      "Lng": 78.520999
    },
    {
      "Name": "Sunnam BO",
      "District": "KINNAUR",
      "State": "HIMACHAL PRADESH",
      "Pincode": "172110",
      "Lat": 31.7605995,
      "Lng": 78.4673737
    },
    {
      "Name": "Labrang BO",
      "District": "KINNAUR",
      "State": "HIMACHAL PRADESH",
      "Pincode": "172110",
      "Lat": 31.702,
      "Lng": 78.53625
    },
    {
      "Name": "Ropa BO",
      "District": "KINNAUR",
      "State": "HIMACHAL PRADESH",
      "Pincode": "172110",
      "Lat": 31.7971714,
      "Lng": 78.4218965
    },
    {
      "Name": "Kanam BO",
      "District": "KINNAUR",
      "State": "HIMACHAL PRADESH",
      "Pincode": "172110",
      "Lat": 31.702,
      "Lng": 78.53625
    }
  ],
  "172111": [
    {
      "Name": "Gue BO",
      "District": "LAHUL AND SPITI",
      "State": "HIMACHAL PRADESH",
      "Pincode": "172111",
      "Lat": 31.537658,
      "Lng": 78.275378
    },
    {
      "Name": "Samdoo BO",
      "District": "LAHUL AND SPITI",
      "State": "HIMACHAL PRADESH",
      "Pincode": "172111",
      "Lat": 31.7640211,
      "Lng": 78.5902143
    },
    {
      "Name": "Dubling BO",
      "District": "KINNAUR",
      "State": "HIMACHAL PRADESH",
      "Pincode": "172111",
      "Lat": 31.7441619,
      "Lng": 78.6310008
    },
    {
      "Name": "Nako BO",
      "District": "KINNAUR",
      "State": "HIMACHAL PRADESH",
      "Pincode": "172111",
      "Lat": 31.8815207,
      "Lng": 78.6274572
    },
    {
      "Name": "Namgia BO",
      "District": "KINNAUR",
      "State": "HIMACHAL PRADESH",
      "Pincode": "172111",
      "Lat": 31.77845,
      "Lng": 78.51207
    },
    {
      "Name": "Sumra BO",
      "District": "KINNAUR",
      "State": "HIMACHAL PRADESH",
      "Pincode": "172111",
      "Lat": 31.77845,
      "Lng": 78.51207
    },
    {
      "Name": "Chango BO",
      "District": "KINNAUR",
      "State": "HIMACHAL PRADESH",
      "Pincode": "172111",
      "Lat": 31.9757895,
      "Lng": 78.5951753
    },
    {
      "Name": "Shalkhar BO",
      "District": "KINNAUR",
      "State": "HIMACHAL PRADESH",
      "Pincode": "172111",
      "Lat": 31.77845,
      "Lng": 78.51207
    },
    {
      "Name": "Pooh Gaon BO",
      "District": "KINNAUR",
      "State": "HIMACHAL PRADESH",
      "Pincode": "172111",
      "Lat": 31.77845,
      "Lng": 78.51207
    },
    {
      "Name": "Pooh SO",
      "District": "KINNAUR",
      "State": "HIMACHAL PRADESH",
      "Pincode": "172111",
      "Lat": 31.45398,
      "Lng": 78.345999376
    }
  ],
  "172112": [
    {
      "Name": "Liyo SO",
      "District": "KINNAUR",
      "State": "HIMACHAL PRADESH",
      "Pincode": "172112",
      "Lat": 31.886353,
      "Lng": 78.596723
    },
    {
      "Name": "Hango BO",
      "District": "KINNAUR",
      "State": "HIMACHAL PRADESH",
      "Pincode": "172112",
      "Lat": 31.8286851,
      "Lng": 78.5401704
    }
  ],
  "172113": [
    {
      "Name": "Lalung BO",
      "District": "LAHUL AND SPITI",
      "State": "HIMACHAL PRADESH",
      "Pincode": "172113",
      "Lat": 32.619211,
      "Lng": 77.378379
    },
    {
      "Name": "Tabo SO",
      "District": "LAHUL AND SPITI",
      "State": "HIMACHAL PRADESH",
      "Pincode": "172113",
      "Lat": 32.0953603042289,
      "Lng": 78.3826190046966
    },
    {
      "Name": "Dhanker BO",
      "District": "LAHUL AND SPITI",
      "State": "HIMACHAL PRADESH",
      "Pincode": "172113",
      "Lat": 32.0909872,
      "Lng": 78.2278556
    },
    {
      "Name": "Mane BO",
      "District": "LAHUL AND SPITI",
      "State": "HIMACHAL PRADESH",
      "Pincode": "172113",
      "Lat": 32.619211,
      "Lng": 77.378379
    }
  ],
  "172114": [
    {
      "Name": "Demul BO",
      "District": "LAHUL AND SPITI",
      "State": "HIMACHAL PRADESH",
      "Pincode": "172114",
      "Lat": 32.1448367,
      "Lng": 78.1735438
    },
    {
      "Name": "Hikkam BO",
      "District": "LAHUL AND SPITI",
      "State": "HIMACHAL PRADESH",
      "Pincode": "172114",
      "Lat": 32.246137,
      "Lng": 78.034916
    },
    {
      "Name": "Kibber BO",
      "District": "LAHUL AND SPITI",
      "State": "HIMACHAL PRADESH",
      "Pincode": "172114",
      "Lat": 32.619211,
      "Lng": 77.378379
    },
    {
      "Name": "Kee Gompa BO",
      "District": "LAHUL AND SPITI",
      "State": "HIMACHAL PRADESH",
      "Pincode": "172114",
      "Lat": 32.619211,
      "Lng": 77.378379
    },
    {
      "Name": "Rangrik BO",
      "District": "LAHUL AND SPITI",
      "State": "HIMACHAL PRADESH",
      "Pincode": "172114",
      "Lat": 32.619211,
      "Lng": 77.378379
    },
    {
      "Name": "Hansa BO",
      "District": "LAHUL AND SPITI",
      "State": "HIMACHAL PRADESH",
      "Pincode": "172114",
      "Lat": 32.619211,
      "Lng": 77.378379
    },
    {
      "Name": "Hull BO",
      "District": "LAHUL AND SPITI",
      "State": "HIMACHAL PRADESH",
      "Pincode": "172114",
      "Lat": 32.619211,
      "Lng": 77.378379
    },
    {
      "Name": "Losser BO",
      "District": "LAHUL AND SPITI",
      "State": "HIMACHAL PRADESH",
      "Pincode": "172114",
      "Lat": 32.4383305,
      "Lng": 77.7552218
    },
    {
      "Name": "Lara BO",
      "District": "LAHUL AND SPITI",
      "State": "HIMACHAL PRADESH",
      "Pincode": "172114",
      "Lat": 32.1626604,
      "Lng": 78.1290051
    },
    {
      "Name": "Kaza SO",
      "District": "LAHUL AND SPITI",
      "State": "HIMACHAL PRADESH",
      "Pincode": "172114",
      "Lat": 32.225949,
      "Lng": 78.072146
    }
  ],
  "172115": [
    {
      "Name": "Nathpa BO",
      "District": "KINNAUR",
      "State": "HIMACHAL PRADESH",
      "Pincode": "172115",
      "Lat": 31.70645,
      "Lng": 78.19705
    },
    {
      "Name": "Ponda Solding BO",
      "District": "KINNAUR",
      "State": "HIMACHAL PRADESH",
      "Pincode": "172115",
      "Lat": 31.70645,
      "Lng": 78.19705
    },
    {
      "Name": "Sungra BO",
      "District": "KINNAUR",
      "State": "HIMACHAL PRADESH",
      "Pincode": "172115",
      "Lat": 31.70645,
      "Lng": 78.19705
    },
    {
      "Name": "Bari BO",
      "District": "KINNAUR",
      "State": "HIMACHAL PRADESH",
      "Pincode": "172115",
      "Lat": 31.5581455,
      "Lng": 77.9467331
    },
    {
      "Name": "Bhaba Nagar SO",
      "District": "KINNAUR",
      "State": "HIMACHAL PRADESH",
      "Pincode": "172115",
      "Lat": 31.566035,
      "Lng": 77.934873
    }
  ],
  "172116": [
    {
      "Name": "Rarang BO",
      "District": "KINNAUR",
      "State": "HIMACHAL PRADESH",
      "Pincode": "172116",
      "Lat": 31.6021807,
      "Lng": 78.3532822
    },
    {
      "Name": "Ribba SO",
      "District": "KINNAUR",
      "State": "HIMACHAL PRADESH",
      "Pincode": "172116",
      "Lat": 31.582484,
      "Lng": 78.365869
    },
    {
      "Name": "Rispa BO",
      "District": "KINNAUR",
      "State": "HIMACHAL PRADESH",
      "Pincode": "172116",
      "Lat": 31.58055,
      "Lng": 78.351
    },
    {
      "Name": "Akpa BO",
      "District": "KINNAUR",
      "State": "HIMACHAL PRADESH",
      "Pincode": "172116",
      "Lat": 31.58055,
      "Lng": 78.351
    }
  ],
  "172117": [
    {
      "Name": "Gulling BO",
      "District": "LAHUL AND SPITI",
      "State": "HIMACHAL PRADESH",
      "Pincode": "172117",
      "Lat": 32.619211,
      "Lng": 77.378379
    },
    {
      "Name": "Mud BO",
      "District": "LAHUL AND SPITI",
      "State": "HIMACHAL PRADESH",
      "Pincode": "172117",
      "Lat": 31.999504,
      "Lng": 77.8824441
    },
    {
      "Name": "Sagnam SO",
      "District": "LAHUL AND SPITI",
      "State": "HIMACHAL PRADESH",
      "Pincode": "172117",
      "Lat": 32.0567222,
      "Lng": 78.3647778
    }
  ],
  "172118": [
    {
      "Name": "Bhaba BO",
      "District": "KINNAUR",
      "State": "HIMACHAL PRADESH",
      "Pincode": "172118",
      "Lat": 31.69815,
      "Lng": 78.06965
    },
    {
      "Name": "Katgaon SO",
      "District": "KINNAUR",
      "State": "HIMACHAL PRADESH",
      "Pincode": "172118",
      "Lat": 31.591683,
      "Lng": 78.037023
    }
  ],
  "172201": [
    {
      "Name": "Gaura BO",
      "District": "SHIMLA",
      "State": "HIMACHAL PRADESH",
      "Pincode": "172201",
      "Lat": 32.04602,
      "Lng": 78.16141
    },
    {
      "Name": "Kushwa BO",
      "District": "KULLU",
      "State": "HIMACHAL PRADESH",
      "Pincode": "172201",
      "Lat": 32.04602,
      "Lng": 78.16141
    },
    {
      "Name": "Sarpara BO",
      "District": "SHIMLA",
      "State": "HIMACHAL PRADESH",
      "Pincode": "172201",
      "Lat": 32.04602,
      "Lng": 78.16141
    },
    {
      "Name": "Jhakri SO",
      "District": "SHIMLA",
      "State": "HIMACHAL PRADESH",
      "Pincode": "172201",
      "Lat": 31.492403,
      "Lng": 77.705008
    },
    {
      "Name": "Sargha BO",
      "District": "KULLU",
      "State": "HIMACHAL PRADESH",
      "Pincode": "172201",
      "Lat": 32.04602,
      "Lng": 78.16141
    },
    {
      "Name": "Kartot BO",
      "District": "SHIMLA",
      "State": "HIMACHAL PRADESH",
      "Pincode": "172201",
      "Lat": 32.04602,
      "Lng": 78.16141
    },
    {
      "Name": "Kharga BO",
      "District": "KULLU",
      "State": "HIMACHAL PRADESH",
      "Pincode": "172201",
      "Lat": 32.04602,
      "Lng": 78.16141
    },
    {
      "Name": "Sugha BO",
      "District": "SHIMLA",
      "State": "HIMACHAL PRADESH",
      "Pincode": "172201",
      "Lat": 32.04602,
      "Lng": 78.16141
    }
  ],
  "173001": [
    {
      "Name": "Matar BO",
      "District": "SIRMAUR",
      "State": "HIMACHAL PRADESH",
      "Pincode": "173001",
      "Lat": 30.5599327,
      "Lng": 77.295483
    },
    {
      "Name": "Surla BO",
      "District": "SIRMAUR",
      "State": "HIMACHAL PRADESH",
      "Pincode": "173001",
      "Lat": 30.5994164,
      "Lng": 77.2376414
    },
    {
      "Name": "Shambhuwala BO",
      "District": "SIRMAUR",
      "State": "HIMACHAL PRADESH",
      "Pincode": "173001",
      "Lat": 30.5599327,
      "Lng": 77.295483
    },
    {
      "Name": "Chakli BO",
      "District": "SIRMAUR",
      "State": "HIMACHAL PRADESH",
      "Pincode": "173001",
      "Lat": 30.6638497,
      "Lng": 77.2031493
    },
    {
      "Name": "Haripur Khol BO",
      "District": "SIRMAUR",
      "State": "HIMACHAL PRADESH",
      "Pincode": "173001",
      "Lat": 30.4607971,
      "Lng": 77.3879622
    },
    {
      "Name": "Kolar BO",
      "District": "SIRMAUR",
      "State": "HIMACHAL PRADESH",
      "Pincode": "173001",
      "Lat": 30.5056,
      "Lng": 77.4142
    },
    {
      "Name": "Ramadhaun BO",
      "District": "SIRMAUR",
      "State": "HIMACHAL PRADESH",
      "Pincode": "173001",
      "Lat": 30.5599327,
      "Lng": 77.295483
    },
    {
      "Name": "Panjahal BO",
      "District": "SIRMAUR",
      "State": "HIMACHAL PRADESH",
      "Pincode": "173001",
      "Lat": 30.5879872,
      "Lng": 77.3654611
    },
    {
      "Name": "Jamta BO",
      "District": "SIRMAUR",
      "State": "HIMACHAL PRADESH",
      "Pincode": "173001",
      "Lat": 30.5599327,
      "Lng": 77.295483
    },
    {
      "Name": "Court Road Nahan SO",
      "District": "SIRMAUR",
      "State": "HIMACHAL PRADESH",
      "Pincode": "173001",
      "Lat": 30.5623333,
      "Lng": 77.2933889
    },
    {
      "Name": "Katcha Tank Nahan SO",
      "District": "SIRMAUR",
      "State": "HIMACHAL PRADESH",
      "Pincode": "173001",
      "Lat": 30.559601,
      "Lng": 77.287637
    },
    {
      "Name": "Banethi BO",
      "District": "SIRMAUR",
      "State": "HIMACHAL PRADESH",
      "Pincode": "173001",
      "Lat": 30.6356345,
      "Lng": 77.2606305
    },
    {
      "Name": "Puruwala BO",
      "District": "SIRMAUR",
      "State": "HIMACHAL PRADESH",
      "Pincode": "173001",
      "Lat": 30.5019641,
      "Lng": 77.6908323
    },
    {
      "Name": "Kotla Molar BO",
      "District": "SIRMAUR",
      "State": "HIMACHAL PRADESH",
      "Pincode": "173001",
      "Lat": 30.849989,
      "Lng": 77.299414
    },
    {
      "Name": "Bagthan BO",
      "District": "SIRMAUR",
      "State": "HIMACHAL PRADESH",
      "Pincode": "173001",
      "Lat": 30.7204985,
      "Lng": 77.1875002
    },
    {
      "Name": "Gagal Shikor BO",
      "District": "SIRMAUR",
      "State": "HIMACHAL PRADESH",
      "Pincode": "173001",
      "Lat": 30.7204985,
      "Lng": 77.1875002
    },
    {
      "Name": "Dingar Kinner BO",
      "District": "SIRMAUR",
      "State": "HIMACHAL PRADESH",
      "Pincode": "173001",
      "Lat": 30.849989,
      "Lng": 77.299414
    },
    {
      "Name": "Dhagera",
      "District": "SIRMAUR",
      "State": "HIMACHAL PRADESH",
      "Pincode": "173001",
      "Lat": 30.849989,
      "Lng": 77.299414
    },
    {
      "Name": "Bikram Bag BO",
      "District": "SIRMAUR",
      "State": "HIMACHAL PRADESH",
      "Pincode": "173001",
      "Lat": 30.849989,
      "Lng": 77.299414
    },
    {
      "Name": "Chalana BO",
      "District": "SIRMAUR",
      "State": "HIMACHAL PRADESH",
      "Pincode": "173001",
      "Lat": 30.6957312,
      "Lng": 77.4257319
    },
    {
      "Name": "Parara BO",
      "District": "SIRMAUR",
      "State": "HIMACHAL PRADESH",
      "Pincode": "173001",
      "Lat": 30.6957312,
      "Lng": 77.4257319
    },
    {
      "Name": "Mahipur BO",
      "District": "SIRMAUR",
      "State": "HIMACHAL PRADESH",
      "Pincode": "173001",
      "Lat": 30.6485307,
      "Lng": 77.3482352
    },
    {
      "Name": "Nahan HO",
      "District": "SIRMAUR",
      "State": "HIMACHAL PRADESH",
      "Pincode": "173001",
      "Lat": 30.562229,
      "Lng": 77.29452
    }
  ],
  "173021": [
    {
      "Name": "Kotribyas BO",
      "District": "SIRMAUR",
      "State": "HIMACHAL PRADESH",
      "Pincode": "173021",
      "Lat": 30.849989,
      "Lng": 77.299414
    },
    {
      "Name": "Sainwala Mubarakpur BO",
      "District": "SIRMAUR",
      "State": "HIMACHAL PRADESH",
      "Pincode": "173021",
      "Lat": 30.4843359,
      "Lng": 77.5074774
    },
    {
      "Name": "Misserwala BO",
      "District": "SIRMAUR",
      "State": "HIMACHAL PRADESH",
      "Pincode": "173021",
      "Lat": 30.4768835,
      "Lng": 77.5476117
    },
    {
      "Name": "Majra SO Sirmaur",
      "District": "SIRMAUR",
      "State": "HIMACHAL PRADESH",
      "Pincode": "173021",
      "Lat": 30.49,
      "Lng": 77.53
    }
  ],
  "173022": [
    {
      "Name": "Bharog Baneri BO",
      "District": "SIRMAUR",
      "State": "HIMACHAL PRADESH",
      "Pincode": "173022",
      "Lat": 30.5497572,
      "Lng": 77.5103446
    },
    {
      "Name": "Birla BO",
      "District": "SIRMAUR",
      "State": "HIMACHAL PRADESH",
      "Pincode": "173022",
      "Lat": 30.849989,
      "Lng": 77.299414
    },
    {
      "Name": "Jamu BO",
      "District": "SIRMAUR",
      "State": "HIMACHAL PRADESH",
      "Pincode": "173022",
      "Lat": 30.849989,
      "Lng": 77.299414
    },
    {
      "Name": "Panar BO",
      "District": "SIRMAUR",
      "State": "HIMACHAL PRADESH",
      "Pincode": "173022",
      "Lat": 30.6957312,
      "Lng": 77.4257319
    },
    {
      "Name": "Dadahu SO",
      "District": "SIRMAUR",
      "State": "HIMACHAL PRADESH",
      "Pincode": "173022",
      "Lat": 30.63457,
      "Lng": 77.384823
    },
    {
      "Name": "Bhatgarh BO",
      "District": "SIRMAUR",
      "State": "HIMACHAL PRADESH",
      "Pincode": "173022",
      "Lat": 30.6957312,
      "Lng": 77.4257319
    },
    {
      "Name": "Jarag BO",
      "District": "SIRMAUR",
      "State": "HIMACHAL PRADESH",
      "Pincode": "173022",
      "Lat": 30.6957312,
      "Lng": 77.4257319
    },
    {
      "Name": "Kansar BO",
      "District": "SIRMAUR",
      "State": "HIMACHAL PRADESH",
      "Pincode": "173022",
      "Lat": 30.6957312,
      "Lng": 77.4257319
    },
    {
      "Name": "Kotidhiman BO",
      "District": "SIRMAUR",
      "State": "HIMACHAL PRADESH",
      "Pincode": "173022",
      "Lat": 30.6957312,
      "Lng": 77.4257319
    },
    {
      "Name": "Udaina Kathwar BO",
      "District": "SIRMAUR",
      "State": "HIMACHAL PRADESH",
      "Pincode": "173022",
      "Lat": 30.849989,
      "Lng": 77.299414
    },
    {
      "Name": "Kangta Failag BO",
      "District": "SIRMAUR",
      "State": "HIMACHAL PRADESH",
      "Pincode": "173022",
      "Lat": 30.849989,
      "Lng": 77.299414
    },
    {
      "Name": "Thana Kashoga BO",
      "District": "SIRMAUR",
      "State": "HIMACHAL PRADESH",
      "Pincode": "173022",
      "Lat": 30.5865475,
      "Lng": 77.4085149
    },
    {
      "Name": "Chhou Bhogar",
      "District": "NA",
      "State": "NA",
      "Pincode": "173022",
      "Lat": 30.6007,
      "Lng": 77.4372
    }
  ],
  "173023": [
    {
      "Name": "Lanapalar BO",
      "District": "SIRMAUR",
      "State": "HIMACHAL PRADESH",
      "Pincode": "173023",
      "Lat": 30.6957312,
      "Lng": 77.4257319
    },
    {
      "Name": "Sainj BO",
      "District": "SIRMAUR",
      "State": "HIMACHAL PRADESH",
      "Pincode": "173023",
      "Lat": 30.849989,
      "Lng": 77.299414
    },
    {
      "Name": "Seon BO",
      "District": "SIRMAUR",
      "State": "HIMACHAL PRADESH",
      "Pincode": "173023",
      "Lat": 30.6957312,
      "Lng": 77.4257319
    },
    {
      "Name": "BaragBO",
      "District": "SIRMAUR",
      "State": "HIMACHAL PRADESH",
      "Pincode": "173023",
      "Lat": 30.6957312,
      "Lng": 77.4257319
    },
    {
      "Name": "Bhajond BO",
      "District": "SIRMAUR",
      "State": "HIMACHAL PRADESH",
      "Pincode": "173023",
      "Lat": 30.6957312,
      "Lng": 77.4257319
    },
    {
      "Name": "Sangrah SO",
      "District": "SIRMAUR",
      "State": "HIMACHAL PRADESH",
      "Pincode": "173023",
      "Lat": 30.694263,
      "Lng": 77.426674
    },
    {
      "Name": "Andheri BO",
      "District": "SIRMAUR",
      "State": "HIMACHAL PRADESH",
      "Pincode": "173023",
      "Lat": 30.6957312,
      "Lng": 77.4257319
    },
    {
      "Name": "Rajana BO",
      "District": "SIRMAUR",
      "State": "HIMACHAL PRADESH",
      "Pincode": "173023",
      "Lat": 30.6957312,
      "Lng": 77.4257319
    },